% program   : rnx2rtkp ver.2.4.3 b33
% inp file  : /home/danisimo/post/R1_193.2020-111.2021/R00106818.21o
% inp file  : /home/danisimo/post/NSK1_193.2020-111.2021/NSK10680.21o
% inp file  : /home/danisimo/post/NSK1_193.2020-111.2021/NSK10680.21N
% obs start : 2021/03/09 01:59:14.5 GPST (week2148 179954.5s)
% obs end   : 2021/03/09 11:47:38.0 GPST (week2148 215258.0s)
% ref pos   :   447670.3040   3638117.3850   5202281.5640
%
% (x/y/z-ecef=WGS84,Q=1:fix,2:float,3:sbas,4:dgps,5:single,6:ppp,ns=# of satellites)
%  GPST                      x-ecef(m)      y-ecef(m)      z-ecef(m)   Q  ns   sdx(m)   sdy(m)   sdz(m)  sdxy(m)  sdyz(m)  sdzx(m) age(s)  ratio
2021/03/09 01:59:14.498    455570.7138   3639410.9364   5200658.5183   2   6   0.6210   1.3773   1.9472   0.3071   1.4148   0.4010  14.50    0.0
2021/03/09 01:59:14.998    455570.5609   3639410.6503   5200658.1137   2   6   0.4418   0.9825   1.3852   0.2234   1.0083   0.2888  15.00    0.0
2021/03/09 01:59:15.498    455570.5325   3639410.7316   5200658.1019   2   6   0.3616   0.8048   1.1338   0.1840   0.8258   0.2372  15.50    0.0
2021/03/09 01:59:15.998    455570.5570   3639410.8359   5200658.1961   2   6   0.3136   0.6983   0.9834   0.1599   0.7164   0.2060  16.00    0.0
2021/03/09 01:59:16.498    455570.5807   3639410.8858   5200658.2672   2   6   0.2808   0.6254   0.8808   0.1433   0.6417   0.1845  16.50    0.0
2021/03/09 01:59:16.998    455570.6066   3639410.8789   5200658.2419   2   6   0.2566   0.5715   0.8050   0.1309   0.5864   0.1685  17.00    0.0
2021/03/09 01:59:18.498    455570.6003   3639410.9002   5200658.2700   2   6   0.2379   0.5298   0.7465   0.1210   0.5437   0.1560  18.50    0.0
2021/03/09 01:59:22.498    455570.6486   3639410.8432   5200658.4257   2   6   0.2232   0.4966   0.7005   0.1124   0.5100   0.1456  22.50    0.0
2021/03/09 01:59:24.498    455570.6832   3639410.8081   5200658.5164   2   6   0.2109   0.4690   0.6622   0.1055   0.4818   0.1370  24.50    0.0
2021/03/09 01:59:32.000    455570.6641   3639410.9313   5200658.4800   2   7   0.6150   1.3048   1.5593   0.2382   1.2188   0.2511   2.00    1.2
2021/03/09 01:59:38.000    455570.8301   3639411.0819   5200658.7522   2   7   0.4372   0.9297   1.1101   0.1749   0.8678   0.1842   8.00    1.9
2021/03/09 01:59:42.000    455570.8216   3639411.2565   5200658.8815   2   7   0.3578   0.7612   0.9084   0.1443   0.7103   0.1520  12.00    1.9
2021/03/09 01:59:46.000    455570.9089   3639411.3884   5200659.0908   2   7   0.3104   0.6604   0.7879   0.1252   0.6161   0.1321  16.00    2.3
2021/03/09 01:59:50.000    455570.9846   3639411.4345   5200659.1783   2   7   0.2782   0.5917   0.7058   0.1117   0.5519   0.1181  20.00    2.4
2021/03/09 01:59:51.000    455571.0312   3639411.4947   5200659.2201   2   7   0.2544   0.5408   0.6448   0.1019   0.5044   0.1078  21.00    2.3
2021/03/09 01:59:54.000    455571.0011   3639411.5853   5200659.1762   2   7   0.2361   0.5016   0.5980   0.0937   0.4678   0.0993  24.00    1.8
2021/03/09 01:59:55.000    455571.0017   3639411.6388   5200659.1134   2   7   0.2213   0.4699   0.5601   0.0873   0.4382   0.0926  25.00    1.5
2021/03/09 01:59:58.000    455571.0154   3639411.6472   5200659.1290   2   7   0.2094   0.4441   0.5293   0.0813   0.4142   0.0866  28.00    1.4
2021/03/09 02:00:03.000    455571.0460   3639411.6084   5200659.1097   2   7   0.1965   0.4137   0.4875   0.0797   0.3817   0.0853   3.00    2.0
2021/03/09 02:00:04.000    455571.0754   3639411.6002   5200659.1201   2   7   0.1873   0.3928   0.4609   0.0760   0.3609   0.0814   4.00    2.5
2021/03/09 02:00:06.000    455571.1022   3639411.5725   5200659.0966   2   7   0.1795   0.3756   0.4402   0.0727   0.3447   0.0779   6.00    2.7
2021/03/09 02:00:09.000    455571.1115   3639411.5521   5200659.0802   2   7   0.1726   0.3611   0.4231   0.0695   0.3313   0.0746   9.00    2.8
2021/03/09 02:00:10.000    455571.1198   3639411.5178   5200659.0555   2   7   0.1664   0.3481   0.4079   0.0669   0.3194   0.0718  10.00    2.9
2021/03/09 02:00:13.000    455571.3129   3639410.9384   5200658.7852   1   7   0.0169   0.0293   0.0349  -0.0108   0.0273  -0.0104  13.00    3.2
2021/03/09 02:00:15.000    455571.3148   3639410.9389   5200658.7843   1   7   0.0191   0.0328   0.0389  -0.0126   0.0306  -0.0121  15.00    3.4
2021/03/09 02:00:17.000    455571.3154   3639410.9369   5200658.7888   1   7   0.0214   0.0365   0.0430  -0.0144   0.0339  -0.0137  17.00    3.6
2021/03/09 02:00:20.000    455571.3134   3639410.9328   5200658.7863   1   7   0.0248   0.0421   0.0494  -0.0170   0.0391  -0.0162  20.00    3.5
2021/03/09 02:00:23.000    455571.3137   3639410.9317   5200658.7848   1   7   0.0283   0.0477   0.0558  -0.0197   0.0443  -0.0187  23.00    3.4
2021/03/09 02:00:26.000    455571.3147   3639410.9363   5200658.7949   1   7   0.0318   0.0534   0.0624  -0.0223   0.0496  -0.0211  26.00    3.4
2021/03/09 02:00:28.000    455571.3150   3639410.9325   5200658.7858   1   7   0.0342   0.0573   0.0668  -0.0241   0.0531  -0.0227  28.00    3.5
2021/03/09 02:00:30.000    455571.3095   3639410.9473   5200658.7917   1   7   0.0061   0.0134   0.0160   0.0027   0.0126   0.0026   0.00    3.6
2021/03/09 02:00:33.000    455571.3103   3639410.9532   5200658.7983   1   7   0.0074   0.0148   0.0179   0.0005   0.0139   0.0007   3.00    3.4
2021/03/09 02:00:41.000    455571.3069   3639410.9507   5200658.8052   1   7   0.0147   0.0259   0.0311  -0.0091   0.0242  -0.0088  11.00    3.2
2021/03/09 02:00:43.000    455571.3065   3639410.9544   5200658.8113   1   7   0.0169   0.0293   0.0350  -0.0109   0.0274  -0.0105  13.00    3.0
2021/03/09 02:00:46.000    455571.2718   3639411.4208   5200658.8111   2   7   0.1232   0.2520   0.2897   0.0465   0.2270   0.0518  16.00    2.8
2021/03/09 02:00:47.000    455571.2779   3639411.4392   5200658.8092   2   7   0.1211   0.2477   0.2847   0.0453   0.2231   0.0506  17.00    2.6
2021/03/09 02:00:48.000    455571.2903   3639411.4676   5200658.8232   2   7   0.1192   0.2437   0.2800   0.0442   0.2195   0.0494  18.00    2.4
2021/03/09 02:00:50.000    455571.3024   3639411.4823   5200658.8214   2   7   0.1176   0.2402   0.2762   0.0427   0.2165   0.0480  20.00    2.3
2021/03/09 02:00:55.000    455571.3094   3639411.5012   5200658.8432   2   7   0.1171   0.2382   0.2742   0.0397   0.2150   0.0454  25.00    2.2
2021/03/09 02:00:58.000    455571.3147   3639411.5144   5200658.8552   2   7   0.1162   0.2359   0.2718   0.0372   0.2132   0.0434  28.00    2.2
2021/03/09 02:01:01.000    455571.3206   3639411.5160   5200658.8548   2   7   0.1096   0.2218   0.2495   0.0435   0.1960   0.0491   1.00    2.7
2021/03/09 02:01:03.000    455571.3093   3639410.9529   5200658.8005   1   7   0.0072   0.0149   0.0179   0.0010   0.0140   0.0011   3.00    3.1
2021/03/09 02:01:04.000    455571.3077   3639410.9519   5200658.8018   1   7   0.0080   0.0158   0.0192  -0.0019   0.0149  -0.0021   4.00    3.4
2021/03/09 02:01:06.000    455571.3060   3639410.9539   5200658.8048   1   7   0.0097   0.0182   0.0222  -0.0043   0.0171  -0.0044   6.00    3.6
2021/03/09 02:01:09.000    455571.3055   3639410.9558   5200658.8115   1   7   0.0125   0.0226   0.0274  -0.0073   0.0212  -0.0071   9.00    3.7
2021/03/09 02:01:12.000    455571.3038   3639410.9564   5200658.8167   1   7   0.0158   0.0276   0.0331  -0.0100   0.0258  -0.0097  12.00    3.8
2021/03/09 02:01:14.000    455571.3015   3639410.9578   5200658.8252   1   7   0.0180   0.0311   0.0371  -0.0119   0.0291  -0.0114  14.00    3.8
2021/03/09 02:01:17.000    455571.2999   3639410.9696   5200658.8460   1   7   0.0214   0.0365   0.0434  -0.0146   0.0341  -0.0139  17.00    3.6
2021/03/09 02:01:19.000    455571.2980   3639410.9729   5200658.8570   1   7   0.0237   0.0402   0.0476  -0.0164   0.0376  -0.0156  19.00    3.5
2021/03/09 02:01:22.000    455571.2968   3639410.9733   5200658.8683   1   7   0.0272   0.0459   0.0541  -0.0191   0.0428  -0.0180  22.00    3.5
2021/03/09 02:01:25.000    455571.2953   3639410.9760   5200658.8803   1   7   0.0307   0.0516   0.0607  -0.0217   0.0481  -0.0205  25.00    3.4
2021/03/09 02:01:27.000    455571.2930   3639410.9803   5200658.8871   1   7   0.0331   0.0554   0.0651  -0.0235   0.0517  -0.0222  27.00    3.3
2021/03/09 02:01:30.000    455571.3117   3639410.9452   5200658.7881   1   7   0.0060   0.0136   0.0161   0.0026   0.0127   0.0028   0.00    3.4
2021/03/09 02:01:32.000    455571.3118   3639410.9497   5200658.7994   1   7   0.0067   0.0142   0.0170   0.0020   0.0134   0.0020   2.00    3.6
2021/03/09 02:01:35.000    455571.3124   3639410.9536   5200658.8068   1   7   0.0087   0.0170   0.0207  -0.0033   0.0160  -0.0034   5.00    3.6
2021/03/09 02:01:38.000    455571.3115   3639410.9487   5200658.8074   1   7   0.0115   0.0211   0.0256  -0.0063   0.0198  -0.0063   8.00    3.6
2021/03/09 02:01:40.000    455571.3149   3639410.9474   5200658.8095   1   7   0.0136   0.0243   0.0293  -0.0082   0.0228  -0.0080  10.00    3.4
2021/03/09 02:01:43.000    455571.3172   3639410.9419   5200658.8052   1   7   0.0169   0.0294   0.0352  -0.0110   0.0275  -0.0106  13.00    3.3
2021/03/09 02:01:45.000    455571.3177   3639410.9431   5200658.8063   1   7   0.0192   0.0329   0.0393  -0.0129   0.0308  -0.0123  15.00    3.1
2021/03/09 02:01:48.000    455571.4942   3639411.4710   5200658.9875   2   7   0.0891   0.1693   0.1788   0.0293   0.1406   0.0364  18.00    2.9
2021/03/09 02:01:51.000    455571.5094   3639411.4760   5200658.9967   2   7   0.0893   0.1692   0.1792   0.0273   0.1410   0.0348  21.00    2.7
2021/03/09 02:01:53.000    455571.5208   3639411.4740   5200658.9932   2   7   0.0892   0.1688   0.1793   0.0257   0.1411   0.0335  23.00    2.6
2021/03/09 02:01:56.000    455571.5314   3639411.4744   5200658.9916   2   7   0.0896   0.1692   0.1804   0.0229   0.1420   0.0316  26.00    2.5
2021/03/09 02:01:58.000    455571.5435   3639411.4756   5200658.9918   2   7   0.0897   0.1692   0.1809   0.0206   0.1424   0.0300  28.00    2.4
2021/03/09 02:02:01.000    455571.5386   3639411.4971   5200659.0046   2   7   0.0825   0.1563   0.1609   0.0314   0.1269   0.0382   1.00    2.3
2021/03/09 02:02:04.000    455571.5495   3639411.4999   5200659.0207   2   7   0.0818   0.1535   0.1562   0.0307   0.1232   0.0376   4.00    2.3
2021/03/09 02:02:09.000    455571.5604   3639411.5037   5200659.0440   2   7   0.0817   0.1525   0.1551   0.0294   0.1221   0.0364   9.00    2.2
2021/03/09 02:02:11.000    455571.5694   3639411.4985   5200659.0480   2   7   0.0814   0.1515   0.1540   0.0286   0.1213   0.0357  11.00    2.1
2021/03/09 02:02:14.000    455571.5794   3639411.5043   5200659.0651   2   7   0.0813   0.1512   0.1540   0.0272   0.1212   0.0346  14.00    2.0
2021/03/09 02:02:17.000    455571.5852   3639411.5115   5200659.0745   2   7   0.0815   0.1512   0.1545   0.0256   0.1216   0.0333  17.00    1.9
2021/03/09 02:02:19.000    455571.5882   3639411.5144   5200659.0782   2   7   0.0815   0.1510   0.1547   0.0242   0.1218   0.0323  19.00    1.8
2021/03/09 02:02:22.000    455571.5941   3639411.5213   5200659.0889   2   7   0.0820   0.1515   0.1559   0.0218   0.1228   0.0306  22.00    1.8
2021/03/09 02:02:24.000    455571.5981   3639411.5213   5200659.0934   2   7   0.0822   0.1517   0.1567   0.0197   0.1235   0.0292  24.00    1.7
2021/03/09 02:02:27.000    455571.6005   3639411.5308   5200659.1063   2   7   0.0830   0.1527   0.1586   0.0160   0.1250   0.0270  27.00    1.7
2021/03/09 02:02:30.000    455571.5949   3639411.5245   5200659.0705   2   7   0.0757   0.1398   0.1379   0.0280   0.1090   0.0355   0.00    1.7
2021/03/09 02:02:32.000    455571.5939   3639411.5180   5200659.0757   2   7   0.0751   0.1369   0.1324   0.0274   0.1046   0.0351   2.00    1.7
2021/03/09 02:02:35.000    455571.5936   3639411.5056   5200659.0678   2   7   0.0747   0.1353   0.1297   0.0267   0.1024   0.0345   5.00    1.8
2021/03/09 02:02:36.999    455571.5944   3639411.4997   5200659.0623   2   7   0.0744   0.1341   0.1281   0.0261   0.1010   0.0339   7.00    1.8
2021/03/09 02:02:40.000    455571.5943   3639411.4953   5200659.0632   2   7   0.0744   0.1337   0.1278   0.0250   0.1008   0.0331  10.00    1.8
2021/03/09 02:02:43.000    455571.5921   3639411.4916   5200659.0638   2   7   0.0745   0.1337   0.1283   0.0237   0.1012   0.0320  13.00    1.8
2021/03/09 02:02:45.000    455571.5902   3639411.4853   5200659.0569   2   7   0.0746   0.1336   0.1287   0.0225   0.1015   0.0312  15.00    1.8
2021/03/09 02:02:48.000    455571.5897   3639411.4795   5200659.0509   2   7   0.0750   0.1342   0.1301   0.0205   0.1026   0.0298  18.00    1.8
2021/03/09 02:02:50.000    455571.5918   3639411.4747   5200659.0481   2   7   0.0753   0.1346   0.1311   0.0187   0.1034   0.0286  20.00    1.8
2021/03/09 02:02:53.000    455571.5870   3639411.4660   5200659.0413   2   7   0.0761   0.1357   0.1333   0.0155   0.1051   0.0267  23.00    1.8
2021/03/09 02:02:56.000    455571.5804   3639411.4776   5200659.0378   2   7   0.0770   0.1371   0.1358   0.0107   0.1072   0.0245  26.00    1.9
2021/03/09 02:02:58.000    455571.5760   3639411.4816   5200659.0318   2   7   0.0776   0.1380   0.1375   0.0045   0.1085   0.0226  28.00    1.9
2021/03/09 02:03:01.000    455571.5678   3639411.4918   5200659.0376   2   7   0.0694   0.1241   0.1153   0.0246   0.0913   0.0328   1.00    1.9
2021/03/09 02:03:03.000    455571.5658   3639411.4946   5200659.0361   2   7   0.0689   0.1221   0.1117   0.0240   0.0884   0.0324   3.00    1.9
2021/03/09 02:03:06.000    455571.5634   3639411.4981   5200659.0381   2   7   0.0688   0.1212   0.1103   0.0233   0.0872   0.0318   6.00    2.0
2021/03/09 02:03:11.000    455571.5607   3639411.4965   5200659.0389   2   7   0.0693   0.1216   0.1115   0.0215   0.0880   0.0305  11.00    2.0
2021/03/09 02:03:14.000    455571.5631   3639411.4979   5200659.0470   2   7   0.0696   0.1220   0.1127   0.0198   0.0889   0.0293  14.00    1.9
2021/03/09 02:03:16.000    455571.5660   3639411.4957   5200659.0464   2   7   0.0699   0.1223   0.1136   0.0184   0.0896   0.0284  16.00    1.9
2021/03/09 02:03:19.000    455571.5666   3639411.4914   5200659.0408   2   7   0.0705   0.1233   0.1156   0.0157   0.0913   0.0269  19.00    1.9
2021/03/09 02:03:20.000    455571.5682   3639411.4890   5200659.0399   2   7   0.0706   0.1233   0.1161   0.0146   0.0917   0.0261  20.00    1.9
2021/03/09 02:03:25.000    455571.5685   3639411.4908   5200659.0405   2   7   0.0725   0.1263   0.1211   0.0048   0.0956   0.0227  25.00    1.9
2021/03/09 02:03:27.000    455571.5664   3639411.4876   5200659.0408   2   7   0.0732   0.1274   0.1231  -0.0081   0.0972   0.0207  27.00    1.9
2021/03/09 02:03:30.000    455571.5500   3639411.5024   5200659.0702   2   7   0.0650   0.1136   0.1005   0.0219   0.0797   0.0310   0.00    2.0
2021/03/09 02:03:33.000    455571.5405   3639411.4923   5200659.0648   2   7   0.0647   0.1120   0.0975   0.0213   0.0772   0.0306   3.00    2.1
2021/03/09 02:03:35.000    455571.5272   3639411.4725   5200659.0496   2   7   0.0645   0.1110   0.0959   0.0207   0.0759   0.0302   5.00    2.2
2021/03/09 02:03:38.000    455571.5162   3639411.4598   5200659.0436   2   7   0.0645   0.1108   0.0959   0.0197   0.0758   0.0294   8.00    2.3
2021/03/09 02:03:40.000    455571.5067   3639411.4495   5200659.0391   2   7   0.0646   0.1107   0.0961   0.0188   0.0759   0.0288  10.00    2.5
2021/03/09 02:03:43.000    455571.4972   3639411.4389   5200659.0374   2   7   0.0650   0.1113   0.0976   0.0171   0.0771   0.0277  13.00    2.6
2021/03/09 02:03:46.000    455571.4881   3639411.4318   5200659.0331   2   7   0.0657   0.1123   0.0996   0.0147   0.0787   0.0263  16.00    2.8
2021/03/09 02:03:48.000    455571.4808   3639411.4248   5200659.0313   2   7   0.0661   0.1129   0.1012   0.0126   0.0799   0.0252  18.00    2.9
2021/03/09 02:03:51.000    455571.4761   3639411.4184   5200659.0272   2   7   0.0671   0.1145   0.1041   0.0077   0.0822   0.0233  21.00    3.0
2021/03/09 02:03:53.000    455571.3146   3639410.9510   5200658.8075   1   7   0.0286   0.0478   0.0574  -0.0206   0.0452  -0.0194  23.00    3.1
2021/03/09 02:04:04.000    455571.3124   3639410.9514   5200658.8040   1   7   0.0080   0.0162   0.0195  -0.0022   0.0153  -0.0020   4.00    3.2
2021/03/09 02:04:06.000    455571.3122   3639410.9470   5200658.8013   1   7   0.0096   0.0186   0.0225  -0.0045   0.0175  -0.0045   6.00    3.3
2021/03/09 02:04:09.000    455571.3126   3639410.9577   5200658.8114   1   7   0.0127   0.0229   0.0278  -0.0075   0.0216  -0.0073   9.00    3.4
2021/03/09 02:04:12.000    455571.3110   3639410.9613   5200658.8182   1   7   0.0159   0.0278   0.0337  -0.0104   0.0263  -0.0100  12.00    3.6
2021/03/09 02:04:14.000    455571.3096   3639410.9644   5200658.8204   1   7   0.0182   0.0313   0.0379  -0.0123   0.0296  -0.0117  14.00    3.7
2021/03/09 02:04:17.000    455571.3066   3639410.9692   5200658.8286   1   7   0.0216   0.0367   0.0443  -0.0151   0.0347  -0.0143  17.00    3.8
2021/03/09 02:04:19.000    455571.3055   3639410.9698   5200658.8317   1   7   0.0239   0.0404   0.0487  -0.0170   0.0382  -0.0160  19.00    4.0
2021/03/09 02:04:22.000    455571.3052   3639410.9736   5200658.8376   1   7   0.0275   0.0460   0.0554  -0.0198   0.0435  -0.0186  22.00    4.1
2021/03/09 02:04:25.000    455571.3023   3639410.9745   5200658.8423   1   7   0.0310   0.0516   0.0622  -0.0225   0.0489  -0.0212  25.00    4.2
2021/03/09 02:04:27.000    455571.3025   3639410.9751   5200658.8426   1   7   0.0334   0.0554   0.0668  -0.0244   0.0525  -0.0229  27.00    4.3
2021/03/09 02:04:30.000    455571.3140   3639410.9462   5200658.7942   1   7   0.0065   0.0140   0.0165   0.0027   0.0132   0.0027   0.00    4.4
2021/03/09 02:04:32.000    455571.3142   3639410.9437   5200658.7925   1   7   0.0067   0.0146   0.0173   0.0021   0.0138   0.0024   2.00    4.6
2021/03/09 02:04:35.000    455571.3178   3639410.9434   5200658.7853   1   7   0.0088   0.0174   0.0210  -0.0033   0.0164  -0.0034   5.00    4.8
2021/03/09 02:04:38.000    455571.3177   3639410.9367   5200658.7801   1   7   0.0117   0.0214   0.0260  -0.0065   0.0203  -0.0064   8.00    4.9
2021/03/09 02:04:40.000    455571.3192   3639410.9397   5200658.7809   1   7   0.0137   0.0245   0.0298  -0.0085   0.0232  -0.0082  10.00    5.0
2021/03/09 02:04:43.000    455571.3157   3639410.9397   5200658.7811   1   7   0.0170   0.0296   0.0359  -0.0114   0.0280  -0.0109  13.00    5.1
2021/03/09 02:04:45.000    455571.3158   3639410.9388   5200658.7799   1   7   0.0193   0.0331   0.0401  -0.0133   0.0313  -0.0126  15.00    5.2
2021/03/09 02:04:48.000    455571.3159   3639410.9394   5200658.7833   1   7   0.0228   0.0385   0.0467  -0.0161   0.0365  -0.0153  18.00    5.2
2021/03/09 02:04:51.000    455571.3161   3639410.9414   5200658.7878   1   7   0.0263   0.0441   0.0534  -0.0189   0.0418  -0.0178  21.00    5.2
2021/03/09 02:04:53.000    455571.3146   3639410.9400   5200658.7875   1   7   0.0287   0.0479   0.0579  -0.0208   0.0454  -0.0196  23.00    5.3
2021/03/09 02:04:56.000    455571.3152   3639410.9426   5200658.7948   1   7   0.0322   0.0535   0.0648  -0.0236   0.0508  -0.0221  26.00    5.2
2021/03/09 02:04:58.000    455571.3152   3639410.9379   5200658.7888   1   7   0.0346   0.0574   0.0694  -0.0254   0.0544  -0.0239  28.00    5.2
2021/03/09 02:05:01.000    455571.3140   3639410.9466   5200658.7938   1   7   0.0068   0.0142   0.0168   0.0025   0.0135   0.0026   1.00    5.2
2021/03/09 02:05:04.000    455571.3116   3639410.9480   5200658.8004   1   7   0.0079   0.0163   0.0196  -0.0021   0.0155  -0.0020   4.00    5.3
2021/03/09 02:05:06.000    455571.3098   3639410.9467   5200658.7993   1   7   0.0096   0.0187   0.0226  -0.0045   0.0177  -0.0044   6.00    5.3
2021/03/09 02:05:09.000    455571.3099   3639410.9500   5200658.7996   1   7   0.0126   0.0230   0.0280  -0.0076   0.0218  -0.0073   9.00    5.4
2021/03/09 02:05:11.000    455571.3098   3639410.9480   5200658.8019   1   7   0.0148   0.0262   0.0319  -0.0096   0.0248  -0.0092  11.00    5.4
2021/03/09 02:05:14.000    455571.3080   3639410.9492   5200658.8022   1   7   0.0182   0.0313   0.0381  -0.0124   0.0297  -0.0118  14.00    5.3
2021/03/09 02:05:17.000    455571.3092   3639410.9497   5200658.8051   1   7   0.0217   0.0367   0.0446  -0.0153   0.0349  -0.0144  17.00    5.3
2021/03/09 02:05:19.000    455571.3060   3639410.9477   5200658.8070   1   7   0.0240   0.0404   0.0491  -0.0171   0.0384  -0.0162  19.00    5.3
2021/03/09 02:05:22.000    455571.3070   3639410.9489   5200658.8070   1   7   0.0275   0.0460   0.0559  -0.0200   0.0437  -0.0188  22.00    5.3
2021/03/09 02:05:24.000    455571.3060   3639410.9471   5200658.8076   1   7   0.0299   0.0498   0.0604  -0.0218   0.0473  -0.0205  24.00    5.3
2021/03/09 02:05:27.000    455571.3081   3639410.9458   5200658.8064   1   7   0.0335   0.0555   0.0674  -0.0246   0.0528  -0.0231  27.00    5.3
2021/03/09 02:05:30.000    455571.3127   3639410.9435   5200658.7846   1   7   0.0066   0.0142   0.0167   0.0027   0.0134   0.0026   0.00    5.7
2021/03/09 02:05:32.000    455571.3120   3639410.9467   5200658.7892   1   7   0.0066   0.0148   0.0175   0.0020   0.0140   0.0024   2.00    6.1
2021/03/09 02:05:35.000    455571.3135   3639410.9524   5200658.7935   1   7   0.0087   0.0175   0.0211  -0.0034   0.0166  -0.0034   5.00    6.4
2021/03/09 02:05:37.000    455571.3136   3639410.9473   5200658.7843   1   7   0.0106   0.0201   0.0244  -0.0056   0.0190  -0.0055   7.00    6.7
2021/03/09 02:05:40.000    455571.3124   3639410.9439   5200658.7806   1   7   0.0138   0.0246   0.0300  -0.0086   0.0234  -0.0083  10.00    6.9
2021/03/09 02:05:43.000    455571.3142   3639410.9420   5200658.7743   1   7   0.0171   0.0296   0.0361  -0.0115   0.0282  -0.0110  13.00    7.1
2021/03/09 02:05:45.000    455571.3169   3639410.9391   5200658.7713   1   7   0.0194   0.0331   0.0404  -0.0134   0.0315  -0.0127  15.00    7.2
2021/03/09 02:05:48.000    455571.3188   3639410.9412   5200658.7684   1   7   0.0229   0.0386   0.0470  -0.0163   0.0367  -0.0154  18.00    7.3
2021/03/09 02:05:50.000    455571.3175   3639410.9428   5200658.7670   1   7   0.0252   0.0423   0.0515  -0.0182   0.0402  -0.0171  20.00    7.4
2021/03/09 02:05:53.000    455571.3178   3639410.9395   5200658.7641   1   7   0.0288   0.0479   0.0584  -0.0210   0.0456  -0.0197  23.00    7.5
2021/03/09 02:05:56.000    455571.3193   3639410.9386   5200658.7638   1   7   0.0323   0.0536   0.0653  -0.0238   0.0511  -0.0223  26.00    7.6
2021/03/09 02:05:58.000    455571.3183   3639410.9322   5200658.7563   1   7   0.0347   0.0574   0.0700  -0.0257   0.0547  -0.0241  28.00    7.8
2021/03/09 02:06:01.000    455571.3129   3639410.9508   5200658.7902   1   7   0.0061   0.0144   0.0169   0.0025   0.0137   0.0028   1.00    8.5
2021/03/09 02:06:03.000    455571.3123   3639410.9561   5200658.7969   1   7   0.0073   0.0156   0.0185   0.0012   0.0148   0.0009   3.00    8.9
2021/03/09 02:06:06.000    455571.3104   3639410.9574   5200658.8029   1   7   0.0096   0.0188   0.0227  -0.0046   0.0178  -0.0044   6.00    9.1
2021/03/09 02:06:09.000    455571.3072   3639410.9569   5200658.8046   1   7   0.0127   0.0231   0.0281  -0.0077   0.0219  -0.0074   9.00    9.3
2021/03/09 02:06:11.000    455571.3052   3639410.9571   5200658.8068   1   7   0.0149   0.0263   0.0321  -0.0096   0.0250  -0.0092  11.00    9.5
2021/03/09 02:06:14.000    455571.3046   3639410.9578   5200658.8085   1   7   0.0183   0.0314   0.0384  -0.0126   0.0299  -0.0119  14.00    9.6
2021/03/09 02:06:16.000    455571.3025   3639410.9559   5200658.8077   1   7   0.0206   0.0350   0.0427  -0.0145   0.0333  -0.0137  16.00    9.6
2021/03/09 02:06:19.000    455571.3004   3639410.9628   5200658.8157   1   7   0.0241   0.0404   0.0494  -0.0173   0.0386  -0.0163  19.00    9.6
2021/03/09 02:06:22.000    455571.2991   3639410.9609   5200658.8143   1   7   0.0276   0.0460   0.0563  -0.0202   0.0439  -0.0189  22.00    9.6
2021/03/09 02:06:24.000    455571.2974   3639410.9603   5200658.8115   1   7   0.0300   0.0498   0.0609  -0.0220   0.0475  -0.0207  24.00    9.6
2021/03/09 02:06:29.000    455571.2976   3639410.9604   5200658.8124   1   7   0.0360   0.0593   0.0726  -0.0267   0.0567  -0.0250  29.00    9.6
2021/03/09 02:06:32.000    455571.3130   3639410.9508   5200658.7881   1   7   0.0065   0.0149   0.0176   0.0020   0.0142   0.0024   2.00   10.3
2021/03/09 02:06:35.000    455571.3133   3639410.9539   5200658.7905   1   7   0.0088   0.0176   0.0212  -0.0035   0.0167  -0.0034   5.00   10.7
2021/03/09 02:06:37.000    455571.3142   3639410.9501   5200658.7834   1   7   0.0106   0.0202   0.0245  -0.0057   0.0192  -0.0055   7.00   11.1
2021/03/09 02:06:38.000    455571.3127   3639410.9518   5200658.7856   1   7   0.0117   0.0216   0.0263  -0.0067   0.0205  -0.0065   8.00   11.4
2021/03/09 02:06:40.000    455571.3134   3639410.9537   5200658.7840   1   7   0.0138   0.0247   0.0301  -0.0087   0.0235  -0.0083  10.00   11.6
2021/03/09 02:06:43.000    455571.3142   3639410.9515   5200658.7811   1   7   0.0171   0.0297   0.0363  -0.0116   0.0283  -0.0110  13.00   11.7
2021/03/09 02:06:46.000    455571.3148   3639410.9494   5200658.7760   1   7   0.0206   0.0350   0.0429  -0.0145   0.0334  -0.0137  16.00   11.7
2021/03/09 02:06:51.000    455571.3175   3639410.9466   5200658.7724   1   7   0.0265   0.0441   0.0542  -0.0193   0.0422  -0.0181  21.00   11.8
2021/03/09 02:06:53.000    455571.3198   3639410.9478   5200658.7728   1   7   0.0288   0.0479   0.0588  -0.0212   0.0458  -0.0199  23.00   11.9
2021/03/09 02:06:56.000    455571.3196   3639410.9434   5200658.7644   1   7   0.0324   0.0536   0.0658  -0.0240   0.0513  -0.0225  26.00   12.0
2021/03/09 02:06:59.000    455571.3180   3639410.9384   5200658.7649   1   7   0.0360   0.0593   0.0729  -0.0269   0.0568  -0.0251  29.00   11.9
2021/03/09 02:07:00.000    455571.3135   3639410.9477   5200658.7833   1   7   0.0062   0.0144   0.0169   0.0026   0.0137   0.0029   0.00   12.2
2021/03/09 02:07:02.000    455571.3124   3639410.9491   5200658.7877   1   7   0.0069   0.0150   0.0177   0.0021   0.0143   0.0023   2.00   12.2
2021/03/09 02:07:07.000    455571.3079   3639410.9502   5200658.8014   1   7   0.0107   0.0203   0.0246  -0.0057   0.0193  -0.0055   7.00   12.1
2021/03/09 02:07:10.000    455571.3058   3639410.9560   5200658.8109   1   7   0.0138   0.0248   0.0302  -0.0087   0.0236  -0.0084  10.00   11.9
2021/03/09 02:07:13.000    455571.3056   3639410.9556   5200658.8172   1   7   0.0172   0.0297   0.0365  -0.0117   0.0284  -0.0111  13.00   11.7
2021/03/09 02:07:15.000    455571.3036   3639410.9585   5200658.8229   1   7   0.0195   0.0332   0.0408  -0.0136   0.0318  -0.0129  15.00   11.5
2021/03/09 02:07:16.000    455571.3049   3639410.9595   5200658.8254   1   7   0.0206   0.0350   0.0430  -0.0146   0.0335  -0.0138  16.00   11.4
2021/03/09 02:07:19.000    455571.3028   3639410.9622   5200658.8337   1   7   0.0241   0.0405   0.0498  -0.0175   0.0387  -0.0164  19.00   11.3
2021/03/09 02:07:22.000    455571.2990   3639410.9602   5200658.8322   1   7   0.0277   0.0460   0.0567  -0.0203   0.0441  -0.0191  22.00   11.2
2021/03/09 02:07:27.000    455571.2965   3639410.9633   5200658.8399   1   7   0.0337   0.0554   0.0684  -0.0251   0.0532  -0.0235  27.00   11.1
2021/03/09 02:07:29.000    455571.2988   3639410.9694   5200658.8466   1   7   0.0361   0.0593   0.0732  -0.0270   0.0569  -0.0252  29.00   10.9
2021/03/09 02:07:32.000    455571.3154   3639410.9474   5200658.7868   1   7   0.0067   0.0151   0.0178   0.0023   0.0144   0.0022   2.00   11.1
2021/03/09 02:07:35.000    455571.3134   3639410.9461   5200658.7852   1   7   0.0088   0.0178   0.0213  -0.0034   0.0169  -0.0034   5.00   10.9
2021/03/09 02:07:36.000    455571.3126   3639410.9430   5200658.7841   1   7   0.0097   0.0190   0.0229  -0.0046   0.0181  -0.0045   6.00   10.6
2021/03/09 02:07:38.000    455571.3119   3639410.9436   5200658.7847   1   7   0.0117   0.0218   0.0264  -0.0067   0.0207  -0.0065   8.00   10.3
2021/03/09 02:07:40.000    455571.3106   3639410.9399   5200658.7790   1   7   0.0138   0.0248   0.0303  -0.0088   0.0237  -0.0083  10.00   10.0
2021/03/09 02:07:43.000    455571.3109   3639410.9367   5200658.7798   1   7   0.0172   0.0298   0.0366  -0.0117   0.0285  -0.0111  13.00    9.9
2021/03/09 02:07:46.000    455571.3101   3639410.9397   5200658.7827   1   7   0.0206   0.0350   0.0432  -0.0147   0.0336  -0.0138  16.00    9.6
2021/03/09 02:07:49.000    455571.3089   3639410.9393   5200658.7855   1   7   0.0242   0.0405   0.0500  -0.0175   0.0388  -0.0165  19.00    9.5
2021/03/09 02:07:51.000    455571.3071   3639410.9352   5200658.7841   1   7   0.0265   0.0442   0.0546  -0.0195   0.0424  -0.0182  21.00    9.4
2021/03/09 02:07:53.000    455571.3068   3639410.9352   5200658.7853   1   7   0.0289   0.0479   0.0592  -0.0214   0.0460  -0.0200  23.00    9.3
2021/03/09 02:07:56.000    455571.3080   3639410.9316   5200658.7884   1   7   0.0325   0.0535   0.0663  -0.0242   0.0515  -0.0227  26.00    9.3
2021/03/09 02:07:59.000    455571.3109   3639410.9314   5200658.7819   1   7   0.0361   0.0592   0.0734  -0.0271   0.0570  -0.0253  29.00    9.2
2021/03/09 02:08:02.000    455571.3152   3639410.9517   5200658.7892   1   7   0.0067   0.0152   0.0178   0.0021   0.0145   0.0022   2.00    9.8
2021/03/09 02:08:04.000    455571.3151   3639410.9485   5200658.7827   1   7   0.0080   0.0168   0.0200  -0.0021   0.0160  -0.0019   4.00   10.3
2021/03/09 02:08:06.000    455571.3149   3639410.9459   5200658.7782   1   7   0.0097   0.0191   0.0230  -0.0046   0.0181  -0.0044   6.00   10.6
2021/03/09 02:08:09.000    455571.3167   3639410.9451   5200658.7746   1   7   0.0128   0.0233   0.0284  -0.0078   0.0222  -0.0074   9.00   10.9
2021/03/09 02:08:12.000    455571.3185   3639410.9432   5200658.7714   1   7   0.0161   0.0281   0.0346  -0.0108   0.0269  -0.0102  12.00   11.1
2021/03/09 02:08:17.000    455571.3206   3639410.9464   5200658.7770   1   7   0.0218   0.0369   0.0456  -0.0157   0.0354  -0.0147  17.00   11.3
2021/03/09 02:08:19.000    455571.3217   3639410.9432   5200658.7753   1   7   0.0242   0.0405   0.0501  -0.0176   0.0389  -0.0165  19.00   11.6
2021/03/09 02:08:22.000    455571.3237   3639410.9417   5200658.7730   1   7   0.0278   0.0460   0.0571  -0.0205   0.0443  -0.0192  22.00   11.9
2021/03/09 02:08:25.000    455571.3243   3639410.9430   5200658.7760   1   7   0.0314   0.0517   0.0642  -0.0234   0.0498  -0.0218  25.00   12.1
2021/03/09 02:08:26.000    455571.3245   3639410.9388   5200658.7695   1   7   0.0326   0.0535   0.0666  -0.0243   0.0516  -0.0227  26.00   12.3
2021/03/09 02:08:28.000    455571.3258   3639410.9375   5200658.7692   1   7   0.0350   0.0573   0.0713  -0.0263   0.0553  -0.0245  28.00   12.5
2021/03/09 02:08:30.000    455571.3139   3639410.9530   5200658.7939   1   7   0.0061   0.0147   0.0171   0.0027   0.0140   0.0029   0.00   13.3
2021/03/09 02:08:33.000    455571.3130   3639410.9611   5200658.8050   1   7   0.0074   0.0160   0.0188   0.0009   0.0152   0.0010   3.00   14.1
2021/03/09 02:08:36.000    455571.3118   3639410.9585   5200658.8055   1   7   0.0097   0.0192   0.0230  -0.0046   0.0182  -0.0045   6.00   15.0
2021/03/09 02:08:39.000    455571.3117   3639410.9656   5200658.8212   1   7   0.0127   0.0234   0.0285  -0.0078   0.0223  -0.0074   9.00   15.7
2021/03/09 02:08:41.000    455571.3129   3639410.9703   5200658.8331   1   7   0.0149   0.0265   0.0326  -0.0098   0.0254  -0.0093  11.00   16.4
2021/03/09 02:08:43.000    455571.3139   3639410.9721   5200658.8403   1   7   0.0172   0.0299   0.0368  -0.0118   0.0286  -0.0112  13.00   16.9
2021/03/09 02:08:46.000    455571.3150   3639410.9715   5200658.8449   1   7   0.0207   0.0351   0.0435  -0.0148   0.0337  -0.0139  16.00   17.5
2021/03/09 02:08:49.000    455571.3152   3639410.9754   5200658.8527   1   7   0.0242   0.0405   0.0503  -0.0177   0.0390  -0.0166  19.00   17.8
2021/03/09 02:08:52.000    455571.3168   3639410.9752   5200658.8549   1   7   0.0278   0.0460   0.0573  -0.0206   0.0444  -0.0192  22.00   18.1
2021/03/09 02:08:54.000    455571.3165   3639410.9742   5200658.8566   1   7   0.0302   0.0498   0.0620  -0.0225   0.0480  -0.0210  24.00   18.4
2021/03/09 02:08:56.000    455571.3158   3639410.9755   5200658.8607   1   7   0.0326   0.0535   0.0668  -0.0244   0.0517  -0.0228  26.00   18.7
2021/03/09 02:08:59.000    455571.3151   3639410.9786   5200658.8700   1   7   0.0362   0.0592   0.0740  -0.0273   0.0572  -0.0255  29.00   18.9
2021/03/09 02:09:02.000    455571.3116   3639410.9545   5200658.7960   1   7   0.0068   0.0154   0.0180   0.0022   0.0147   0.0024   2.00   19.5
2021/03/09 02:09:05.000    455571.3115   3639410.9504   5200658.7958   1   7   0.0088   0.0180   0.0215  -0.0035   0.0172  -0.0033   5.00   19.8
2021/03/09 02:09:07.000    455571.3118   3639410.9539   5200658.8004   1   7   0.0107   0.0205   0.0248  -0.0057   0.0196  -0.0055   7.00   20.1
2021/03/09 02:09:09.000    455571.3102   3639410.9482   5200658.7968   1   7   0.0128   0.0234   0.0286  -0.0078   0.0224  -0.0074   9.00   20.3
2021/03/09 02:09:12.000    455571.3102   3639410.9552   5200658.8080   1   7   0.0161   0.0282   0.0348  -0.0109   0.0271  -0.0103  12.00   20.4
2021/03/09 02:09:15.000    455571.3087   3639410.9569   5200658.8056   1   7   0.0195   0.0334   0.0414  -0.0138   0.0321  -0.0130  15.00   20.3
2021/03/09 02:09:18.000    455571.3065   3639410.9519   5200658.8034   1   7   0.0231   0.0387   0.0482  -0.0168   0.0373  -0.0157  18.00   20.3
2021/03/09 02:09:20.000    455571.3045   3639410.9527   5200658.8078   1   7   0.0255   0.0424   0.0528  -0.0187   0.0409  -0.0175  20.00   20.2
2021/03/09 02:09:22.000    455571.3054   3639410.9505   5200658.8014   1   7   0.0278   0.0460   0.0575  -0.0207   0.0445  -0.0193  22.00   20.2
2021/03/09 02:09:25.000    455571.3085   3639410.9496   5200658.8050   1   7   0.0314   0.0516   0.0646  -0.0236   0.0499  -0.0220  25.00   20.2
2021/03/09 02:09:28.000    455571.3080   3639410.9438   5200658.7937   1   7   0.0351   0.0573   0.0718  -0.0265   0.0555  -0.0246  28.00   20.1
2021/03/09 02:09:31.000    455571.3153   3639410.9460   5200658.7837   1   7   0.0061   0.0150   0.0174   0.0027   0.0144   0.0028   1.00   20.4
2021/03/09 02:09:33.000    455571.3169   3639410.9443   5200658.7783   1   7   0.0072   0.0161   0.0190   0.0007   0.0154   0.0015   3.00   20.0
2021/03/09 02:09:35.000    455571.3175   3639410.9392   5200658.7671   1   7   0.0088   0.0181   0.0216  -0.0036   0.0172  -0.0033   5.00   19.6
2021/03/09 02:09:38.000    455571.3185   3639410.9354   5200658.7664   1   7   0.0117   0.0220   0.0268  -0.0068   0.0210  -0.0065   8.00   19.2
2021/03/09 02:09:41.000    455571.3192   3639410.9326   5200658.7625   1   7   0.0150   0.0266   0.0328  -0.0099   0.0255  -0.0093  11.00   19.0
2021/03/09 02:09:44.000    455571.3193   3639410.9321   5200658.7607   1   7   0.0184   0.0316   0.0393  -0.0129   0.0304  -0.0121  14.00   18.8
2021/03/09 02:09:46.000    455571.3191   3639410.9302   5200658.7577   1   7   0.0207   0.0351   0.0437  -0.0149   0.0339  -0.0139  16.00   18.6
2021/03/09 02:09:48.000    455571.3213   3639410.9303   5200658.7599   1   7   0.0231   0.0387   0.0483  -0.0168   0.0374  -0.0157  18.00   18.6
2021/03/09 02:09:51.000    455571.3204   3639410.9295   5200658.7585   1   7   0.0267   0.0442   0.0554  -0.0198   0.0427  -0.0184  21.00   18.6
2021/03/09 02:09:54.000    455571.3217   3639410.9219   5200658.7457   1   7   0.0303   0.0498   0.0625  -0.0227   0.0482  -0.0211  24.00   18.6
2021/03/09 02:09:57.000    455571.3228   3639410.9212   5200658.7378   1   7   0.0339   0.0554   0.0697  -0.0256   0.0537  -0.0238  27.00   18.5
2021/03/09 02:09:59.000    455571.3248   3639410.9264   5200658.7464   1   7   0.0363   0.0592   0.0745  -0.0275   0.0574  -0.0256  29.00   18.5
2021/03/09 02:10:01.000    455571.3141   3639410.9497   5200658.7924   1   7   0.0066   0.0151   0.0175   0.0024   0.0145   0.0029   1.00   18.6
2021/03/09 02:10:04.000    455571.3132   3639410.9464   5200658.7867   1   7   0.0080   0.0171   0.0203  -0.0022   0.0163  -0.0019   4.00   18.5
2021/03/09 02:10:07.000    455571.3135   3639410.9428   5200658.7803   1   7   0.0106   0.0207   0.0250  -0.0058   0.0197  -0.0054   7.00   18.5
2021/03/09 02:10:10.000    455571.3132   3639410.9452   5200658.7813   1   7   0.0139   0.0251   0.0308  -0.0089   0.0240  -0.0084  10.00   18.5
2021/03/09 02:10:12.000    455571.3149   3639410.9489   5200658.7876   1   7   0.0161   0.0283   0.0350  -0.0110   0.0272  -0.0103  12.00   18.6
2021/03/09 02:10:14.000    455571.3138   3639410.9467   5200658.7827   1   7   0.0184   0.0317   0.0394  -0.0129   0.0305  -0.0121  14.00   18.6
2021/03/09 02:10:17.000    455571.3145   3639410.9462   5200658.7831   1   7   0.0220   0.0369   0.0462  -0.0159   0.0357  -0.0149  17.00   18.7
2021/03/09 02:10:20.000    455571.3148   3639410.9436   5200658.7785   1   7   0.0255   0.0424   0.0532  -0.0189   0.0410  -0.0176  20.00   18.7
2021/03/09 02:10:23.000    455571.3114   3639410.9485   5200658.7909   1   7   0.0291   0.0479   0.0603  -0.0218   0.0465  -0.0203  23.00   18.8
2021/03/09 02:10:25.000    455571.3072   3639410.9557   5200658.8001   1   7   0.0315   0.0516   0.0651  -0.0237   0.0501  -0.0221  25.00   18.9
2021/03/09 02:10:27.000    455571.3015   3639410.9562   5200658.8073   1   7   0.0339   0.0554   0.0699  -0.0257   0.0538  -0.0238  27.00   19.0
2021/03/09 02:10:30.000    455571.3138   3639410.9428   5200658.7848   1   7   0.0065   0.0150   0.0174   0.0027   0.0144   0.0028   0.00   18.8
2021/03/09 02:10:33.000    455571.3105   3639410.9512   5200658.8001   1   7   0.0069   0.0163   0.0191   0.0009   0.0156   0.0016   3.00   19.0
2021/03/09 02:10:36.000    455571.3085   3639410.9536   5200658.8099   1   7   0.0096   0.0195   0.0233  -0.0047   0.0186  -0.0043   6.00   19.5
2021/03/09 02:10:38.000    455571.3072   3639410.9523   5200658.8085   1   7   0.0117   0.0222   0.0269  -0.0068   0.0212  -0.0065   8.00   19.8
2021/03/09 02:10:40.000    455571.3037   3639410.9591   5200658.8175   1   7   0.0139   0.0251   0.0309  -0.0089   0.0241  -0.0084  10.00   20.2
2021/03/09 02:10:43.000    455571.3032   3639410.9598   5200658.8185   1   7   0.0173   0.0300   0.0373  -0.0120   0.0289  -0.0112  13.00   20.5
2021/03/09 02:10:46.000    455571.3045   3639410.9602   5200658.8149   1   7   0.0208   0.0352   0.0440  -0.0150   0.0340  -0.0140  16.00   20.8
2021/03/09 02:10:49.000    455571.3059   3639410.9617   5200658.8171   1   7   0.0244   0.0406   0.0510  -0.0179   0.0393  -0.0167  19.00   20.9
2021/03/09 02:10:51.000    455571.3066   3639410.9591   5200658.8180   1   7   0.0267   0.0442   0.0557  -0.0199   0.0429  -0.0185  21.00   21.1
2021/03/09 02:10:53.000    455571.3059   3639410.9580   5200658.8132   1   7   0.0292   0.0479   0.0605  -0.0219   0.0465  -0.0203  23.00   21.4
2021/03/09 02:10:56.000    455571.3057   3639410.9571   5200658.8181   1   7   0.0328   0.0535   0.0677  -0.0248   0.0520  -0.0230  26.00   21.5
2021/03/09 02:10:59.000    455571.3068   3639410.9549   5200658.8163   1   7   0.0364   0.0591   0.0750  -0.0277   0.0576  -0.0257  29.00   21.7
2021/03/09 02:11:02.000    455571.3175   3639410.9483   5200658.7912   1   7   0.0067   0.0157   0.0183   0.0020   0.0151   0.0026   2.00   22.1
2021/03/09 02:11:04.000    455571.3183   3639410.9450   5200658.7866   1   7   0.0079   0.0173   0.0204  -0.0021   0.0165  -0.0017   4.00   22.9
2021/03/09 02:11:06.000    455571.3199   3639410.9426   5200658.7841   1   7   0.0098   0.0196   0.0234  -0.0047   0.0187  -0.0044   6.00   23.6
2021/03/09 02:11:09.000    455571.3217   3639410.9431   5200658.7860   1   7   0.0128   0.0237   0.0289  -0.0079   0.0227  -0.0075   9.00   24.2
2021/03/09 02:11:12.000    455571.3209   3639410.9378   5200658.7782   1   7   0.0162   0.0284   0.0352  -0.0110   0.0274  -0.0103  12.00   24.6
2021/03/09 02:11:15.000    455571.3237   3639410.9350   5200658.7731   1   7   0.0196   0.0335   0.0419  -0.0140   0.0324  -0.0131  15.00   25.0
2021/03/09 02:11:17.000    455571.3229   3639410.9340   5200658.7693   1   7   0.0220   0.0370   0.0465  -0.0160   0.0358  -0.0149  17.00   25.4
2021/03/09 02:11:19.000    455571.3255   3639410.9371   5200658.7706   1   7   0.0244   0.0406   0.0512  -0.0180   0.0394  -0.0167  19.00   25.8
2021/03/09 02:11:22.000    455571.3260   3639410.9335   5200658.7648   1   7   0.0280   0.0460   0.0583  -0.0209   0.0448  -0.0194  22.00   26.1
2021/03/09 02:11:25.000    455571.3259   3639410.9298   5200658.7563   1   7   0.0316   0.0516   0.0655  -0.0239   0.0503  -0.0221  25.00   26.4
2021/03/09 02:11:28.000    455571.3280   3639410.9269   5200658.7535   1   7   0.0353   0.0572   0.0728  -0.0268   0.0558  -0.0248  28.00   26.7
2021/03/09 02:11:30.000    455571.3127   3639410.9480   5200658.7894   1   7   0.0060   0.0153   0.0176   0.0026   0.0146   0.0031   0.00   27.0
2021/03/09 02:11:32.000    455571.3147   3639410.9487   5200658.7850   1   7   0.0070   0.0159   0.0184   0.0025   0.0151   0.0023   2.00   27.0
2021/03/09 02:11:35.000    455571.3166   3639410.9459   5200658.7813   1   7   0.0089   0.0185   0.0219  -0.0036   0.0176  -0.0032   5.00   27.0
2021/03/09 02:11:38.000    455571.3151   3639410.9449   5200658.7776   1   7   0.0118   0.0223   0.0271  -0.0069   0.0214  -0.0065   8.00   27.1
2021/03/09 02:11:41.000    455571.3163   3639410.9398   5200658.7694   1   7   0.0151   0.0268   0.0332  -0.0100   0.0258  -0.0094  11.00   27.1
2021/03/09 02:11:43.000    455571.3137   3639410.9395   5200658.7688   1   7   0.0173   0.0301   0.0375  -0.0121   0.0291  -0.0112  13.00   27.0
2021/03/09 02:11:45.000    455571.3131   3639410.9397   5200658.7707   1   7   0.0197   0.0335   0.0420  -0.0141   0.0324  -0.0131  15.00   26.8
2021/03/09 02:11:48.000    455571.3151   3639410.9401   5200658.7730   1   7   0.0232   0.0388   0.0490  -0.0170   0.0377  -0.0158  18.00   26.8
2021/03/09 02:11:51.000    455571.3142   3639410.9421   5200658.7764   1   7   0.0268   0.0442   0.0561  -0.0200   0.0430  -0.0185  21.00   26.9
2021/03/09 02:11:54.000    455571.3157   3639410.9406   5200658.7762   1   7   0.0304   0.0497   0.0633  -0.0230   0.0485  -0.0213  24.00   26.7
2021/03/09 02:11:56.000    455571.3124   3639410.9420   5200658.7785   1   7   0.0329   0.0534   0.0682  -0.0249   0.0522  -0.0231  26.00   26.5
2021/03/09 02:11:58.000    455571.3126   3639410.9476   5200658.7856   1   7   0.0353   0.0572   0.0730  -0.0269   0.0559  -0.0249  28.00   26.4
2021/03/09 02:12:01.000    455571.3129   3639410.9480   5200658.7876   1   7   0.0064   0.0155   0.0178   0.0026   0.0149   0.0029   1.00   26.5
2021/03/09 02:12:04.000    455571.3110   3639410.9540   5200658.7959   1   7   0.0080   0.0175   0.0206  -0.0020   0.0167  -0.0017   4.00   27.2
2021/03/09 02:12:06.000    455571.3111   3639410.9549   5200658.7971   1   7   0.0097   0.0197   0.0236  -0.0047   0.0188  -0.0043   6.00   27.9
2021/03/09 02:12:14.000    455571.3112   3639410.9544   5200658.7937   1   7   0.0185   0.0318   0.0399  -0.0131   0.0308  -0.0121  14.00   28.1
2021/03/09 02:12:16.000    455571.3127   3639410.9534   5200658.7921   1   7   0.0209   0.0353   0.0444  -0.0151   0.0342  -0.0140  16.00   28.2
2021/03/09 02:12:19.000    455571.3113   3639410.9524   5200658.7901   1   7   0.0244   0.0406   0.0515  -0.0181   0.0395  -0.0167  19.00   28.3
2021/03/09 02:12:20.000    455571.3117   3639410.9501   5200658.7870   1   7   0.0256   0.0424   0.0539  -0.0191   0.0413  -0.0177  20.00   28.3
2021/03/09 02:12:23.000    455571.3108   3639410.9502   5200658.7891   1   7   0.0293   0.0479   0.0611  -0.0220   0.0467  -0.0204  23.00   28.3
2021/03/09 02:12:28.000    455571.3097   3639410.9497   5200658.7851   1   7   0.0353   0.0572   0.0733  -0.0270   0.0559  -0.0249  28.00   28.4
2021/03/09 02:12:31.000    455571.3109   3639410.9567   5200658.7954   1   7   0.0065   0.0156   0.0179   0.0028   0.0149   0.0030   1.00   28.8
2021/03/09 02:12:34.000    455571.3107   3639410.9523   5200658.7905   1   7   0.0080   0.0176   0.0206  -0.0021   0.0168  -0.0016   4.00   29.0
2021/03/09 02:12:35.000    455571.3099   3639410.9504   5200658.7898   1   6   0.0108   0.0369   0.0329   0.0134   0.0331   0.0117   5.00   13.6
2021/03/09 02:12:38.000    455571.3077   3639410.9498   5200658.7930   1   6   0.0143   0.0480   0.0412   0.0173   0.0421   0.0146   8.00   13.7
2021/03/09 02:12:43.000    455571.3062   3639410.9380   5200658.7816   1   6   0.0212   0.0694   0.0578   0.0248   0.0599   0.0202  13.00   13.7
2021/03/09 02:12:46.000    455571.3085   3639410.9445   5200658.7889   1   6   0.0255   0.0831   0.0685   0.0296   0.0713   0.0238  16.00   13.7
2021/03/09 02:12:47.000    455571.3096   3639410.9473   5200658.7938   1   6   0.0270   0.0877   0.0721   0.0312   0.0752   0.0251  17.00   13.7
2021/03/09 02:12:49.000    455571.3098   3639410.9469   5200658.7911   1   6   0.0299   0.0971   0.0795   0.0345   0.0831   0.0276  19.00   13.7
2021/03/09 02:12:50.000    455571.3103   3639410.9447   5200658.7883   1   6   0.0314   0.1018   0.0833   0.0361   0.0870   0.0289  20.00   13.7
2021/03/09 02:12:53.000    455571.3098   3639410.9442   5200658.7882   1   6   0.0358   0.1160   0.0946   0.0411   0.0991   0.0327  23.00   13.7
2021/03/09 02:12:58.000    455571.3174   3639410.9607   5200658.8050   1   6   0.0432   0.1400   0.1139   0.0495   0.1194   0.0393  28.00   13.7
2021/03/09 02:13:00.000    455571.3127   3639410.9569   5200658.7956   1   6   0.0074   0.0273   0.0259   0.0099   0.0254   0.0093   0.00   14.2
2021/03/09 02:13:03.000    455571.3128   3639410.9662   5200658.8010   1   6   0.0088   0.0313   0.0289   0.0113   0.0286   0.0103   3.00   14.6
2021/03/09 02:13:06.000    455571.3139   3639410.9678   5200658.8063   1   6   0.0118   0.0406   0.0358   0.0146   0.0362   0.0126   6.00   14.9
2021/03/09 02:13:07.000    455571.3156   3639410.9731   5200658.8086   1   6   0.0130   0.0444   0.0387   0.0159   0.0393   0.0136   7.00   15.1
2021/03/09 02:13:09.000    455571.3174   3639410.9700   5200658.8086   1   6   0.0156   0.0525   0.0448   0.0187   0.0460   0.0157   9.00   15.2
2021/03/09 02:13:11.000    455571.3161   3639410.9762   5200658.8154   1   6   0.0183   0.0611   0.0515   0.0217   0.0531   0.0179  11.00   15.3
2021/03/09 02:13:14.000    455571.3171   3639410.9811   5200658.8174   1   6   0.0226   0.0745   0.0620   0.0263   0.0644   0.0215  14.00   15.2
2021/03/09 02:13:17.000    455571.3171   3639410.9764   5200658.8109   1   6   0.0269   0.0885   0.0730   0.0312   0.0761   0.0252  17.00   15.2
2021/03/09 02:13:20.000    455571.3172   3639410.9899   5200658.8264   1   6   0.0313   0.1027   0.0843   0.0361   0.0881   0.0290  20.00   15.2
2021/03/09 02:13:22.000    455571.3171   3639410.9905   5200658.8298   1   6   0.0342   0.1122   0.0920   0.0394   0.0962   0.0316  22.00   15.2
2021/03/09 02:13:24.000    455571.3182   3639410.9944   5200658.8369   1   6   0.0372   0.1219   0.0997   0.0427   0.1044   0.0342  24.00   15.1
2021/03/09 02:13:27.000    455571.3184   3639410.9993   5200658.8400   1   6   0.0416   0.1364   0.1114   0.0477   0.1167   0.0382  27.00   15.2
2021/03/09 02:13:30.000    455571.3136   3639410.9717   5200658.8126   1   6   0.0074   0.0275   0.0261   0.0099   0.0256   0.0093   0.00   15.8
2021/03/09 02:13:33.000    455571.3132   3639410.9747   5200658.8119   1   6   0.0087   0.0315   0.0291   0.0113   0.0289   0.0103   3.00   16.4
2021/03/09 02:13:35.000    455571.3145   3639410.9795   5200658.8159   1   6   0.0106   0.0374   0.0335   0.0134   0.0337   0.0118   5.00   17.2
2021/03/09 02:13:37.000    455571.3126   3639410.9787   5200658.8143   1   6   0.0130   0.0447   0.0390   0.0159   0.0397   0.0136   7.00   17.9
2021/03/09 02:13:39.000    455571.3162   3639410.9849   5200658.8206   1   6   0.0156   0.0529   0.0453   0.0187   0.0465   0.0157   9.00   18.5
2021/03/09 02:13:42.000    455571.3182   3639410.9953   5200658.8279   1   6   0.0197   0.0661   0.0555   0.0232   0.0574   0.0191  12.00   19.0
2021/03/09 02:13:45.000    455571.3217   3639411.0098   5200658.8420   1   6   0.0239   0.0798   0.0664   0.0279   0.0690   0.0228  15.00   19.4
2021/03/09 02:13:47.000    455571.3231   3639411.0101   5200658.8400   1   6   0.0268   0.0893   0.0739   0.0311   0.0770   0.0253  17.00   19.8
2021/03/09 02:13:49.000    455571.3215   3639411.0127   5200658.8420   1   6   0.0297   0.0988   0.0815   0.0344   0.0851   0.0279  19.00   20.1
2021/03/09 02:13:51.000    455571.3237   3639411.0151   5200658.8407   1   6   0.0327   0.1084   0.0893   0.0377   0.0932   0.0304  21.00   20.3
2021/03/09 02:13:54.000    455571.3273   3639411.0156   5200658.8409   1   6   0.0371   0.1230   0.1010   0.0426   0.1056   0.0344  24.00   20.5
2021/03/09 02:13:57.000    455571.3281   3639411.0287   5200658.8492   1   6   0.0415   0.1376   0.1128   0.0476   0.1181   0.0383  27.00   20.6
2021/03/09 02:13:59.000    455571.3314   3639411.0325   5200658.8513   1   6   0.0445   0.1475   0.1208   0.0510   0.1265   0.0410  29.00   20.7
2021/03/09 02:14:01.000    455571.3417   3639411.1552   5200658.8405   2   7   0.0299   0.0512   0.0332  -0.0118   0.0300   0.0149   1.00    2.2
2021/03/09 02:14:04.000    455571.3111   3639410.9630   5200658.8059   1   7   0.0090   0.0169   0.0204   0.0072   0.0163   0.0066   4.00    3.2
2021/03/09 02:14:07.000    455571.3138   3639410.9612   5200658.8066   1   7   0.0122   0.0197   0.0247   0.0089   0.0190   0.0076   7.00    3.9
2021/03/09 02:14:10.000    455571.3149   3639410.9632   5200658.8040   1   7   0.0160   0.0232   0.0302   0.0110   0.0225   0.0088  10.00    4.3
2021/03/09 02:14:12.000    455571.3167   3639410.9677   5200658.8128   1   7   0.0186   0.0257   0.0342   0.0125   0.0252   0.0097  12.00    4.6
2021/03/09 02:14:14.000    455571.3148   3639410.9664   5200658.8110   1   7   0.0213   0.0285   0.0383   0.0141   0.0280   0.0107  14.00    4.8
2021/03/09 02:14:16.000    455571.3163   3639410.9655   5200658.8051   1   7   0.0241   0.0313   0.0427   0.0157   0.0309   0.0118  16.00    5.0
2021/03/09 02:14:19.000    455571.3147   3639410.9660   5200658.8071   1   7   0.0282   0.0358   0.0493   0.0182   0.0354   0.0135  19.00    5.1
2021/03/09 02:14:22.000    455571.3132   3639410.9601   5200658.8009   1   7   0.0324   0.0403   0.0561   0.0207   0.0400   0.0152  22.00    5.3
2021/03/09 02:14:24.000    455571.3126   3639410.9599   5200658.7963   1   7   0.0352   0.0434   0.0607   0.0225   0.0432   0.0164  24.00    5.4
2021/03/09 02:14:26.000    455571.3116   3639410.9610   5200658.8009   1   7   0.0380   0.0466   0.0654   0.0242   0.0464   0.0176  26.00    5.5
2021/03/09 02:14:28.000    455571.3111   3639410.9551   5200658.7982   1   7   0.0408   0.0497   0.0701   0.0259   0.0496   0.0188  28.00    5.6
2021/03/09 02:14:31.000    455571.3103   3639410.9585   5200658.7947   1   7   0.0071   0.0153   0.0179   0.0062   0.0148   0.0061   1.00    7.2
2021/03/09 02:14:34.000    455571.3087   3639410.9593   5200658.7965   1   7   0.0090   0.0169   0.0204   0.0072   0.0164   0.0066   4.00    8.2
2021/03/09 02:14:36.000    455571.3093   3639410.9602   5200658.7986   1   7   0.0111   0.0187   0.0232   0.0083   0.0181   0.0072   6.00    9.0
2021/03/09 02:14:38.000    455571.3052   3639410.9576   5200658.7960   1   7   0.0134   0.0208   0.0265   0.0096   0.0202   0.0080   8.00    9.6
2021/03/09 02:14:40.000    455571.3043   3639410.9565   5200658.7974   1   7   0.0160   0.0232   0.0303   0.0110   0.0226   0.0089  10.00   10.0
2021/03/09 02:14:43.000    455571.3021   3639410.9529   5200658.7962   1   7   0.0199   0.0272   0.0364   0.0133   0.0267   0.0104  13.00   10.2
2021/03/09 02:14:46.000    455571.3005   3639410.9541   5200658.7943   1   7   0.0240   0.0314   0.0429   0.0157   0.0310   0.0120  16.00   10.2
2021/03/09 02:14:48.000    455571.3002   3639410.9546   5200658.7950   1   7   0.0268   0.0343   0.0473   0.0174   0.0340   0.0131  18.00   10.2
2021/03/09 02:14:50.000    455571.2999   3639410.9535   5200658.7935   1   7   0.0296   0.0374   0.0518   0.0191   0.0371   0.0143  20.00   10.1
2021/03/09 02:14:52.000    455571.2986   3639410.9530   5200658.7922   1   7   0.0323   0.0404   0.0564   0.0208   0.0403   0.0155  22.00   10.0
2021/03/09 02:14:55.000    455571.2989   3639410.9494   5200658.7892   1   7   0.0365   0.0451   0.0634   0.0234   0.0450   0.0173  25.00    9.9
2021/03/09 02:14:58.000    455571.2995   3639410.9514   5200658.7966   1   7   0.0408   0.0499   0.0704   0.0260   0.0499   0.0192  28.00    9.8
2021/03/09 02:15:00.000    455571.3135   3639410.9608   5200658.8023   1   7   0.0069   0.0152   0.0178   0.0062   0.0148   0.0059   0.00   11.3
2021/03/09 02:15:02.000    455571.3123   3639410.9616   5200658.8063   1   7   0.0074   0.0157   0.0185   0.0064   0.0152   0.0061   2.00   12.8
2021/03/09 02:15:04.000    455571.3121   3639410.9634   5200658.8075   1   7   0.0090   0.0170   0.0205   0.0072   0.0164   0.0066   4.00   13.8
2021/03/09 02:15:07.000    455571.3129   3639410.9640   5200658.8104   1   7   0.0122   0.0198   0.0249   0.0089   0.0192   0.0077   7.00   14.5
2021/03/09 02:15:10.000    455571.3134   3639410.9640   5200658.8125   1   7   0.0159   0.0233   0.0304   0.0110   0.0227   0.0090  10.00   15.0
2021/03/09 02:15:12.000    455571.3157   3639410.9649   5200658.8140   1   7   0.0186   0.0259   0.0344   0.0126   0.0254   0.0100  12.00   15.1
2021/03/09 02:15:14.000    455571.3134   3639410.9631   5200658.8139   1   7   0.0213   0.0286   0.0387   0.0141   0.0282   0.0111  14.00   15.3
2021/03/09 02:15:19.000    455571.3153   3639410.9661   5200658.8216   1   7   0.0281   0.0359   0.0498   0.0183   0.0357   0.0140  19.00   15.2
2021/03/09 02:15:22.000    455571.3184   3639410.9672   5200658.8192   1   7   0.0323   0.0405   0.0567   0.0209   0.0405   0.0158  22.00   15.1
2021/03/09 02:15:24.000    455571.3182   3639410.9656   5200658.8202   1   7   0.0351   0.0437   0.0613   0.0226   0.0437   0.0171  24.00   15.0
2021/03/09 02:15:26.000    455571.3180   3639410.9660   5200658.8210   1   7   0.0379   0.0468   0.0660   0.0244   0.0469   0.0183  26.00   14.9
2021/03/09 02:15:27.000    455571.3197   3639410.9654   5200658.8201   1   7   0.0393   0.0484   0.0684   0.0252   0.0485   0.0190  27.00   14.8
2021/03/09 02:15:30.000    455571.3114   3639410.9591   5200658.7994   1   7   0.0069   0.0152   0.0178   0.0061   0.0148   0.0059   0.00   16.0
2021/03/09 02:15:33.000    455571.3132   3639410.9614   5200658.8014   1   7   0.0081   0.0163   0.0194   0.0068   0.0158   0.0064   3.00   16.9
2021/03/09 02:15:35.000    455571.3160   3639410.9641   5200658.8076   1   7   0.0099   0.0178   0.0218   0.0077   0.0173   0.0070   5.00   17.6
2021/03/09 02:15:37.000    455571.3158   3639410.9678   5200658.8134   1   7   0.0122   0.0198   0.0250   0.0089   0.0193   0.0077   7.00   18.1
2021/03/09 02:15:39.000    455571.3161   3639410.9635   5200658.8141   1   7   0.0146   0.0221   0.0286   0.0103   0.0216   0.0086   9.00   18.3
2021/03/09 02:15:42.000    455571.3193   3639410.9630   5200658.8187   1   7   0.0185   0.0259   0.0346   0.0126   0.0255   0.0102  12.00   18.3
2021/03/09 02:15:45.000    455571.3191   3639410.9635   5200658.8217   1   7   0.0226   0.0301   0.0410   0.0150   0.0298   0.0119  15.00   18.2
2021/03/09 02:15:47.000    455571.3169   3639410.9635   5200658.8191   1   7   0.0253   0.0330   0.0455   0.0167   0.0328   0.0130  17.00   18.2
2021/03/09 02:15:49.000    455571.3156   3639410.9615   5200658.8182   1   7   0.0281   0.0360   0.0500   0.0184   0.0359   0.0142  19.00   18.2
2021/03/09 02:15:51.000    455571.3180   3639410.9652   5200658.8251   1   7   0.0309   0.0391   0.0546   0.0201   0.0391   0.0155  21.00   18.2
2021/03/09 02:15:54.000    455571.3154   3639410.9561   5200658.8195   1   7   0.0350   0.0438   0.0616   0.0227   0.0439   0.0174  24.00   18.2
2021/03/09 02:15:57.000    455571.3143   3639410.9614   5200658.8290   1   7   0.0392   0.0485   0.0687   0.0253   0.0488   0.0193  27.00   18.2
2021/03/09 02:15:59.000    455571.3137   3639410.9623   5200658.8343   1   7   0.0420   0.0518   0.0735   0.0271   0.0520   0.0207  29.00   18.2
2021/03/09 02:16:01.000    455571.3124   3639410.9554   5200658.7975   1   7   0.0069   0.0154   0.0181   0.0062   0.0150   0.0060   1.00   19.5
2021/03/09 02:16:03.000    455571.3110   3639410.9554   5200658.8025   1   7   0.0081   0.0163   0.0194   0.0067   0.0158   0.0064   3.00   20.3
2021/03/09 02:16:06.000    455571.3117   3639410.9547   5200658.8040   1   7   0.0110   0.0188   0.0234   0.0083   0.0183   0.0074   6.00   20.6
2021/03/09 02:16:09.000    455571.3113   3639410.9543   5200658.8090   1   7   0.0146   0.0221   0.0287   0.0103   0.0217   0.0087   9.00   20.8
2021/03/09 02:16:11.000    455571.3103   3639410.9537   5200658.8131   1   7   0.0172   0.0247   0.0327   0.0118   0.0243   0.0098  11.00   20.9
2021/03/09 02:16:13.000    455571.3103   3639410.9596   5200658.8191   1   7   0.0198   0.0273   0.0369   0.0134   0.0270   0.0109  13.00   21.1
2021/03/09 02:16:15.000    455571.3116   3639410.9537   5200658.8164   1   7   0.0225   0.0302   0.0412   0.0150   0.0300   0.0120  15.00   21.2
2021/03/09 02:16:18.000    455571.3131   3639410.9591   5200658.8241   1   7   0.0266   0.0346   0.0480   0.0176   0.0345   0.0139  18.00   21.3
2021/03/09 02:16:21.000    455571.3150   3639410.9570   5200658.8247   1   7   0.0308   0.0392   0.0549   0.0201   0.0393   0.0158  21.00   21.2
2021/03/09 02:16:23.000    455571.3153   3639410.9564   5200658.8269   1   7   0.0336   0.0423   0.0596   0.0219   0.0425   0.0171  23.00   21.3
2021/03/09 02:16:25.000    455571.3138   3639410.9573   5200658.8343   1   7   0.0364   0.0455   0.0643   0.0236   0.0457   0.0184  25.00   21.4
2021/03/09 02:16:27.000    455571.3133   3639410.9568   5200658.8402   1   7   0.0392   0.0487   0.0691   0.0254   0.0490   0.0197  27.00   21.5
2021/03/09 02:16:30.000    455571.3141   3639410.9555   5200658.7924   1   7   0.0069   0.0153   0.0179   0.0061   0.0149   0.0060   0.00   22.8
2021/03/09 02:16:33.000    455571.3134   3639410.9596   5200658.7987   1   7   0.0081   0.0163   0.0195   0.0067   0.0159   0.0064   3.00   24.0
2021/03/09 02:16:35.000    455571.3151   3639410.9596   5200658.7998   1   7   0.0099   0.0179   0.0219   0.0077   0.0174   0.0070   5.00   25.0
2021/03/09 02:16:37.000    455571.3169   3639410.9652   5200658.8072   1   7   0.0121   0.0199   0.0251   0.0089   0.0194   0.0079   7.00   25.7
2021/03/09 02:16:39.000    455571.3171   3639410.9628   5200658.8043   1   7   0.0146   0.0222   0.0288   0.0103   0.0217   0.0088   9.00   26.1
2021/03/09 02:16:45.000    455571.3138   3639410.9664   5200658.8077   1   7   0.0225   0.0302   0.0414   0.0151   0.0301   0.0122  15.00   26.1
2021/03/09 02:16:47.000    455571.3163   3639410.9669   5200658.8127   1   7   0.0252   0.0332   0.0459   0.0168   0.0331   0.0135  17.00   26.3
2021/03/09 02:16:49.000    455571.3143   3639410.9607   5200658.8080   1   7   0.0280   0.0362   0.0505   0.0185   0.0363   0.0148  19.00   26.3
2021/03/09 02:16:51.000    455571.3156   3639410.9664   5200658.8142   1   7   0.0308   0.0393   0.0552   0.0202   0.0394   0.0161  21.00   26.6
2021/03/09 02:16:53.000    455571.3162   3639410.9672   5200658.8183   1   7   0.0335   0.0424   0.0599   0.0219   0.0427   0.0174  23.00   26.7
2021/03/09 02:16:56.000    455571.3156   3639410.9649   5200658.8152   1   7   0.0377   0.0472   0.0670   0.0246   0.0476   0.0194  26.00   26.6
2021/03/09 02:16:58.000    455571.3168   3639410.9670   5200658.8197   1   7   0.0405   0.0504   0.0718   0.0264   0.0509   0.0208  28.00   26.6
2021/03/09 02:17:00.000    455571.3138   3639410.9590   5200658.7997   1   7   0.0068   0.0153   0.0179   0.0061   0.0149   0.0059   0.00   28.6
2021/03/09 02:17:02.000    455571.3132   3639410.9590   5200658.7998   1   7   0.0073   0.0158   0.0187   0.0064   0.0154   0.0062   2.00   30.4
2021/03/09 02:17:05.000    455571.3159   3639410.9637   5200658.8005   1   7   0.0099   0.0179   0.0220   0.0077   0.0175   0.0070   5.00   31.8
