% program   : rnx2rtkp ver.2.4.3 b33
% inp file  : /home/danisimo/post/R1_193.2020-111.2021/R00126418.20o
% inp file  : /home/danisimo/post/NSK1_193.2020-111.2021/NSK12640.20o
% inp file  : /home/danisimo/post/NSK1_193.2020-111.2021/NSK12640.20N
% obs start : 2020/09/20 00:00:04.0 GPST (week2124      4.0s)
% obs end   : 2020/09/20 11:21:44.0 GPST (week2124  40904.0s)
% ref pos   :   447670.3040   3638117.3850   5202281.5640
%
% (x/y/z-ecef=WGS84,Q=1:fix,2:float,3:sbas,4:dgps,5:single,6:ppp,ns=# of satellites)
%  GPST                      x-ecef(m)      y-ecef(m)      z-ecef(m)   Q  ns   sdx(m)   sdy(m)   sdz(m)  sdxy(m)  sdyz(m)  sdzx(m) age(s)  ratio
2020/09/20 01:41:55.697    455571.7491   3639411.6708   5200661.0979   2   6   0.6183   1.5219   1.4750  -0.1622   1.1524  -0.3603  25.70    0.0
2020/09/20 01:41:56.197    455571.8117   3639411.3655   5200660.9940   2   6   0.4398   1.0819   1.0513  -0.1157   0.8193  -0.2566  26.20    0.0
2020/09/20 01:41:56.497    455571.8742   3639410.8609   5200660.3560   2   6   0.3601   0.8860   0.8613  -0.0948   0.6710  -0.2102  26.50    0.0
2020/09/20 01:41:57.497    455571.7146   3639410.9454   5200660.1171   2   6   0.3126   0.7694   0.7478  -0.0827   0.5827  -0.1826  27.50    0.0
2020/09/20 01:41:58.997    455571.6537   3639410.8950   5200659.8093   2   6   0.2803   0.6903   0.6704  -0.0745   0.5228  -0.1639  29.00    0.0
2020/09/20 01:42:01.997    455571.6037   3639410.9415   5200659.6920   2   6   0.2546   0.6265   0.6099  -0.0688   0.4745  -0.1492   2.00    0.0
2020/09/20 01:42:05.997    455571.6359   3639411.0141   5200659.6610   2   6   0.2358   0.5804   0.5648  -0.0647   0.4396  -0.1384   6.00    0.0
2020/09/20 01:42:07.997    455571.6737   3639411.0704   5200659.6006   2   6   0.2206   0.5432   0.5285  -0.0610   0.4114  -0.1296   8.00    0.0
2020/09/20 01:42:11.997    455571.7149   3639411.1576   5200659.6098   2   6   0.2083   0.5131   0.4987  -0.0585   0.3886  -0.1225  12.00    0.0
2020/09/20 01:42:13.497    455571.6832   3639411.6992   5200659.4893   2   6   0.6178   1.5225   1.4726  -0.1719   1.1535  -0.3613  13.50    2.1
2020/09/20 01:42:16.497    455571.7709   3639412.0296   5200659.6599   2   6   0.4391   1.0815   1.0489  -0.1237   0.8195  -0.2574  16.50    1.4
2020/09/20 01:42:18.497    455571.8534   3639412.1630   5200659.8058   2   6   0.3593   0.8852   0.8589  -0.1019   0.6707  -0.2109  18.50    1.6
2020/09/20 01:42:20.000    455571.8787   3639412.2034   5200659.8743   2   6   0.3118   0.7681   0.7453  -0.0888   0.5821  -0.1831  20.00    1.0
2020/09/20 01:42:29.000    455571.8617   3639412.2112   5200659.9719   2   6   0.2800   0.6911   0.6694  -0.0825   0.5238  -0.1653  29.00    1.1
2020/09/20 01:42:31.000    455571.6916   3639412.2942   5200659.8935   2   6   0.2543   0.6272   0.6071  -0.0751   0.4751  -0.1493   1.00    1.1
2020/09/20 01:42:32.000    455571.5873   3639412.3610   5200659.8389   2   6   0.2355   0.5807   0.5621  -0.0697   0.4399  -0.1382   2.00    1.1
2020/09/20 01:42:33.000    455571.5215   3639412.4001   5200659.8448   2   6   0.2203   0.5433   0.5259  -0.0654   0.4116  -0.1294   3.00    1.1
2020/09/20 01:42:37.000    455571.4581   3639412.4584   5200659.8276   2   6   0.2078   0.5128   0.4961  -0.0625   0.3885  -0.1223   7.00    1.1
2020/09/20 01:42:40.000    455571.4148   3639412.4467   5200659.7466   2   6   0.1973   0.4872   0.4710  -0.0599   0.3691  -0.1163  10.00    1.1
2020/09/20 01:42:42.000    455571.3889   3639412.4780   5200659.7200   2   6   0.1883   0.4652   0.4495  -0.0575   0.3524  -0.1110  12.00    1.3
2020/09/20 01:42:45.000    455571.3761   3639412.4865   5200659.7109   2   6   0.1807   0.4466   0.4310  -0.0556   0.3383  -0.1066  15.00    1.5
2020/09/20 01:42:49.000    455571.3747   3639412.4849   5200659.6796   2   6   0.1741   0.4310   0.4153  -0.0543   0.3266  -0.1030  19.00    1.6
2020/09/20 01:42:51.000    455571.3602   3639412.4887   5200659.6410   2   6   0.1682   0.4167   0.4010  -0.0527   0.3158  -0.0995  21.00    1.9
2020/09/20 01:42:53.000    455571.3367   3639412.4964   5200659.6449   2   6   0.1630   0.4042   0.3883  -0.0513   0.3063  -0.0964  23.00    2.1
2020/09/20 01:42:54.000    455571.3108   3639412.5092   5200659.6728   2   6   0.1582   0.3925   0.3766  -0.0499   0.2975  -0.0936  24.00    2.2
2020/09/20 01:42:56.000    455571.2916   3639412.5099   5200659.6836   2   6   0.1541   0.3828   0.3665  -0.0489   0.2901  -0.0912  26.00    2.3
2020/09/20 01:43:00.000    455571.2649   3639412.4923   5200659.6461   2   6   0.1468   0.3633   0.3466  -0.0464   0.2745  -0.0847   0.00    2.4
2020/09/20 01:43:02.000    455571.2555   3639412.4434   5200659.5629   2   6   0.1428   0.3537   0.3354  -0.0451   0.2667  -0.0814   2.00    2.3
2020/09/20 01:43:04.000    455571.2427   3639412.4012   5200659.4802   2   6   0.1392   0.3449   0.3261  -0.0440   0.2600  -0.0790   4.00    2.2
2020/09/20 01:43:07.000    455571.2221   3639412.3698   5200659.4085   2   6   0.1360   0.3372   0.3183  -0.0433   0.2541  -0.0772   7.00    2.2
2020/09/20 01:43:09.000    455571.2060   3639412.3212   5200659.3345   2   6   0.1331   0.3301   0.3112  -0.0426   0.2487  -0.0755   9.00    1.9
2020/09/20 01:43:13.000    455571.1980   3639412.2698   5200659.2410   2   6   0.1306   0.3244   0.3054  -0.0423   0.2445  -0.0743  13.00    1.7
2020/09/20 01:43:15.000    455571.1969   3639412.2375   5200659.1715   2   6   0.1282   0.3187   0.2997  -0.0418   0.2402  -0.0731  15.00    1.4
2020/09/20 01:43:17.000    455571.1896   3639412.2282   5200659.1427   2   6   0.1260   0.3136   0.2945  -0.0413   0.2364  -0.0719  17.00    1.3
2020/09/20 01:43:20.000    455571.1909   3639412.2126   5200659.1423   2   6   0.1242   0.3097   0.2902  -0.0411   0.2335  -0.0711  20.00    1.3
2020/09/20 01:43:22.000    455571.1821   3639412.2074   5200659.1533   2   6   0.1225   0.3057   0.2860  -0.0407   0.2306  -0.0702  22.00    1.2
2020/09/20 01:43:26.000    455571.1623   3639412.1931   5200659.1484   2   6   0.1215   0.3040   0.2834  -0.0409   0.2294  -0.0699  26.00    1.1
2020/09/20 01:43:28.000    455571.1522   3639412.1571   5200659.1223   2   6   0.1201   0.3012   0.2801  -0.0407   0.2273  -0.0692  28.00    1.0
2020/09/20 01:43:30.000    455571.1661   3639412.1258   5200659.1588   2   6   0.1134   0.2821   0.2617  -0.0377   0.2118  -0.0624   0.00    1.0
2020/09/20 01:43:33.000    455571.1725   3639412.0876   5200659.1491   2   6   0.1115   0.2777   0.2553  -0.0370   0.2080  -0.0603   3.00    1.0
2020/09/20 01:43:35.000    455571.1784   3639412.0445   5200659.1349   2   6   0.1098   0.2737   0.2504  -0.0364   0.2047  -0.0589   5.00    1.1
2020/09/20 01:43:39.000    455571.1740   3639411.9952   5200659.1066   2   6   0.1085   0.2707   0.2471  -0.0363   0.2025  -0.0583   9.00    1.2
2020/09/20 01:43:41.000    455571.1751   3639411.9519   5200659.0884   2   6   0.1072   0.2676   0.2438  -0.0360   0.2002  -0.0576  11.00    1.2
2020/09/20 01:43:43.000    455571.1773   3639411.9074   5200659.0816   2   6   0.1060   0.2649   0.2410  -0.0358   0.1981  -0.0571  13.00    1.3
2020/09/20 01:43:45.000    455571.1822   3639411.8791   5200659.0862   2   6   0.1049   0.2625   0.2385  -0.0357   0.1964  -0.0566  15.00    1.4
2020/09/20 01:43:48.000    455571.1831   3639411.8564   5200659.1158   2   6   0.1042   0.2612   0.2368  -0.0358   0.1955  -0.0564  18.00    1.5
2020/09/20 01:43:52.000    455571.1915   3639411.8266   5200659.1334   2   6   0.1040   0.2614   0.2362  -0.0362   0.1958  -0.0567  22.00    1.7
2020/09/20 01:43:54.000    455571.1994   3639411.8155   5200659.1587   2   6   0.1033   0.2603   0.2348  -0.0362   0.1951  -0.0565  24.00    1.8
2020/09/20 01:43:56.000    455571.2083   3639411.7980   5200659.1777   2   6   0.1028   0.2595   0.2336  -0.0363   0.1946  -0.0565  26.00    2.0
2020/09/20 01:43:58.000    455571.2160   3639411.7745   5200659.1813   2   6   0.1024   0.2590   0.2326  -0.0364   0.1944  -0.0565  28.00    2.1
2020/09/20 01:44:01.000    455571.2177   3639411.7704   5200659.1567   2   6   0.0955   0.2390   0.2137  -0.0330   0.1779  -0.0490   1.00    2.2
2020/09/20 01:44:05.000    455571.2068   3639411.7401   5200659.1485   2   6   0.0946   0.2368   0.2101  -0.0327   0.1759  -0.0480   5.00    2.3
2020/09/20 01:44:07.000    455571.1934   3639411.7100   5200659.1358   2   6   0.0937   0.2347   0.2072  -0.0324   0.1742  -0.0471   7.00    2.3
2020/09/20 01:44:09.000    455571.1956   3639411.6999   5200659.1270   2   6   0.0928   0.2329   0.2050  -0.0322   0.1728  -0.0466   9.00    2.4
2020/09/20 01:44:11.000    455571.1916   3639411.6802   5200659.1080   2   6   0.0922   0.2313   0.2032  -0.0321   0.1716  -0.0463  11.00    2.4
2020/09/20 01:44:14.000    455571.1871   3639411.6751   5200659.1052   2   6   0.0918   0.2308   0.2023  -0.0323   0.1713  -0.0463  14.00    2.4
2020/09/20 01:44:22.000    455571.1907   3639411.6681   5200659.1075   2   6   0.0930   0.2355   0.2053  -0.0338   0.1752  -0.0479  22.00    2.4
2020/09/20 01:44:24.000    455571.1899   3639411.6575   5200659.1030   2   6   0.0929   0.2356   0.2050  -0.0340   0.1754  -0.0481  24.00    2.5
2020/09/20 01:44:27.000    455571.1849   3639411.6414   5200659.0940   2   6   0.0932   0.2371   0.2058  -0.0345   0.1768  -0.0487  27.00    2.5
2020/09/20 01:44:29.000    455571.1890   3639411.6185   5200659.0739   2   6   0.0932   0.2378   0.2060  -0.0348   0.1774  -0.0490  29.00    2.5
2020/09/20 01:44:32.000    455571.1806   3639411.5578   5200658.9934   2   6   0.0856   0.2153   0.1851  -0.0307   0.1588  -0.0404   2.00    2.8
2020/09/20 01:44:34.000    455571.1819   3639411.5504   5200658.9792   2   6   0.0848   0.2135   0.1814  -0.0302   0.1570  -0.0389   4.00    2.9
2020/09/20 01:44:46.000    455571.1706   3639411.5130   5200658.9570   2   6   0.0861   0.2180   0.1847  -0.0319   0.1608  -0.0412  16.00    3.0
2020/09/20 01:44:49.000    455571.2982   3639410.9409   5200658.7769   1   6   0.0239   0.0664   0.0524  -0.0103   0.0507  -0.0149  19.00    3.1
2020/09/20 01:44:50.000    455571.2976   3639410.9419   5200658.7783   1   6   0.0250   0.0697   0.0549  -0.0109   0.0533  -0.0157  20.00    3.2
2020/09/20 01:44:52.000    455571.2983   3639410.9417   5200658.7751   1   6   0.0273   0.0764   0.0600  -0.0120   0.0584  -0.0171  22.00    3.2
2020/09/20 01:44:53.000    455571.2994   3639410.9436   5200658.7747   1   6   0.0285   0.0797   0.0626  -0.0126   0.0609  -0.0179  23.00    3.2
2020/09/20 01:44:57.000    455571.3017   3639410.9395   5200658.7660   1   6   0.0332   0.0931   0.0729  -0.0149   0.0712  -0.0209  27.00    3.4
2020/09/20 01:44:59.000    455571.3032   3639410.9407   5200658.7657   1   6   0.0356   0.0998   0.0780  -0.0160   0.0763  -0.0224  29.00    3.5
2020/09/20 01:45:02.000    455571.3152   3639410.9599   5200658.7989   1   7   0.0065   0.0134   0.0137   0.0037   0.0092  -0.0016   2.00    5.4
2020/09/20 01:45:06.000    455571.3170   3639410.9671   5200658.8014   1   7   0.0092   0.0182   0.0178   0.0065   0.0124   0.0013   6.00    6.5
2020/09/20 01:45:09.000    455571.3149   3639410.9717   5200658.8077   1   7   0.0119   0.0227   0.0221   0.0092   0.0154   0.0033   9.00    7.0
2020/09/20 01:45:11.000    455571.3167   3639410.9760   5200658.8101   1   7   0.0138   0.0260   0.0253   0.0111   0.0176   0.0045  11.00    7.1
2020/09/20 01:45:13.000    455571.3179   3639410.9804   5200658.8166   1   7   0.0159   0.0293   0.0286   0.0130   0.0198   0.0056  13.00    7.4
2020/09/20 01:45:14.000    455571.3198   3639410.9810   5200658.8172   1   7   0.0169   0.0310   0.0304   0.0139   0.0210   0.0062  14.00    7.4
2020/09/20 01:45:17.000    455571.3232   3639410.9829   5200658.8099   1   7   0.0200   0.0362   0.0356   0.0168   0.0245   0.0078  17.00    7.5
2020/09/20 01:45:20.000    455571.3249   3639410.9890   5200658.8075   1   7   0.0232   0.0416   0.0410   0.0197   0.0281   0.0094  20.00    7.8
2020/09/20 01:45:22.000    455571.3255   3639410.9890   5200658.8072   1   7   0.0253   0.0452   0.0447   0.0216   0.0306   0.0104  22.00    8.1
2020/09/20 01:45:25.000    455571.3263   3639410.9937   5200658.8160   1   7   0.0286   0.0507   0.0502   0.0245   0.0343   0.0119  25.00    8.5
2020/09/20 01:45:27.000    455571.3263   3639410.9887   5200658.8214   1   7   0.0307   0.0544   0.0539   0.0265   0.0368   0.0129  27.00    8.6
2020/09/20 01:45:30.000    455571.3136   3639410.9569   5200658.7949   1   7   0.0060   0.0125   0.0130   0.0031   0.0086  -0.0014   0.00    9.5
2020/09/20 01:45:33.000    455571.3122   3639410.9539   5200658.8021   1   7   0.0069   0.0143   0.0145   0.0042   0.0098  -0.0013   3.00   10.5
2020/09/20 01:45:35.000    455571.3124   3639410.9499   5200658.8033   1   7   0.0084   0.0167   0.0166   0.0057   0.0115   0.0008   5.00   11.5
2020/09/20 01:45:38.000    455571.3122   3639410.9405   5200658.8086   1   7   0.0109   0.0211   0.0207   0.0082   0.0144   0.0027   8.00   12.5
2020/09/20 01:45:40.000    455571.3114   3639410.9360   5200658.8100   1   7   0.0128   0.0243   0.0238   0.0101   0.0165   0.0038  10.00   13.1
2020/09/20 01:45:43.000    455571.3095   3639410.9284   5200658.8090   1   7   0.0158   0.0292   0.0287   0.0129   0.0199   0.0055  13.00   13.1
2020/09/20 01:45:46.000    455571.3102   3639410.9197   5200658.8071   1   7   0.0189   0.0344   0.0339   0.0158   0.0234   0.0071  16.00   13.0
2020/09/20 01:45:48.000    455571.3107   3639410.9174   5200658.8052   1   7   0.0210   0.0380   0.0375   0.0177   0.0258   0.0082  18.00   12.6
2020/09/20 01:45:51.000    455571.3084   3639410.9128   5200658.8022   1   7   0.0242   0.0434   0.0430   0.0205   0.0294   0.0097  21.00   12.3
2020/09/20 01:45:53.000    455571.3071   3639410.9058   5200658.8021   1   7   0.0263   0.0470   0.0467   0.0225   0.0319   0.0107  23.00   11.8
2020/09/20 01:45:56.000    455571.3059   3639410.8962   5200658.8050   1   7   0.0296   0.0525   0.0523   0.0253   0.0357   0.0122  26.00   11.7
2020/09/20 01:45:59.000    455571.3058   3639410.8873   5200658.8089   1   7   0.0328   0.0581   0.0579   0.0282   0.0395   0.0137  29.00   11.8
2020/09/20 01:46:01.000    455571.3124   3639410.9482   5200658.7926   1   7   0.0061   0.0126   0.0131   0.0032   0.0088  -0.0014   1.00   11.9
2020/09/20 01:46:04.000    455571.3116   3639410.9426   5200658.7921   1   7   0.0076   0.0154   0.0154   0.0048   0.0106  -0.0013   4.00   11.4
2020/09/20 01:46:06.000    455571.3117   3639410.9388   5200658.7918   1   7   0.0092   0.0181   0.0178   0.0064   0.0124   0.0013   6.00   11.0
2020/09/20 01:46:09.000    455571.3093   3639410.9301   5200658.7845   1   7   0.0118   0.0226   0.0222   0.0091   0.0155   0.0031   9.00   10.7
2020/09/20 01:46:12.000    455571.3077   3639410.9228   5200658.7844   1   7   0.0148   0.0275   0.0271   0.0119   0.0188   0.0049  12.00   10.2
2020/09/20 01:46:14.000    455571.3059   3639410.9159   5200658.7816   1   7   0.0168   0.0309   0.0305   0.0137   0.0211   0.0060  14.00    9.7
2020/09/20 01:46:17.000    455571.3065   3639410.9029   5200658.7717   1   7   0.0199   0.0362   0.0358   0.0166   0.0246   0.0075  17.00    9.2
2020/09/20 01:46:19.000    455571.3071   3639410.8923   5200658.7682   1   7   0.0220   0.0397   0.0395   0.0185   0.0271   0.0085  19.00    8.7
2020/09/20 01:46:22.000    455571.3065   3639410.8871   5200658.7664   1   7   0.0252   0.0452   0.0450   0.0213   0.0308   0.0100  22.00    8.4
2020/09/20 01:46:25.000    455571.3070   3639410.8834   5200658.7661   1   7   0.0284   0.0507   0.0506   0.0242   0.0345   0.0115  25.00    8.2
2020/09/20 01:46:27.000    455571.3073   3639410.8810   5200658.7688   1   7   0.0305   0.0544   0.0543   0.0261   0.0371   0.0124  27.00    8.0
2020/09/20 01:46:30.000    455571.3141   3639410.9501   5200658.7944   1   7   0.0059   0.0124   0.0129   0.0030   0.0087  -0.0014   0.00    8.1
2020/09/20 01:46:32.000    455571.3122   3639410.9482   5200658.7913   1   7   0.0064   0.0133   0.0136   0.0035   0.0092  -0.0015   2.00    8.3
2020/09/20 01:46:35.000    455571.3115   3639410.9414   5200658.7884   1   7   0.0084   0.0167   0.0166   0.0056   0.0115   0.0006   5.00    8.1
2020/09/20 01:46:38.000    455571.3126   3639410.9397   5200658.7876   1   7   0.0109   0.0210   0.0207   0.0081   0.0144   0.0026   8.00    8.1
2020/09/20 01:46:40.000    455571.3142   3639410.9380   5200658.7847   1   7   0.0128   0.0242   0.0238   0.0099   0.0166   0.0037  10.00    8.1
2020/09/20 01:46:43.000    455571.3148   3639410.9384   5200658.7826   1   7   0.0157   0.0292   0.0289   0.0127   0.0199   0.0053  13.00    8.1
2020/09/20 01:46:45.000    455571.3150   3639410.9370   5200658.7848   1   7   0.0178   0.0326   0.0324   0.0146   0.0223   0.0063  15.00    8.0
2020/09/20 01:46:48.000    455571.3171   3639410.9333   5200658.7784   1   7   0.0209   0.0379   0.0378   0.0174   0.0259   0.0078  18.00    8.1
2020/09/20 01:46:51.000    455571.3183   3639410.9208   5200658.7749   1   7   0.0241   0.0433   0.0433   0.0202   0.0296   0.0093  21.00    8.1
2020/09/20 01:46:53.000    455571.3212   3639410.9199   5200658.7738   1   7   0.0262   0.0470   0.0470   0.0221   0.0321   0.0103  23.00    8.2
2020/09/20 01:46:58.000    455571.3198   3639410.9112   5200658.7783   1   7   0.0315   0.0562   0.0564   0.0269   0.0385   0.0126  28.00    8.4
2020/09/20 01:47:01.000    455571.3140   3639410.9511   5200658.7872   1   7   0.0061   0.0126   0.0131   0.0032   0.0088  -0.0014   1.00    8.5
2020/09/20 01:47:04.000    455571.3150   3639410.9415   5200658.7845   1   7   0.0075   0.0153   0.0154   0.0048   0.0106  -0.0009   4.00    8.4
2020/09/20 01:47:06.000    455571.3136   3639410.9352   5200658.7770   1   7   0.0091   0.0180   0.0179   0.0063   0.0124   0.0012   6.00    8.2
2020/09/20 01:47:07.000    455571.3135   3639410.9328   5200658.7696   1   7   0.0099   0.0195   0.0192   0.0072   0.0134   0.0019   7.00    8.0
2020/09/20 01:47:09.000    455571.3129   3639410.9273   5200658.7674   1   7   0.0118   0.0225   0.0223   0.0090   0.0155   0.0031   9.00    7.8
2020/09/20 01:47:12.000    455571.3134   3639410.9228   5200658.7640   1   7   0.0147   0.0274   0.0272   0.0117   0.0188   0.0047  12.00    7.6
2020/09/20 01:47:15.000    455571.3143   3639410.9204   5200658.7629   1   7   0.0177   0.0326   0.0325   0.0145   0.0224   0.0062  15.00    7.6
2020/09/20 01:47:17.000    455571.3130   3639410.9211   5200658.7657   1   7   0.0198   0.0361   0.0361   0.0164   0.0248   0.0072  17.00    7.5
2020/09/20 01:47:20.000    455571.3144   3639410.9252   5200658.7626   1   7   0.0229   0.0415   0.0416   0.0192   0.0285   0.0086  20.00    7.6
2020/09/20 01:47:22.000    455571.3138   3639410.9269   5200658.7655   1   7   0.0250   0.0451   0.0453   0.0210   0.0310   0.0096  22.00    7.7
2020/09/20 01:47:25.000    455571.3128   3639410.9342   5200658.7692   1   7   0.0282   0.0506   0.0510   0.0238   0.0348   0.0110  25.00    7.7
2020/09/20 01:47:28.000    455571.3109   3639410.9336   5200658.7752   1   7   0.0314   0.0562   0.0567   0.0267   0.0386   0.0124  28.00    7.7
2020/09/20 01:47:30.000    455571.3162   3639410.9584   5200658.7869   1   7   0.0060   0.0124   0.0129   0.0030   0.0087  -0.0013   0.00    7.9
2020/09/20 01:47:33.000    455571.3158   3639410.9588   5200658.7891   1   7   0.0069   0.0142   0.0144   0.0041   0.0099  -0.0013   3.00    8.3
2020/09/20 01:47:35.000    455571.3174   3639410.9572   5200658.7853   1   7   0.0083   0.0166   0.0165   0.0055   0.0115  -0.0005   5.00    8.3
2020/09/20 01:47:38.000    455571.3157   3639410.9491   5200658.7795   1   7   0.0108   0.0209   0.0208   0.0080   0.0145   0.0024   8.00    8.1
2020/09/20 01:47:41.000    455571.3190   3639410.9414   5200658.7735   1   7   0.0137   0.0257   0.0256   0.0107   0.0177   0.0041  11.00    8.0
2020/09/20 01:47:43.000    455571.3186   3639410.9362   5200658.7694   1   7   0.0156   0.0291   0.0290   0.0125   0.0200   0.0051  13.00    7.9
2020/09/20 01:47:46.000    455571.3190   3639410.9255   5200658.7697   1   7   0.0187   0.0343   0.0344   0.0153   0.0236   0.0065  16.00    7.8
2020/09/20 01:47:48.000    455571.3155   3639410.9272   5200658.7682   1   7   0.0208   0.0378   0.0380   0.0172   0.0261   0.0075  18.00    7.8
2020/09/20 01:47:51.000    455571.3176   3639410.9241   5200658.7664   1   7   0.0239   0.0432   0.0436   0.0200   0.0298   0.0089  21.00    7.8
2020/09/20 01:47:54.000    455571.3160   3639410.9187   5200658.7658   1   7   0.0271   0.0487   0.0493   0.0227   0.0336   0.0103  24.00    7.7
2020/09/20 01:47:56.000    455571.3170   3639410.9221   5200658.7649   1   7   0.0292   0.0524   0.0531   0.0246   0.0362   0.0112  26.00    7.6
2020/09/20 01:47:59.000    455571.3130   3639410.9215   5200658.7641   1   7   0.0324   0.0580   0.0588   0.0274   0.0400   0.0125  29.00    7.5
2020/09/20 01:48:01.000    455571.3107   3639410.9594   5200658.7886   1   7   0.0060   0.0126   0.0130   0.0030   0.0088  -0.0014   1.00    7.7
2020/09/20 01:48:04.000    455571.3065   3639410.9583   5200658.7816   1   7   0.0076   0.0153   0.0154   0.0047   0.0107  -0.0010   4.00    7.9
2020/09/20 01:48:07.000    455571.3038   3639410.9606   5200658.7826   1   7   0.0099   0.0194   0.0193   0.0071   0.0134   0.0018   7.00    7.9
2020/09/20 01:48:09.000    455571.3026   3639410.9641   5200658.7815   1   7   0.0117   0.0224   0.0224   0.0088   0.0155   0.0029   9.00    7.8
2020/09/20 01:48:14.000    455571.2983   3639410.9698   5200658.7807   1   7   0.0166   0.0307   0.0309   0.0134   0.0213   0.0054  14.00    7.8
2020/09/20 01:48:17.000    455571.2962   3639410.9760   5200658.7837   1   7   0.0197   0.0360   0.0363   0.0161   0.0249   0.0068  17.00    7.7
2020/09/20 01:48:20.000    455571.2945   3639410.9811   5200658.7827   1   7   0.0228   0.0414   0.0419   0.0189   0.0286   0.0082  20.00    7.7
2020/09/20 01:48:22.000    455571.2936   3639410.9802   5200658.7790   1   7   0.0249   0.0450   0.0457   0.0207   0.0312   0.0091  22.00    7.6
2020/09/20 01:48:23.000    455571.2926   3639410.9767   5200658.7784   1   7   0.0259   0.0469   0.0475   0.0216   0.0324   0.0096  23.00    7.5
2020/09/20 01:48:25.000    455571.2892   3639410.9719   5200658.7722   1   7   0.0281   0.0506   0.0514   0.0235   0.0350   0.0105  25.00    7.4
2020/09/20 01:48:28.000    455571.2868   3639410.9656   5200658.7638   1   7   0.0312   0.0561   0.0571   0.0263   0.0389   0.0118  28.00    7.4
2020/09/20 01:48:31.000    455571.3156   3639410.9617   5200658.7832   1   7   0.0061   0.0126   0.0130   0.0031   0.0088  -0.0009   1.00    7.4
2020/09/20 01:48:33.000    455571.3138   3639410.9568   5200658.7771   1   7   0.0069   0.0141   0.0143   0.0040   0.0099  -0.0012   3.00    7.4
2020/09/20 01:48:36.000    455571.3116   3639410.9537   5200658.7764   1   7   0.0090   0.0179   0.0179   0.0062   0.0125   0.0010   6.00    7.4
2020/09/20 01:48:38.000    455571.3107   3639410.9553   5200658.7735   1   7   0.0108   0.0208   0.0208   0.0079   0.0145   0.0022   8.00    7.5
2020/09/20 01:48:41.000    455571.3083   3639410.9552   5200658.7743   1   7   0.0136   0.0256   0.0257   0.0105   0.0178   0.0038  11.00    7.6
2020/09/20 01:48:44.000    455571.3059   3639410.9545   5200658.7736   1   7   0.0166   0.0307   0.0310   0.0133   0.0213   0.0053  14.00    7.6
2020/09/20 01:48:46.000    455571.3045   3639410.9548   5200658.7713   1   7   0.0186   0.0342   0.0346   0.0151   0.0238   0.0062  16.00    7.7
2020/09/20 01:48:49.000    455571.3035   3639410.9603   5200658.7714   1   7   0.0217   0.0396   0.0402   0.0178   0.0275   0.0076  19.00    7.8
2020/09/20 01:48:51.000    455571.3033   3639410.9625   5200658.7716   1   7   0.0238   0.0432   0.0439   0.0197   0.0300   0.0085  21.00    7.8
2020/09/20 01:48:54.000    455571.3039   3639410.9555   5200658.7598   1   7   0.0269   0.0487   0.0496   0.0224   0.0338   0.0098  24.00    7.8
2020/09/20 01:48:57.000    455571.3020   3639410.9478   5200658.7493   1   7   0.0301   0.0542   0.0554   0.0251   0.0377   0.0111  27.00    7.7
2020/09/20 01:48:59.000    455571.3011   3639410.9409   5200658.7448   1   7   0.0322   0.0580   0.0593   0.0270   0.0403   0.0119  29.00    7.7
2020/09/20 01:49:02.000    455571.3155   3639410.9600   5200658.7872   1   7   0.0064   0.0132   0.0136   0.0034   0.0092  -0.0009   2.00    7.6
2020/09/20 01:49:04.000    455571.3135   3639410.9591   5200658.7900   1   7   0.0075   0.0152   0.0154   0.0046   0.0107  -0.0010   4.00    7.5
2020/09/20 01:49:07.000    455571.3103   3639410.9493   5200658.7829   1   7   0.0099   0.0193   0.0193   0.0070   0.0135   0.0016   7.00    7.5
2020/09/20 01:49:10.000    455571.3102   3639410.9355   5200658.7775   1   7   0.0126   0.0240   0.0241   0.0096   0.0167   0.0032  10.00    7.5
2020/09/20 01:49:12.000    455571.3106   3639410.9265   5200658.7730   1   7   0.0145   0.0273   0.0275   0.0114   0.0190   0.0042  12.00    7.5
2020/09/20 01:49:15.000    455571.3118   3639410.9156   5200658.7684   1   7   0.0175   0.0324   0.0329   0.0141   0.0226   0.0056  15.00    7.5
2020/09/20 01:49:20.000    455571.3108   3639410.9082   5200658.7609   1   7   0.0227   0.0413   0.0422   0.0186   0.0288   0.0078  20.00    7.4
2020/09/20 01:49:23.000    455571.3147   3639410.9104   5200658.7640   1   7   0.0258   0.0468   0.0479   0.0213   0.0327   0.0091  23.00    7.4
2020/09/20 01:49:25.000    455571.3155   3639410.9064   5200658.7644   1   7   0.0279   0.0505   0.0518   0.0231   0.0353   0.0099  25.00    7.3
2020/09/20 01:49:28.000    455571.3176   3639410.9094   5200658.7645   1   7   0.0311   0.0561   0.0576   0.0258   0.0392   0.0112  28.00    7.2
2020/09/20 01:49:29.000    455571.3170   3639410.9095   5200658.7658   1   7   0.0321   0.0580   0.0595   0.0268   0.0405   0.0116  29.00    7.2
2020/09/20 01:49:32.000    455571.3184   3639410.9655   5200658.7919   1   7   0.0063   0.0131   0.0135   0.0034   0.0092  -0.0012   2.00    7.2
2020/09/20 01:49:35.000    455571.3180   3639410.9676   5200658.7941   1   7   0.0081   0.0164   0.0166   0.0053   0.0115  -0.0006   5.00    7.3
2020/09/20 01:49:37.000    455571.3186   3639410.9779   5200658.7977   1   7   0.0099   0.0193   0.0194   0.0069   0.0135   0.0016   7.00    7.3
2020/09/20 01:49:42.000    455571.3216   3639410.9982   5200658.8139   1   7   0.0145   0.0272   0.0276   0.0113   0.0190   0.0041  12.00    7.2
2020/09/20 01:49:45.000    455571.3258   3639411.0036   5200658.8136   1   7   0.0175   0.0324   0.0330   0.0140   0.0227   0.0054  15.00    7.1
2020/09/20 01:49:48.000    455571.3273   3639411.0090   5200658.8121   1   7   0.0205   0.0377   0.0386   0.0166   0.0264   0.0067  18.00    7.0
2020/09/20 01:49:50.000    455571.3279   3639411.0137   5200658.8102   1   7   0.0226   0.0413   0.0423   0.0184   0.0289   0.0076  20.00    6.9
2020/09/20 01:49:51.000    455571.3273   3639411.0164   5200658.8089   1   7   0.0236   0.0431   0.0443   0.0193   0.0302   0.0080  21.00    6.8
2020/09/20 01:49:54.000    455571.3296   3639411.0208   5200658.8049   1   7   0.0268   0.0486   0.0500   0.0220   0.0341   0.0092  24.00    6.7
2020/09/20 01:49:57.000    455571.3297   3639411.0278   5200658.8125   1   7   0.0299   0.0542   0.0559   0.0247   0.0380   0.0104  27.00    6.6
2020/09/20 01:49:59.000    455571.3288   3639411.0289   5200658.8138   1   7   0.0320   0.0579   0.0598   0.0265   0.0406   0.0113  29.00    6.6
2020/09/20 01:50:01.000    455571.3158   3639410.9666   5200658.7949   1   7   0.0061   0.0125   0.0130   0.0031   0.0088  -0.0012   1.00    6.6
2020/09/20 01:50:04.000    455571.3154   3639410.9676   5200658.7958   1   7   0.0075   0.0151   0.0154   0.0046   0.0107  -0.0007   4.00    6.5
2020/09/20 01:50:07.000    455571.3122   3639410.9728   5200658.8041   1   7   0.0098   0.0192   0.0194   0.0069   0.0135   0.0015   7.00    6.3
2020/09/20 01:50:10.000    455571.3093   3639410.9748   5200658.8083   1   7   0.0125   0.0239   0.0242   0.0094   0.0168   0.0030  10.00    6.2
2020/09/20 01:50:12.000    455571.3070   3639410.9749   5200658.8072   1   7   0.0145   0.0272   0.0277   0.0112   0.0191   0.0039  12.00    6.1
2020/09/20 01:50:14.000    455571.3069   3639410.9762   5200658.8067   1   7   0.0164   0.0306   0.0313   0.0130   0.0215   0.0048  14.00    6.0
2020/09/20 01:50:17.000    455571.3042   3639410.9805   5200658.8065   1   7   0.0195   0.0359   0.0368   0.0156   0.0252   0.0061  17.00    6.0
2020/09/20 01:50:20.000    455571.3036   3639410.9852   5200658.8016   1   7   0.0225   0.0413   0.0425   0.0183   0.0290   0.0073  20.00    6.0
2020/09/20 01:50:23.000    455571.3007   3639410.9823   5200658.7991   1   7   0.0257   0.0468   0.0483   0.0210   0.0329   0.0085  23.00    6.0
2020/09/20 01:50:25.000    455571.2984   3639410.9834   5200658.7971   1   7   0.0277   0.0505   0.0522   0.0228   0.0355   0.0093  25.00    6.0
2020/09/20 01:50:27.000    455571.2983   3639410.9823   5200658.7959   1   7   0.0298   0.0542   0.0561   0.0245   0.0381   0.0101  27.00    6.0
2020/09/20 01:50:30.000    455571.3133   3639410.9672   5200658.7966   1   7   0.0060   0.0122   0.0128   0.0029   0.0087  -0.0010   0.00    6.0
2020/09/20 01:50:33.000    455571.3122   3639410.9627   5200658.7916   1   7   0.0068   0.0140   0.0143   0.0039   0.0099  -0.0012   3.00    6.0
2020/09/20 01:50:36.000    455571.3119   3639410.9613   5200658.7894   1   7   0.0090   0.0177   0.0179   0.0060   0.0125   0.0008   6.00    6.1
2020/09/20 01:50:38.000    455571.3117   3639410.9623   5200658.7890   1   7   0.0107   0.0207   0.0210   0.0077   0.0146   0.0020   8.00    6.1
2020/09/20 01:50:40.000    455571.3122   3639410.9642   5200658.7876   1   7   0.0125   0.0238   0.0243   0.0094   0.0168   0.0029  10.00    6.1
2020/09/20 01:50:43.000    455571.3134   3639410.9644   5200658.7786   1   7   0.0154   0.0289   0.0295   0.0120   0.0203   0.0042  13.00    6.1
2020/09/20 01:50:46.000    455571.3145   3639410.9632   5200658.7742   1   7   0.0184   0.0341   0.0351   0.0146   0.0240   0.0055  16.00    6.2
2020/09/20 01:50:49.000    455571.3168   3639410.9549   5200658.7678   1   7   0.0215   0.0395   0.0407   0.0173   0.0278   0.0067  19.00    6.2
2020/09/20 01:50:51.000    455571.3204   3639410.9503   5200658.7714   1   7   0.0235   0.0431   0.0446   0.0190   0.0304   0.0075  21.00    6.2
2020/09/20 01:50:53.000    455571.3215   3639410.9486   5200658.7781   1   7   0.0256   0.0468   0.0485   0.0208   0.0330   0.0082  23.00    6.3
2020/09/20 01:50:56.000    455571.3220   3639410.9476   5200658.7842   1   7   0.0287   0.0523   0.0543   0.0235   0.0370   0.0094  26.00    6.3
2020/09/20 01:50:59.000    455571.3207   3639410.9391   5200658.7849   1   7   0.0318   0.0579   0.0603   0.0261   0.0409   0.0105  29.00    6.3
2020/09/20 01:51:02.000    455571.3166   3639410.9671   5200658.7978   1   7   0.0064   0.0130   0.0135   0.0033   0.0093  -0.0004   2.00    6.3
2020/09/20 01:51:04.000    455571.3166   3639410.9673   5200658.7985   1   7   0.0075   0.0151   0.0153   0.0046   0.0107  -0.0012   4.00    6.2
2020/09/20 01:51:06.000    455571.3178   3639410.9683   5200658.7986   1   7   0.0090   0.0177   0.0180   0.0060   0.0126   0.0004   6.00    6.1
2020/09/20 01:51:09.000    455571.3156   3639410.9692   5200658.7997   1   7   0.0116   0.0222   0.0226   0.0084   0.0157   0.0023   9.00    5.9
2020/09/20 01:51:12.000    455571.3179   3639410.9713   5200658.7982   1   7   0.0144   0.0271   0.0278   0.0110   0.0192   0.0036  12.00    5.9
2020/09/20 01:51:15.000    455571.3146   3639410.9691   5200658.7948   1   7   0.0174   0.0323   0.0333   0.0136   0.0229   0.0049  15.00    5.9
2020/09/20 01:51:17.000    455571.3146   3639410.9758   5200658.7992   1   7   0.0194   0.0358   0.0371   0.0154   0.0254   0.0057  17.00    5.8
2020/09/20 01:51:19.000    455571.3157   3639410.9761   5200658.7990   1   7   0.0214   0.0394   0.0409   0.0171   0.0279   0.0064  19.00    5.9
2020/09/20 01:51:22.000    455571.3131   3639410.9777   5200658.8029   1   7   0.0245   0.0449   0.0467   0.0198   0.0318   0.0076  22.00    5.9
2020/09/20 01:51:25.000    455571.3117   3639410.9806   5200658.8062   1   7   0.0276   0.0504   0.0526   0.0224   0.0358   0.0087  25.00    5.9
2020/09/20 01:51:28.000    455571.3087   3639410.9806   5200658.8032   1   7   0.0307   0.0560   0.0585   0.0250   0.0398   0.0098  28.00    5.9
2020/09/20 01:51:30.000    455571.3146   3639410.9619   5200658.7908   1   7   0.0059   0.0122   0.0127   0.0029   0.0087  -0.0007   0.00    5.8
2020/09/20 01:51:32.000    455571.3135   3639410.9634   5200658.7884   1   7   0.0064   0.0130   0.0135   0.0033   0.0093  -0.0008   2.00    5.6
2020/09/20 01:51:35.000    455571.3118   3639410.9667   5200658.7873   1   7   0.0082   0.0163   0.0166   0.0052   0.0116  -0.0005   5.00    5.5
2020/09/20 01:51:38.000    455571.3118   3639410.9725   5200658.7868   1   7   0.0106   0.0206   0.0210   0.0076   0.0146   0.0017   8.00    5.4
2020/09/20 01:51:41.000    455571.3098   3639410.9762   5200658.7891   1   7   0.0134   0.0254   0.0261   0.0101   0.0181   0.0031  11.00    5.3
2020/09/20 01:51:43.000    455571.3074   3639410.9801   5200658.7934   1   7   0.0153   0.0288   0.0297   0.0118   0.0205   0.0039  13.00    5.3
2020/09/20 01:51:45.000    455571.3080   3639410.9826   5200658.7965   1   7   0.0173   0.0323   0.0334   0.0135   0.0229   0.0047  15.00    5.3
2020/09/20 01:51:48.000    455571.3067   3639410.9892   5200658.7986   1   7   0.0203   0.0376   0.0391   0.0161   0.0267   0.0058  18.00    5.3
2020/09/20 01:51:51.000    455571.3036   3639410.9885   5200658.7941   1   7   0.0234   0.0431   0.0449   0.0187   0.0306   0.0069  21.00    5.2
2020/09/20 01:51:54.000    455571.3026   3639410.9950   5200658.7980   1   7   0.0265   0.0486   0.0508   0.0213   0.0346   0.0080  24.00    5.2
2020/09/20 01:51:56.000    455571.3013   3639410.9987   5200658.7960   1   7   0.0286   0.0523   0.0548   0.0231   0.0372   0.0087  26.00    5.2
2020/09/20 01:51:58.000    455571.3027   3639411.0032   5200658.7895   1   7   0.0306   0.0560   0.0588   0.0248   0.0399   0.0094  28.00    5.2
2020/09/20 01:52:01.000    455571.3160   3639410.9644   5200658.7897   1   7   0.0060   0.0124   0.0129   0.0031   0.0089  -0.0010   1.00    5.2
2020/09/20 01:52:04.000    455571.3150   3639410.9693   5200658.7849   1   7   0.0075   0.0150   0.0154   0.0045   0.0107  -0.0010   4.00    5.2
2020/09/20 01:52:06.000    455571.3130   3639410.9681   5200658.7809   1   7   0.0089   0.0176   0.0180   0.0059   0.0126   0.0004   6.00    5.2
2020/09/20 01:52:11.000    455571.3136   3639410.9730   5200658.7791   1   7   0.0134   0.0254   0.0262   0.0100   0.0181   0.0029  11.00    5.3
2020/09/20 01:52:17.000    455571.3130   3639410.9755   5200658.7756   1   7   0.0193   0.0358   0.0373   0.0151   0.0255   0.0052  17.00    5.3
2020/09/20 01:52:19.000    455571.3129   3639410.9777   5200658.7756   1   7   0.0213   0.0394   0.0412   0.0168   0.0281   0.0059  19.00    5.4
2020/09/20 01:52:20.000    455571.3134   3639410.9791   5200658.7696   1   7   0.0223   0.0412   0.0431   0.0177   0.0294   0.0063  20.00    5.4
2020/09/20 01:52:22.000    455571.3140   3639410.9813   5200658.7707   1   7   0.0244   0.0449   0.0471   0.0194   0.0321   0.0069  22.00    5.5
2020/09/20 01:52:23.000    455571.3152   3639410.9829   5200658.7695   1   7   0.0254   0.0467   0.0490   0.0203   0.0334   0.0073  23.00    5.5
2020/09/20 01:52:24.000    455571.3167   3639410.9856   5200658.7696   1   7   0.0264   0.0486   0.0510   0.0211   0.0347   0.0076  24.00    5.5
2020/09/20 01:52:27.000    455571.3148   3639410.9898   5200658.7682   1   7   0.0295   0.0542   0.0570   0.0237   0.0387   0.0086  27.00    5.6
2020/09/20 01:52:29.000    455571.3152   3639410.9910   5200658.7633   1   7   0.0316   0.0579   0.0610   0.0254   0.0414   0.0093  29.00    5.6
2020/09/20 01:52:34.000    455571.3166   3639410.9554   5200658.7763   1   7   0.0074   0.0150   0.0154   0.0044   0.0107  -0.0009   4.00    5.6
2020/09/20 01:52:36.000    455571.3151   3639410.9499   5200658.7692   1   7   0.0090   0.0176   0.0180   0.0058   0.0126   0.0006   6.00    5.6
2020/09/20 01:52:38.000    455571.3168   3639410.9494   5200658.7677   1   7   0.0106   0.0205   0.0211   0.0074   0.0147   0.0015   8.00    5.5
2020/09/20 01:52:41.000    455571.3145   3639410.9448   5200658.7600   1   7   0.0133   0.0254   0.0263   0.0099   0.0182   0.0028  11.00    5.5
2020/09/20 01:52:43.000    455571.3150   3639410.9399   5200658.7566   1   7   0.0153   0.0287   0.0299   0.0116   0.0206   0.0035  13.00    5.5
2020/09/20 01:52:49.000    455571.3142   3639410.9219   5200658.7417   1   7   0.0212   0.0394   0.0414   0.0167   0.0282   0.0056  19.00    5.4
2020/09/20 01:52:51.000    455571.3159   3639410.9184   5200658.7426   1   7   0.0233   0.0430   0.0453   0.0184   0.0309   0.0063  21.00    5.4
2020/09/20 01:52:54.000    455571.3134   3639410.9057   5200658.7446   1   7   0.0263   0.0486   0.0512   0.0210   0.0348   0.0073  24.00    5.3
2020/09/20 01:52:56.000    455571.3135   3639410.9027   5200658.7466   1   7   0.0284   0.0523   0.0552   0.0227   0.0375   0.0079  26.00    5.3
2020/09/20 01:53:00.000    455571.3172   3639410.9675   5200658.7918   1   7   0.0058   0.0121   0.0127   0.0028   0.0087  -0.0010   0.00    5.3
2020/09/20 01:53:02.000    455571.3154   3639410.9619   5200658.7936   1   7   0.0065   0.0129   0.0134   0.0034   0.0093  -0.0009   2.00    5.1
2020/09/20 01:53:04.000    455571.3145   3639410.9601   5200658.7991   1   7   0.0075   0.0149   0.0154   0.0044   0.0107  -0.0008   4.00    4.9
2020/09/20 01:53:07.000    455571.3112   3639410.9517   5200658.8079   1   7   0.0097   0.0190   0.0196   0.0066   0.0137   0.0009   7.00    4.7
2020/09/20 01:53:09.000    455571.3098   3639410.9482   5200658.8138   1   7   0.0115   0.0221   0.0228   0.0082   0.0159   0.0018   9.00    4.6
2020/09/20 01:53:13.000    455571.3066   3639410.9444   5200658.8254   1   7   0.0152   0.0287   0.0300   0.0115   0.0206   0.0033  13.00    4.5
2020/09/20 01:53:15.000    455571.3068   3639410.9423   5200658.8260   1   7   0.0172   0.0322   0.0338   0.0132   0.0232   0.0040  15.00    4.4
2020/09/20 01:53:17.000    455571.3070   3639410.9411   5200658.8293   1   7   0.0192   0.0358   0.0376   0.0149   0.0257   0.0046  17.00    4.3
2020/09/20 01:53:20.000    455571.3062   3639410.9378   5200658.8332   1   7   0.0222   0.0412   0.0435   0.0174   0.0296   0.0056  20.00    4.3
2020/09/20 01:53:22.000    455571.3071   3639410.9395   5200658.8330   1   7   0.0242   0.0449   0.0474   0.0191   0.0323   0.0062  22.00    4.2
2020/09/20 01:53:28.000    455571.3070   3639410.9385   5200658.8457   1   7   0.0304   0.0560   0.0595   0.0241   0.0404   0.0080  28.00    4.2
2020/09/20 01:53:30.000    455571.3194   3639410.9653   5200658.7914   1   7   0.0059   0.0121   0.0127   0.0027   0.0087  -0.0010   0.00    4.3
2020/09/20 01:53:33.000    455571.3173   3639410.9618   5200658.7932   1   7   0.0068   0.0138   0.0143   0.0037   0.0100  -0.0009   3.00    4.3
2020/09/20 01:53:35.000    455571.3162   3639410.9600   5200658.7924   1   7   0.0081   0.0162   0.0167   0.0050   0.0117  -0.0007   5.00    4.3
2020/09/20 01:53:37.000    455571.3172   3639410.9548   5200658.7928   1   7   0.0097   0.0190   0.0196   0.0065   0.0137   0.0007   7.00    4.3
2020/09/20 01:53:39.000    455571.3166   3639410.9527   5200658.7958   1   7   0.0114   0.0220   0.0229   0.0081   0.0159   0.0018   9.00    4.3
2020/09/20 01:53:41.000    455571.3165   3639410.9537   5200658.7999   1   7   0.0133   0.0253   0.0264   0.0097   0.0183   0.0024  11.00    4.3
2020/09/20 01:53:44.000    455571.3149   3639410.9546   5200658.8025   1   7   0.0162   0.0304   0.0320   0.0122   0.0220   0.0034  14.00    4.2
2020/09/20 01:53:46.000    455571.3155   3639410.9553   5200658.8061   1   7   0.0181   0.0339   0.0358   0.0139   0.0245   0.0040  16.00    4.2
2020/09/20 01:53:50.000    455571.3146   3639410.9552   5200658.8081   1   7   0.0221   0.0412   0.0436   0.0172   0.0298   0.0053  20.00    4.2
2020/09/20 01:53:52.000    455571.3157   3639410.9596   5200658.8115   1   7   0.0242   0.0449   0.0476   0.0189   0.0324   0.0058  22.00    4.2
2020/09/20 01:53:54.000    455571.3146   3639410.9618   5200658.8125   1   7   0.0262   0.0486   0.0516   0.0206   0.0351   0.0064  24.00    4.2
2020/09/20 01:54:02.000    455571.3156   3639410.9585   5200658.7920   1   7   0.0064   0.0129   0.0135   0.0032   0.0093   0.0007   2.00    4.1
2020/09/20 01:54:07.000    455571.3107   3639410.9548   5200658.7959   1   7   0.0097   0.0189   0.0196   0.0065   0.0137   0.0004   7.00    4.1
2020/09/20 01:54:08.000    455571.3084   3639410.9532   5200658.7951   1   7   0.0106   0.0205   0.0213   0.0073   0.0148   0.0010   8.00    4.0
2020/09/20 01:54:12.000    455571.3029   3639410.9483   5200658.7945   1   7   0.0142   0.0270   0.0283   0.0105   0.0195   0.0025  12.00    3.9
2020/09/20 01:54:15.000    455571.3013   3639410.9482   5200658.7967   1   7   0.0171   0.0322   0.0340   0.0129   0.0233   0.0034  15.00    3.9
2020/09/20 01:54:17.000    455571.2993   3639410.9464   5200658.7984   1   7   0.0191   0.0357   0.0379   0.0146   0.0259   0.0040  17.00    3.8
2020/09/20 01:54:21.000    455571.2969   3639410.9439   5200658.7965   1   7   0.0231   0.0430   0.0458   0.0179   0.0312   0.0051  21.00    3.8
2020/09/20 01:54:22.000    455571.2934   3639410.9428   5200658.7972   1   7   0.0241   0.0448   0.0478   0.0187   0.0325   0.0054  22.00    3.8
2020/09/20 01:54:24.000    455571.2912   3639410.9378   5200658.7981   1   7   0.0261   0.0486   0.0518   0.0204   0.0352   0.0059  24.00    3.7
2020/09/20 01:54:26.000    455571.2892   3639410.9396   5200658.8012   1   7   0.0282   0.0523   0.0559   0.0220   0.0380   0.0065  26.00    3.7
2020/09/20 01:54:30.000    455571.3181   3639410.9574   5200658.7955   1   7   0.0060   0.0120   0.0127   0.0030   0.0087   0.0008   0.00    3.7
2020/09/20 01:54:33.000    455571.3168   3639410.9593   5200658.8021   1   7   0.0068   0.0138   0.0143   0.0037   0.0100  -0.0005   3.00    3.6
2020/09/20 01:54:35.000    455571.3163   3639410.9614   5200658.8025   1   7   0.0081   0.0161   0.0167   0.0050   0.0117  -0.0006   5.00    3.6
2020/09/20 01:54:37.000    455571.3152   3639410.9612   5200658.8035   1   7   0.0097   0.0189   0.0197   0.0064   0.0137   0.0004   7.00    3.5
2020/09/20 01:54:41.000    455571.3154   3639410.9460   5200658.8002   1   7   0.0132   0.0252   0.0266   0.0096   0.0184   0.0020  11.00    3.5
2020/09/20 01:54:43.000    455571.3171   3639410.9410   5200658.7984   1   7   0.0151   0.0286   0.0303   0.0112   0.0208   0.0026  13.00    3.4
2020/09/20 01:54:48.000    455571.3159   3639410.9326   5200658.7934   1   7   0.0200   0.0375   0.0400   0.0153   0.0273   0.0039  18.00    3.4
2020/09/20 01:54:51.000    455571.3168   3639410.9269   5200658.7893   1   7   0.0230   0.0430   0.0460   0.0177   0.0313   0.0047  21.00    3.4
2020/09/20 01:54:54.000    455571.3180   3639410.9133   5200658.7786   1   7   0.0261   0.0486   0.0520   0.0202   0.0354   0.0054  24.00    3.4
2020/09/20 01:54:55.000    455571.3188   3639410.9078   5200658.7760   1   7   0.0271   0.0504   0.0541   0.0210   0.0367   0.0057  25.00    3.4
2020/09/20 01:54:57.000    455571.3195   3639410.9003   5200658.7669   1   7   0.0291   0.0542   0.0581   0.0227   0.0395   0.0061  27.00    3.4
2020/09/20 01:55:00.000    455571.3177   3639410.9566   5200658.7962   1   7   0.0059   0.0120   0.0127   0.0027   0.0087  -0.0007   0.00    3.4
2020/09/20 01:55:03.000    455571.3152   3639410.9453   5200658.7848   1   7   0.0067   0.0137   0.0143   0.0037   0.0100  -0.0010   3.00    3.4
2020/09/20 01:55:07.000    455571.3131   3639410.9360   5200658.7724   1   7   0.0097   0.0189   0.0197   0.0064   0.0138  -0.0003   7.00    3.3
2020/09/20 01:55:11.000    455571.3116   3639410.9363   5200658.7703   1   7   0.0132   0.0252   0.0267   0.0095   0.0184   0.0017  11.00    3.3
2020/09/20 01:55:14.000    455571.3104   3639410.9350   5200658.7599   1   7   0.0161   0.0304   0.0323   0.0119   0.0222   0.0025  14.00    3.3
2020/09/20 01:55:20.000    455571.3037   3639410.9301   5200658.7579   1   7   0.0220   0.0412   0.0441   0.0168   0.0301   0.0040  20.00    3.3
2020/09/20 01:55:23.000    455571.3010   3639410.9324   5200658.7574   1   7   0.0250   0.0467   0.0502   0.0192   0.0341   0.0046  23.00    3.3
2020/09/20 01:55:24.000    455571.3009   3639410.9310   5200658.7582   1   7   0.0260   0.0486   0.0522   0.0200   0.0355   0.0049  24.00    3.3
2020/09/20 01:55:30.000    455571.3170   3639410.9551   5200658.7976   1   7   0.0059   0.0120   0.0127   0.0028   0.0088  -0.0013   0.00    3.3
2020/09/20 01:55:33.000    455571.3164   3639410.9527   5200658.7971   1   7   0.0068   0.0137   0.0143   0.0037   0.0100  -0.0002   3.00    3.3
2020/09/20 01:55:35.000    455571.3149   3639410.9518   5200658.7981   1   7   0.0081   0.0161   0.0168   0.0049   0.0118  -0.0009   5.00    3.3
2020/09/20 01:55:38.000    455571.3154   3639410.9487   5200658.7999   1   7   0.0105   0.0204   0.0214   0.0071   0.0149   0.0003   8.00    3.3
2020/09/20 01:55:40.000    455571.3166   3639410.9428   5200658.7956   1   7   0.0123   0.0236   0.0249   0.0086   0.0173   0.0010  10.00    3.3
2020/09/20 01:55:41.000    455571.3169   3639410.9423   5200658.7963   1   7   0.0132   0.0252   0.0267   0.0094   0.0185   0.0013  11.00    3.3
2020/09/20 01:55:44.000    455571.3195   3639410.9352   5200658.7938   1   7   0.0160   0.0304   0.0324   0.0118   0.0223   0.0022  14.00    3.3
2020/09/20 01:55:47.000    455571.3187   3639410.9306   5200658.7901   1   7   0.0190   0.0357   0.0383   0.0142   0.0262   0.0028  17.00    3.3
2020/09/20 01:55:49.000    455571.3183   3639410.9255   5200658.7933   1   7   0.0209   0.0393   0.0423   0.0158   0.0288   0.0032  19.00    3.3
2020/09/20 01:55:55.000    455571.3186   3639410.9178   5200658.8070   1   7   0.0270   0.0504   0.0545   0.0206   0.0370   0.0044  25.00    3.3
2020/09/20 01:55:58.000    455571.3206   3639410.9251   5200658.8151   1   7   0.0300   0.0560   0.0607   0.0230   0.0412   0.0049  28.00    3.3
2020/09/20 01:56:00.000    455571.3183   3639410.9625   5200658.7990   1   7   0.0059   0.0120   0.0126   0.0028   0.0088  -0.0004   0.00    3.3
2020/09/20 01:56:01.000    455571.3166   3639410.9625   5200658.8012   1   7   0.0060   0.0122   0.0128   0.0028   0.0089   0.0007   1.00    3.3
2020/09/20 01:56:02.000    455571.3193   3639410.9660   5200658.8038   1   7   0.0064   0.0128   0.0134   0.0032   0.0094  -0.0005   2.00    3.3
2020/09/20 01:56:04.000    455571.3192   3639410.9700   5200658.8080   1   7   0.0075   0.0148   0.0155   0.0042   0.0109  -0.0005   4.00    3.3
2020/09/20 01:56:09.000    455571.3173   3639410.9756   5200658.8188   1   7   0.0113   0.0219   0.0232   0.0078   0.0161  -0.0007   9.00    3.2
2020/09/20 01:56:14.000    455571.3152   3639410.9791   5200658.8275   1   7   0.0160   0.0303   0.0325   0.0117   0.0223   0.0017  14.00    3.2
2020/09/20 01:56:16.000    455571.3135   3639410.9787   5200658.8313   1   7   0.0179   0.0339   0.0365   0.0133   0.0249   0.0020  16.00    3.1
2020/09/20 01:56:17.000    455571.3119   3639410.9802   5200658.8339   1   7   0.0189   0.0357   0.0384   0.0141   0.0263   0.0023  17.00    3.1
2020/09/20 01:56:20.000    455571.3119   3639410.9837   5200658.8411   1   7   0.0219   0.0412   0.0445   0.0164   0.0303   0.0028  20.00    3.1
2020/09/20 01:56:21.000    455571.3112   3639410.9858   5200658.8447   1   7   0.0229   0.0430   0.0465   0.0172   0.0317   0.0030  21.00    3.0
2020/09/20 01:56:23.000    455571.3088   3639410.9852   5200658.8489   1   7   0.0249   0.0467   0.0506   0.0188   0.0344   0.0033  23.00    3.0
2020/09/20 01:56:25.000    455571.2690   3639411.0443   5200658.8202   2   7   0.0410   0.0740   0.0631   0.0098   0.0520   0.0122  25.00    3.0
2020/09/20 01:56:27.000    455571.2675   3639411.0408   5200658.8166   2   7   0.0423   0.0765   0.0667   0.0128   0.0540   0.0123  27.00    3.0
2020/09/20 01:56:30.000    455571.2769   3639411.0146   5200658.7674   2   7   0.0314   0.0555   0.0335  -0.0177   0.0374   0.0119   0.00    3.0
2020/09/20 01:56:33.000    455571.3170   3639410.9624   5200658.8039   1   7   0.0067   0.0137   0.0144   0.0035   0.0100  -0.0010   3.00    3.0
2020/09/20 01:56:34.000    455571.2733   3639411.0212   5200658.7774   2   7   0.0316   0.0554   0.0342  -0.0176   0.0373   0.0116   4.00    3.0
2020/09/20 01:56:36.000    455571.2706   3639411.0227   5200658.7819   2   7   0.0319   0.0558   0.0354  -0.0173   0.0377   0.0115   6.00    3.0
2020/09/20 01:56:39.000    455571.2670   3639411.0238   5200658.7835   2   7   0.0326   0.0571   0.0382  -0.0165   0.0388   0.0114   9.00    3.0
2020/09/20 01:56:42.000    455571.2633   3639411.0262   5200658.7873   2   7   0.0336   0.0590   0.0417  -0.0152   0.0403   0.0114  12.00    3.0
2020/09/20 01:56:44.000    455571.2618   3639411.0284   5200658.7908   2   7   0.0344   0.0606   0.0444  -0.0140   0.0416   0.0114  14.00    2.9
2020/09/20 01:56:46.000    455571.2587   3639411.0354   5200658.7988   2   7   0.0353   0.0623   0.0474  -0.0126   0.0430   0.0114  16.00    2.9
2020/09/20 01:56:48.000    455571.2570   3639411.0418   5200658.8005   2   7   0.0363   0.0643   0.0505  -0.0106   0.0446   0.0114  18.00    2.9
2020/09/20 01:56:51.000    455571.2520   3639411.0536   5200658.8071   2   7   0.0379   0.0676   0.0555  -0.0061   0.0472   0.0114  21.00    2.9
2020/09/20 01:56:54.000    455571.2505   3639411.0645   5200658.8162   2   7   0.0398   0.0712   0.0608   0.0070   0.0500   0.0115  24.00    2.9
2020/09/20 01:56:56.000    455571.2476   3639411.0679   5200658.8200   2   7   0.0411   0.0737   0.0644   0.0107   0.0520   0.0115  26.00    2.9
2020/09/20 01:56:58.000    455571.2463   3639411.0755   5200658.8264   2   7   0.0424   0.0764   0.0681   0.0135   0.0541   0.0115  28.00    2.8
2020/09/20 01:57:00.000    455571.2571   3639411.0310   5200658.7711   2   7   0.0307   0.0534   0.0321  -0.0179   0.0358   0.0114   0.00    2.9
2020/09/20 01:57:05.000    455571.2559   3639411.0381   5200658.7737   2   7   0.0311   0.0540   0.0339  -0.0175   0.0363   0.0111   5.00    2.9
2020/09/20 01:57:09.000    455571.2522   3639411.0482   5200658.7740   2   7   0.0321   0.0557   0.0375  -0.0166   0.0378   0.0110   9.00    2.9
2020/09/20 01:57:11.000    455571.2522   3639411.0542   5200658.7716   2   7   0.0327   0.0570   0.0398  -0.0158   0.0388   0.0110  11.00    2.9
2020/09/20 01:57:13.000    455571.2514   3639411.0564   5200658.7739   2   7   0.0334   0.0584   0.0425  -0.0148   0.0400   0.0109  13.00    2.9
2020/09/20 01:57:16.000    455571.2518   3639411.0610   5200658.7740   2   7   0.0348   0.0611   0.0469  -0.0128   0.0422   0.0109  16.00    2.9
2020/09/20 01:57:20.000    455571.2533   3639411.0621   5200658.7737   2   7   0.0369   0.0653   0.0535  -0.0085   0.0456   0.0109  20.00    2.9
2020/09/20 01:57:26.000    455571.2586   3639411.0561   5200658.7722   2   7   0.0407   0.0728   0.0642   0.0100   0.0515   0.0108  26.00    2.9
2020/09/20 01:57:27.000    455571.2574   3639411.0596   5200658.7744   2   7   0.0414   0.0741   0.0661   0.0116   0.0525   0.0108  27.00    2.9
2020/09/20 01:57:31.000    455571.2434   3639411.0623   5200658.7837   2   7   0.0302   0.0522   0.0315  -0.0180   0.0349   0.0110   1.00    2.9
2020/09/20 01:57:34.000    455571.2461   3639411.0626   5200658.7808   2   7   0.0305   0.0524   0.0325  -0.0178   0.0351   0.0109   4.00    2.9
2020/09/20 01:57:36.000    455571.2484   3639411.0650   5200658.7817   2   7   0.0308   0.0529   0.0338  -0.0175   0.0356   0.0107   6.00    2.9
2020/09/20 01:57:37.000    455571.2468   3639411.0648   5200658.7790   2   7   0.0310   0.0532   0.0346  -0.0173   0.0358   0.0106   7.00    2.9
2020/09/20 01:57:40.000    455571.2465   3639411.0686   5200658.7809   2   7   0.0319   0.0548   0.0378  -0.0164   0.0372   0.0105  10.00    2.9
2020/09/20 01:57:45.000    455571.2463   3639411.0687   5200658.7690   2   7   0.0339   0.0589   0.0448  -0.0139   0.0405   0.0104  15.00    2.9
2020/09/20 01:57:47.000    455571.2444   3639411.0674   5200658.7661   2   7   0.0348   0.0608   0.0480  -0.0123   0.0421   0.0104  17.00    2.9
2020/09/20 01:57:51.000    455571.2450   3639411.0601   5200658.7541   2   7   0.0371   0.0653   0.0548  -0.0077   0.0457   0.0102  21.00    2.9
2020/09/20 01:57:52.000    455571.2446   3639411.0594   5200658.7532   2   7   0.0377   0.0665   0.0566  -0.0056   0.0467   0.0102  22.00    2.9
2020/09/20 01:57:54.000    455571.2433   3639411.0633   5200658.7553   2   7   0.0389   0.0690   0.0602   0.0051   0.0487   0.0101  24.00    2.9
2020/09/20 01:57:56.000    455571.2410   3639411.0581   5200658.7493   2   7   0.0402   0.0716   0.0639   0.0094   0.0508   0.0100  26.00    2.9
2020/09/20 01:58:00.000    455571.2205   3639411.0602   5200658.7806   2   7   0.0297   0.0506   0.0304  -0.0181   0.0337   0.0107   0.00    2.9
2020/09/20 01:58:02.000    455571.2179   3639411.0609   5200658.7747   2   7   0.0297   0.0503   0.0305  -0.0181   0.0335   0.0105   2.00    2.9
2020/09/20 01:58:04.000    455571.2137   3639411.0617   5200658.7725   2   7   0.0299   0.0505   0.0313  -0.0180   0.0337   0.0103   4.00    2.9
2020/09/20 01:58:07.000    455571.2129   3639411.0612   5200658.7699   2   7   0.0305   0.0515   0.0336  -0.0175   0.0346   0.0102   7.00    2.9
2020/09/20 01:58:13.000    455571.2071   3639411.0629   5200658.7627   2   7   0.0325   0.0557   0.0411  -0.0153   0.0381   0.0100  13.00    2.9
2020/09/20 01:58:15.000    455571.2052   3639411.0626   5200658.7626   2   7   0.0334   0.0575   0.0442  -0.0142   0.0396   0.0099  15.00    2.9
2020/09/20 01:58:17.000    455571.2017   3639411.0652   5200658.7608   2   7   0.0344   0.0595   0.0474  -0.0127   0.0412   0.0098  17.00    2.8
2020/09/20 01:58:19.000    455571.2007   3639411.0662   5200658.7564   2   7   0.0354   0.0617   0.0508  -0.0108   0.0430   0.0097  19.00    2.8
2020/09/20 01:58:20.000    455571.1987   3639411.0661   5200658.7563   2   7   0.0360   0.0628   0.0525  -0.0096   0.0439   0.0096  20.00    2.8
2020/09/20 01:58:22.000    455571.1966   3639411.0677   5200658.7536   2   7   0.0372   0.0652   0.0561  -0.0064   0.0459   0.0095  22.00    2.8
2020/09/20 01:58:24.000    455571.1940   3639411.0669   5200658.7531   2   7   0.0385   0.0678   0.0598   0.0038   0.0479   0.0094  24.00    2.8
2020/09/20 01:58:29.000    455571.1850   3639411.0718   5200658.7530   2   7   0.0419   0.0748   0.0694   0.0131   0.0535   0.0090  29.00    2.8
2020/09/20 01:58:36.000    455571.2067   3639411.0848   5200658.7779   2   7   0.0299   0.0504   0.0325  -0.0176   0.0338   0.0101   6.00    2.8
2020/09/20 01:58:37.000    455571.2079   3639411.0893   5200658.7772   2   7   0.0301   0.0507   0.0333  -0.0174   0.0341   0.0100   7.00    2.8
2020/09/20 01:58:40.000    455571.2077   3639411.0952   5200658.7804   2   7   0.0310   0.0524   0.0367  -0.0166   0.0356   0.0098  10.00    2.8
2020/09/20 01:58:41.000    455571.2070   3639411.1021   5200658.7827   2   7   0.0313   0.0531   0.0380  -0.0162   0.0361   0.0097  11.00    2.8
2020/09/20 01:58:44.000    455571.2059   3639411.1081   5200658.7853   2   7   0.0325   0.0556   0.0423  -0.0147   0.0383   0.0096  14.00    2.8
2020/09/20 01:58:46.000    455571.2074   3639411.1104   5200658.7811   2   7   0.0334   0.0576   0.0455  -0.0134   0.0399   0.0094  16.00    2.8
2020/09/20 01:58:48.000    455571.2104   3639411.1086   5200658.7795   2   7   0.0345   0.0597   0.0489  -0.0118   0.0416   0.0093  18.00    2.8
2020/09/20 01:58:51.000    455571.2127   3639411.1084   5200658.7759   2   7   0.0362   0.0633   0.0542  -0.0084   0.0445   0.0091  21.00    2.8
2020/09/20 01:58:54.000    455571.2120   3639411.1040   5200658.7717   2   7   0.0381   0.0671   0.0598   0.0029   0.0476   0.0088  24.00    2.8
2020/09/20 01:58:59.000    455571.2116   3639411.1061   5200658.7642   2   7   0.0416   0.0742   0.0694   0.0127   0.0532   0.0081  29.00    2.8
2020/09/20 01:59:02.000    455571.2192   3639411.0936   5200658.7942   2   7   0.0288   0.0481   0.0293  -0.0181   0.0320   0.0101   2.00    2.8
2020/09/20 01:59:05.000    455571.2195   3639411.0950   5200658.7961   2   7   0.0292   0.0487   0.0309  -0.0179   0.0325   0.0098   5.00    2.9
2020/09/20 01:59:06.000    455571.2202   3639411.0952   5200658.7977   2   7   0.0294   0.0489   0.0316  -0.0177   0.0328   0.0097   6.00    2.9
2020/09/20 01:59:08.000    455571.2208   3639411.0935   5200658.8001   2   7   0.0299   0.0498   0.0336  -0.0172   0.0336   0.0095   8.00    2.9
2020/09/20 01:59:11.000    455571.2199   3639411.0899   5200658.7998   2   7   0.0308   0.0519   0.0374  -0.0163   0.0353   0.0094  11.00    2.9
2020/09/20 01:59:14.000    455571.2204   3639411.0861   5200658.7966   2   7   0.0321   0.0545   0.0419  -0.0149   0.0375   0.0091  14.00    2.9
2020/09/20 01:59:18.000    455571.2205   3639411.0879   5200658.7953   2   7   0.0341   0.0587   0.0486  -0.0121   0.0410   0.0087  18.00    2.9
2020/09/20 01:59:21.000    455571.2198   3639411.0907   5200658.7942   2   7   0.0358   0.0623   0.0540  -0.0090   0.0439   0.0084  21.00    2.9
2020/09/20 01:59:24.000    455571.2188   3639411.0912   5200658.7995   2   7   0.0378   0.0663   0.0596  -0.0016   0.0471   0.0080  24.00    2.9
2020/09/20 01:59:33.000    455571.2272   3639411.1001   5200658.8082   2   7   0.0286   0.0471   0.0290  -0.0182   0.0313   0.0096   3.00    2.9
2020/09/20 01:59:35.000    455571.2272   3639411.1042   5200658.8129   2   7   0.0288   0.0476   0.0303  -0.0180   0.0317   0.0095   5.00    2.9
2020/09/20 01:59:43.000    455571.2260   3639411.1269   5200658.8280   2   7   0.0314   0.0529   0.0401  -0.0156   0.0363   0.0089  13.00    2.9
2020/09/20 01:59:44.000    455571.2261   3639411.1312   5200658.8300   2   7   0.0318   0.0538   0.0416  -0.0151   0.0370   0.0088  14.00    2.9
2020/09/20 01:59:46.000    455571.2273   3639411.1325   5200658.8297   2   7   0.0328   0.0558   0.0449  -0.0139   0.0387   0.0085  16.00    2.9
2020/09/20 01:59:47.000    455571.2304   3639411.1301   5200658.8279   2   7   0.0333   0.0569   0.0466  -0.0132   0.0396   0.0084  17.00    2.9
2020/09/20 01:59:49.000    455571.2312   3639411.1261   5200658.8224   2   7   0.0344   0.0592   0.0502  -0.0115   0.0415   0.0082  19.00    2.9
2020/09/20 01:59:55.000    455571.2402   3639411.0994   5200658.8104   2   7   0.0382   0.0671   0.0615   0.0038   0.0479   0.0071  25.00    2.9
2020/09/20 01:59:57.000    455571.2455   3639411.0958   5200658.8093   2   7   0.0395   0.0699   0.0654   0.0085   0.0502   0.0066  27.00    2.9
2020/09/20 02:00:00.000    455571.2396   3639411.0986   5200658.8166   2   7   0.0280   0.0458   0.0276  -0.0183   0.0302   0.0096   0.00    2.9
2020/09/20 02:00:02.000    455571.2436   3639411.1005   5200658.8157   2   7   0.0280   0.0456   0.0277  -0.0183   0.0301   0.0094   2.00    2.9
2020/09/20 02:00:04.000    455571.2471   3639411.0956   5200658.8128   2   7   0.0283   0.0459   0.0287  -0.0182   0.0303   0.0092   4.00    2.9
2020/09/20 02:00:06.000    455571.2523   3639411.0921   5200658.8105   2   7   0.0286   0.0465   0.0303  -0.0179   0.0310   0.0091   6.00    2.9
2020/09/20 02:00:09.000    455571.2584   3639411.0880   5200658.8020   2   7   0.0294   0.0482   0.0336  -0.0172   0.0324   0.0088   9.00    2.9
2020/09/20 02:00:10.000    455571.2618   3639411.0865   5200658.8006   2   7   0.0297   0.0489   0.0349  -0.0169   0.0330   0.0086  10.00    2.9
2020/09/20 02:00:12.000    455571.2670   3639411.0864   5200658.7989   2   7   0.0305   0.0505   0.0378  -0.0162   0.0344   0.0084  12.00    2.9
2020/09/20 02:00:14.000    455571.2699   3639411.0868   5200658.7965   2   7   0.0313   0.0523   0.0410  -0.0153   0.0360   0.0082  14.00    2.9
2020/09/20 02:00:16.000    455571.2726   3639411.0916   5200658.7993   2   7   0.0323   0.0544   0.0443  -0.0141   0.0377   0.0079  16.00    3.0
2020/09/20 02:00:19.000    455571.2756   3639411.0965   5200658.8000   2   7   0.0339   0.0579   0.0497  -0.0119   0.0407   0.0074  19.00    3.0
2020/09/20 02:00:22.000    455571.2771   3639411.0984   5200658.8061   2   7   0.0358   0.0618   0.0553  -0.0086   0.0438   0.0068  22.00    3.0
