% program   : rnx2rtkp ver.2.4.3 b33
% inp file  : /home/danisimo/post/R1_193.2020-111.2021/R00107618.21o
% inp file  : /home/danisimo/post/NSK1_193.2020-111.2021/NSK10760.21o
% inp file  : /home/danisimo/post/NSK1_193.2020-111.2021/NSK10760.21N
% obs start : 2021/03/17 01:45:58.5 GPST (week2149 265558.5s)
% obs end   : 2021/03/17 11:35:39.0 GPST (week2149 300939.0s)
% ref pos   :   447670.3040   3638117.3850   5202281.5640
%
% (x/y/z-ecef=WGS84,Q=1:fix,2:float,3:sbas,4:dgps,5:single,6:ppp,ns=# of satellites)
%  GPST                      x-ecef(m)      y-ecef(m)      z-ecef(m)   Q  ns   sdx(m)   sdy(m)   sdz(m)  sdxy(m)  sdyz(m)  sdzx(m) age(s)  ratio
2021/03/17 01:45:58.498    455571.5910   3639412.9127   5200659.8306   2   7   0.6767   1.4925   1.7630   0.5999   1.4626   0.5908  28.50    0.0
2021/03/17 01:45:58.998    455571.4653   3639412.5463   5200659.5218   2   7   0.4814   1.0706   1.2605   0.4290   1.0484   0.4226  29.00    0.0
2021/03/17 01:45:59.498    455571.4332   3639412.4144   5200659.3980   2   7   0.3944   0.8788   1.0337   0.3518   0.8604   0.3466  29.50    0.0
2021/03/17 01:45:59.998    455571.5187   3639412.2421   5200659.3023   2   7   0.3409   0.7622   0.8957   0.3048   0.7461   0.3004   0.00    0.0
2021/03/17 01:46:00.498    455571.5679   3639412.1519   5200659.2709   2   7   0.3049   0.6826   0.8018   0.2728   0.6682   0.2689   0.50    0.0
2021/03/17 01:46:00.998    455571.5921   3639412.0836   5200659.2308   2   7   0.2783   0.6237   0.7323   0.2491   0.6104   0.2456   1.00    0.0
2021/03/17 01:46:02.998    455571.5945   3639412.0411   5200659.1784   2   7   0.2576   0.5776   0.6780   0.2306   0.5652   0.2274   3.00    0.0
2021/03/17 01:46:04.998    455571.5973   3639412.0094   5200659.2116   2   7   0.2410   0.5402   0.6339   0.2157   0.5285   0.2127   5.00    0.0
2021/03/17 01:46:07.498    455571.6304   3639412.0187   5200659.2715   2   7   0.2273   0.5092   0.5973   0.2032   0.4979   0.2004   7.50    0.0
2021/03/17 01:46:09.498    455571.6606   3639412.0544   5200659.3792   2   7   0.2157   0.4829   0.5663   0.1928   0.4721   0.1901   9.50    0.0
2021/03/17 01:46:12.498    455572.0132   3639412.3078   5200660.3123   2   7   0.6751   1.4928   1.7633   0.5987   1.4634   0.5904  12.50    1.0
2021/03/17 01:46:14.998    455571.9109   3639412.3127   5200660.2956   2   7   0.4796   1.0703   1.2598   0.4277   1.0485   0.4220  15.00    1.4
2021/03/17 01:46:16.998    455571.8616   3639412.3276   5200660.2365   2   7   0.3925   0.8782   1.0325   0.3505   0.8600   0.3459  17.00    1.3
2021/03/17 01:46:18.498    455571.8795   3639412.3799   5200660.2671   2   7   0.3405   0.7625   0.8961   0.3042   0.7467   0.3002  18.50    1.2
2021/03/17 01:46:24.000    455571.9120   3639412.3555   5200660.2070   2   7   0.3053   0.6834   0.8033   0.2726   0.6693   0.2692  24.00    1.1
2021/03/17 01:46:33.000    455571.7522   3639412.0957   5200659.9157   2   7   0.2772   0.6163   0.7199   0.2455   0.6000   0.2418   3.00    1.3
2021/03/17 01:46:37.000    455571.6601   3639411.9859   5200659.8157   2   7   0.2566   0.5699   0.6653   0.2271   0.5544   0.2236   7.00    1.2
2021/03/17 01:46:41.000    455571.5840   3639411.9016   5200659.8042   2   7   0.2403   0.5332   0.6224   0.2124   0.5186   0.2092  11.00    1.1
2021/03/17 01:46:45.000    455571.5286   3639411.8272   5200659.6904   2   7   0.2270   0.5031   0.5873   0.2004   0.4893   0.1975  15.00    1.0
2021/03/17 01:46:46.000    455571.4612   3639411.7499   5200659.5915   2   7   0.2155   0.4775   0.5575   0.1903   0.4644   0.1874  16.00    1.1
2021/03/17 01:46:49.000    455571.4193   3639411.6574   5200659.5215   2   7   0.2061   0.4558   0.5324   0.1817   0.4434   0.1789  19.00    1.1
2021/03/17 01:46:51.000    455571.4058   3639411.5917   5200659.4611   2   7   0.1978   0.4369   0.5105   0.1742   0.4250   0.1715  21.00    1.3
2021/03/17 01:46:55.000    455571.3894   3639411.5819   5200659.4304   2   7   0.1910   0.4206   0.4920   0.1679   0.4093   0.1653  25.00    1.4
2021/03/17 01:46:57.000    455571.3842   3639411.5502   5200659.3613   2   7   0.1848   0.4059   0.4751   0.1621   0.3950   0.1596  27.00    1.7
2021/03/17 01:47:00.000    455571.3963   3639411.5083   5200659.2998   2   7   0.1746   0.3798   0.4369   0.1509   0.3642   0.1473   0.00    2.2
2021/03/17 01:47:07.000    455571.4100   3639411.5160   5200659.3424   2   7   0.1691   0.3653   0.4190   0.1454   0.3491   0.1417   7.00    2.1
2021/03/17 01:47:09.000    455571.4248   3639411.5421   5200659.4261   2   7   0.1642   0.3532   0.4046   0.1407   0.3369   0.1369   9.00    1.7
2021/03/17 01:47:12.000    455571.4434   3639411.5694   5200659.4883   2   7   0.1599   0.3430   0.3929   0.1368   0.3270   0.1330  12.00    1.5
2021/03/17 01:47:21.000    455571.4687   3639411.5552   5200659.4481   2   7   0.1573   0.3353   0.3853   0.1341   0.3201   0.1305  21.00    1.6
2021/03/17 01:47:22.000    455571.4895   3639411.5534   5200659.4390   2   7   0.1538   0.3272   0.3762   0.1309   0.3124   0.1273  22.00    1.7
2021/03/17 01:47:24.000    455571.4979   3639411.5515   5200659.4281   2   7   0.1508   0.3200   0.3684   0.1281   0.3057   0.1246  24.00    1.7
2021/03/17 01:47:25.000    455571.5097   3639411.5514   5200659.4403   2   7   0.1478   0.3131   0.3608   0.1255   0.2992   0.1220  25.00    1.7
2021/03/17 01:47:27.000    455571.5183   3639411.5630   5200659.4716   2   7   0.1454   0.3071   0.3544   0.1232   0.2936   0.1198  27.00    1.6
2021/03/17 01:47:30.000    455571.3186   3639410.9663   5200658.8097   1   8   0.0068   0.0128   0.0160   0.0061   0.0125   0.0060   0.00    4.9
2021/03/17 01:47:33.000    455571.3213   3639410.9673   5200658.8094   1   8   0.0081   0.0138   0.0176   0.0070   0.0134   0.0068   3.00    6.0
2021/03/17 01:47:36.000    455571.3261   3639410.9715   5200658.8114   1   8   0.0109   0.0161   0.0216   0.0090   0.0157   0.0085   6.00    6.4
2021/03/17 01:47:39.000    455571.3295   3639410.9778   5200658.8152   1   8   0.0144   0.0192   0.0269   0.0116   0.0189   0.0108   9.00    6.7
2021/03/17 01:47:41.000    455571.3338   3639410.9783   5200658.8165   1   8   0.0169   0.0216   0.0309   0.0135   0.0214   0.0125  11.00    6.2
2021/03/17 01:47:42.000    455571.3350   3639410.9792   5200658.8157   1   8   0.0181   0.0228   0.0330   0.0145   0.0227   0.0134  12.00    5.6
2021/03/17 01:47:45.000    455571.3398   3639410.9829   5200658.8217   1   8   0.0220   0.0268   0.0394   0.0174   0.0268   0.0161  15.00    4.8
2021/03/17 01:47:48.000    455571.3415   3639410.9845   5200658.8210   1   8   0.0259   0.0309   0.0460   0.0205   0.0311   0.0189  18.00    4.4
2021/03/17 01:47:50.000    455571.3437   3639410.9848   5200658.8193   1   8   0.0286   0.0337   0.0505   0.0226   0.0340   0.0208  20.00    4.1
2021/03/17 01:47:52.000    455571.3453   3639410.9830   5200658.8179   1   8   0.0312   0.0366   0.0551   0.0246   0.0369   0.0227  22.00    3.9
2021/03/17 01:47:55.000    455571.3481   3639410.9871   5200658.8153   1   8   0.0353   0.0410   0.0620   0.0278   0.0415   0.0256  25.00    3.7
2021/03/17 01:47:57.000    455571.3503   3639410.9866   5200658.8134   1   8   0.0379   0.0439   0.0666   0.0299   0.0445   0.0276  27.00    3.3
2021/03/17 01:48:01.000    455571.3189   3639410.9660   5200658.8088   1   8   0.0070   0.0129   0.0162   0.0062   0.0126   0.0061   1.00    3.3
2021/03/17 01:48:03.000    455571.3204   3639410.9675   5200658.8117   1   8   0.0080   0.0138   0.0176   0.0070   0.0134   0.0068   3.00    3.2
2021/03/17 01:48:05.000    455571.3229   3639410.9660   5200658.8075   1   8   0.0098   0.0152   0.0201   0.0083   0.0148   0.0079   5.00    3.2
2021/03/17 01:48:08.000    455571.3255   3639410.9712   5200658.8105   1   8   0.0131   0.0181   0.0251   0.0107   0.0179   0.0101   8.00    3.0
2021/03/17 01:48:10.000    455571.5862   3639411.1265   5200658.8590   2   8   0.1056   0.1906   0.2074   0.0835   0.1665   0.0769  10.00    2.9
2021/03/17 01:48:14.000    455571.5982   3639411.1343   5200658.8533   2   8   0.1052   0.1886   0.2062   0.0832   0.1650   0.0767  14.00    2.7
2021/03/17 01:48:16.000    455571.6032   3639411.1443   5200658.8537   2   8   0.1045   0.1865   0.2046   0.0828   0.1634   0.0763  16.00    2.7
2021/03/17 01:48:18.000    455571.6055   3639411.1536   5200658.8620   2   8   0.1039   0.1846   0.2034   0.0824   0.1620   0.0760  18.00    2.7
2021/03/17 01:48:21.000    455571.6129   3639411.1619   5200658.8751   2   8   0.1038   0.1832   0.2031   0.0825   0.1612   0.0761  21.00    2.6
2021/03/17 01:48:23.000    455571.6115   3639411.1659   5200658.8801   2   8   0.1035   0.1817   0.2025   0.0823   0.1603   0.0761  23.00    2.7
2021/03/17 01:48:27.000    455571.6107   3639411.1691   5200658.8829   2   8   0.1043   0.1811   0.2036   0.0830   0.1604   0.0769  27.00    2.7
2021/03/17 01:48:29.000    455571.6057   3639411.1707   5200658.8867   2   8   0.1043   0.1800   0.2036   0.0831   0.1598   0.0771  29.00    2.7
2021/03/17 01:48:31.000    455571.5724   3639411.1539   5200658.8947   2   8   0.0951   0.1680   0.1796   0.0742   0.1436   0.0675   1.00    2.9
2021/03/17 01:48:34.000    455571.5682   3639411.1469   5200658.8886   2   8   0.0941   0.1641   0.1735   0.0728   0.1384   0.0657   4.00    2.9
2021/03/17 01:48:36.000    455571.5513   3639411.1293   5200658.8641   2   8   0.0932   0.1613   0.1696   0.0718   0.1351   0.0645   6.00    2.9
2021/03/17 01:48:40.000    455571.5388   3639411.1284   5200658.8443   2   8   0.0929   0.1596   0.1683   0.0716   0.1337   0.0643  10.00    3.0
2021/03/17 01:48:42.000    455571.3079   3639410.9655   5200658.8105   1   8   0.0181   0.0229   0.0333   0.0145   0.0229   0.0136  12.00    3.1
2021/03/17 01:48:44.000    455571.3074   3639410.9646   5200658.8153   1   8   0.0206   0.0256   0.0376   0.0165   0.0257   0.0154  14.00    3.2
2021/03/17 01:48:47.000    455571.3072   3639410.9649   5200658.8153   1   8   0.0245   0.0297   0.0442   0.0196   0.0300   0.0183  17.00    3.3
2021/03/17 01:48:49.000    455571.3045   3639410.9603   5200658.8116   1   8   0.0272   0.0325   0.0488   0.0216   0.0329   0.0202  19.00    3.4
2021/03/17 01:48:55.000    455571.3078   3639410.9684   5200658.8191   1   8   0.0352   0.0412   0.0627   0.0279   0.0420   0.0261  25.00    3.5
2021/03/17 01:48:57.000    455571.3070   3639410.9620   5200658.8151   1   8   0.0379   0.0442   0.0674   0.0300   0.0451   0.0281  27.00    3.6
2021/03/17 01:49:00.000    455571.3178   3639410.9711   5200658.8174   1   8   0.0067   0.0128   0.0160   0.0061   0.0125   0.0061   0.00    3.8
2021/03/17 01:49:02.000    455571.3195   3639410.9714   5200658.8198   1   8   0.0073   0.0132   0.0168   0.0064   0.0129   0.0064   2.00    4.0
2021/03/17 01:49:04.000    455571.3214   3639410.9751   5200658.8196   1   8   0.0088   0.0144   0.0188   0.0075   0.0141   0.0074   4.00    4.1
2021/03/17 01:49:06.000    455571.3235   3639410.9749   5200658.8208   1   8   0.0108   0.0161   0.0218   0.0090   0.0159   0.0087   6.00    4.1
2021/03/17 01:49:08.000    455571.3256   3639410.9769   5200658.8197   1   8   0.0131   0.0182   0.0253   0.0107   0.0180   0.0102   8.00    4.1
2021/03/17 01:49:11.000    455571.3257   3639410.9753   5200658.8168   1   8   0.0168   0.0217   0.0313   0.0136   0.0217   0.0128  11.00    4.1
2021/03/17 01:49:13.000    455571.3261   3639410.9757   5200658.8219   1   8   0.0193   0.0243   0.0356   0.0155   0.0244   0.0146  13.00    4.0
2021/03/17 01:49:17.000    455571.3295   3639410.9801   5200658.8240   1   8   0.0245   0.0297   0.0445   0.0196   0.0301   0.0184  17.00    4.0
2021/03/17 01:49:19.000    455571.3307   3639410.9829   5200658.8292   1   8   0.0271   0.0326   0.0490   0.0217   0.0331   0.0204  19.00    4.0
2021/03/17 01:49:21.000    455571.3319   3639410.9812   5200658.8322   1   8   0.0298   0.0355   0.0537   0.0237   0.0361   0.0223  21.00    3.9
2021/03/17 01:49:24.000    455571.3349   3639410.9858   5200658.8370   1   8   0.0338   0.0399   0.0607   0.0269   0.0407   0.0253  24.00    3.9
2021/03/17 01:49:26.000    455571.3350   3639410.9847   5200658.8390   1   8   0.0365   0.0428   0.0654   0.0290   0.0438   0.0273  26.00    3.9
2021/03/17 01:49:30.000    455571.3177   3639410.9670   5200658.8126   1   8   0.0067   0.0127   0.0160   0.0061   0.0125   0.0060   0.00    4.0
2021/03/17 01:49:32.000    455571.3161   3639410.9630   5200658.8101   1   8   0.0072   0.0132   0.0168   0.0064   0.0129   0.0064   2.00    4.1
2021/03/17 01:49:34.000    455571.3159   3639410.9651   5200658.8144   1   8   0.0088   0.0144   0.0189   0.0076   0.0141   0.0074   4.00    4.2
2021/03/17 01:49:37.000    455571.3130   3639410.9624   5200658.8144   1   8   0.0119   0.0171   0.0236   0.0099   0.0169   0.0095   7.00    4.3
2021/03/17 01:49:39.000    455571.3109   3639410.9634   5200658.8180   1   8   0.0143   0.0193   0.0273   0.0117   0.0193   0.0111   9.00    4.4
2021/03/17 01:49:47.000    455571.3101   3639410.9619   5200658.8146   1   8   0.0245   0.0298   0.0447   0.0196   0.0303   0.0186  17.00    4.5
2021/03/17 01:49:50.000    455571.3113   3639410.9612   5200658.8167   1   8   0.0284   0.0341   0.0516   0.0227   0.0348   0.0215  20.00    4.6
2021/03/17 01:49:52.000    455571.3129   3639410.9635   5200658.8182   1   8   0.0311   0.0370   0.0563   0.0248   0.0379   0.0235  22.00    4.6
2021/03/17 01:49:54.000    455571.3128   3639410.9643   5200658.8184   1   8   0.0338   0.0400   0.0610   0.0269   0.0410   0.0255  24.00    4.7
2021/03/17 01:49:57.000    455571.3107   3639410.9624   5200658.8096   1   8   0.0378   0.0445   0.0682   0.0301   0.0456   0.0285  27.00    4.8
2021/03/17 01:50:02.000    455571.3173   3639410.9666   5200658.8148   1   8   0.0073   0.0132   0.0168   0.0064   0.0129   0.0064   2.00    4.9
2021/03/17 01:50:09.000    455571.3182   3639410.9707   5200658.8156   1   8   0.0143   0.0194   0.0274   0.0117   0.0193   0.0112   9.00    4.9
2021/03/17 01:50:12.000    455571.3215   3639410.9717   5200658.8217   1   8   0.0180   0.0231   0.0337   0.0146   0.0233   0.0139  12.00    4.8
2021/03/17 01:50:13.000    455571.3207   3639410.9731   5200658.8229   1   8   0.0193   0.0244   0.0359   0.0156   0.0247   0.0148  13.00    4.7
2021/03/17 01:50:14.000    455571.3209   3639410.9731   5200658.8239   1   8   0.0205   0.0257   0.0381   0.0166   0.0261   0.0158  14.00    4.6
2021/03/17 01:50:15.000    455571.3208   3639410.9737   5200658.8251   1   8   0.0218   0.0271   0.0404   0.0176   0.0275   0.0168  15.00    4.5
2021/03/17 01:50:17.000    455571.3207   3639410.9759   5200658.8273   1   8   0.0245   0.0299   0.0449   0.0197   0.0305   0.0187  17.00    4.5
2021/03/17 01:50:20.000    455571.3213   3639410.9754   5200658.8234   1   8   0.0284   0.0342   0.0519   0.0228   0.0350   0.0217  20.00    4.4
2021/03/17 01:50:23.000    455571.3196   3639410.9729   5200658.8166   1   8   0.0324   0.0386   0.0590   0.0259   0.0396   0.0247  23.00    4.3
2021/03/17 01:50:25.000    455571.3216   3639410.9742   5200658.8159   1   8   0.0351   0.0416   0.0638   0.0281   0.0428   0.0267  25.00    4.2
2021/03/17 01:50:28.000    455571.3246   3639410.9790   5200658.8171   1   8   0.0391   0.0461   0.0710   0.0312   0.0475   0.0298  28.00    4.2
2021/03/17 01:50:30.000    455571.3143   3639410.9567   5200658.8017   1   8   0.0068   0.0127   0.0160   0.0060   0.0125   0.0061   0.00    4.3
2021/03/17 01:50:33.000    455571.3178   3639410.9586   5200658.7988   1   8   0.0080   0.0137   0.0177   0.0070   0.0135   0.0069   3.00    4.3
2021/03/17 01:50:36.000    455571.3213   3639410.9585   5200658.7956   1   8   0.0108   0.0161   0.0219   0.0090   0.0160   0.0088   6.00    4.4
2021/03/17 01:50:38.000    455571.3227   3639410.9594   5200658.7945   1   8   0.0130   0.0182   0.0256   0.0108   0.0182   0.0104   8.00    4.4
2021/03/17 01:50:41.000    455571.3259   3639410.9642   5200658.7937   1   8   0.0167   0.0218   0.0317   0.0136   0.0220   0.0131  11.00    4.4
2021/03/17 01:50:43.000    455571.3284   3639410.9608   5200658.7878   1   8   0.0192   0.0245   0.0361   0.0156   0.0248   0.0150  13.00    4.3
2021/03/17 01:50:46.000    455571.3313   3639410.9585   5200658.7845   1   8   0.0231   0.0286   0.0428   0.0187   0.0292   0.0179  16.00    4.4
2021/03/17 01:50:49.000    455571.3344   3639410.9621   5200658.7888   1   8   0.0271   0.0329   0.0498   0.0218   0.0337   0.0209  19.00    4.4
2021/03/17 01:50:51.000    455571.3338   3639410.9581   5200658.7844   1   8   0.0297   0.0358   0.0545   0.0239   0.0368   0.0229  21.00    4.5
2021/03/17 01:50:56.000    455571.3386   3639410.9574   5200658.7789   1   8   0.0364   0.0432   0.0665   0.0292   0.0446   0.0280  26.00    4.6
2021/03/17 01:50:59.000    455571.3410   3639410.9598   5200658.7819   1   8   0.0404   0.0478   0.0738   0.0324   0.0494   0.0311  29.00    4.6
2021/03/17 01:51:02.000    455571.3153   3639410.9578   5200658.8021   1   8   0.0073   0.0132   0.0168   0.0064   0.0129   0.0064   2.00    4.9
2021/03/17 01:51:04.000    455571.3174   3639410.9574   5200658.7983   1   8   0.0088   0.0144   0.0189   0.0075   0.0142   0.0075   4.00    5.1
2021/03/17 01:51:05.000    455571.3174   3639410.9584   5200658.7988   1   8   0.0097   0.0152   0.0204   0.0082   0.0150   0.0081   5.00    5.2
2021/03/17 01:51:07.000    455571.3191   3639410.9623   5200658.7978   1   8   0.0119   0.0172   0.0238   0.0099   0.0171   0.0097   7.00    5.3
2021/03/17 01:51:10.000    455571.3207   3639410.9595   5200658.7906   1   8   0.0155   0.0206   0.0297   0.0127   0.0208   0.0123  10.00    5.4
2021/03/17 01:51:13.000    455571.3252   3639410.9668   5200658.7955   1   8   0.0192   0.0245   0.0362   0.0156   0.0249   0.0151  13.00    5.4
2021/03/17 01:51:15.000    455571.3244   3639410.9622   5200658.7900   1   8   0.0218   0.0272   0.0407   0.0177   0.0278   0.0170  15.00    5.5
2021/03/17 01:51:18.000    455571.3260   3639410.9601   5200658.7857   1   8   0.0257   0.0315   0.0477   0.0208   0.0323   0.0200  18.00    5.5
2021/03/17 01:51:20.000    455571.3277   3639410.9642   5200658.7848   1   8   0.0283   0.0344   0.0524   0.0229   0.0354   0.0220  20.00    5.5
2021/03/17 01:51:23.000    455571.3289   3639410.9673   5200658.7826   1   8   0.0323   0.0388   0.0596   0.0260   0.0401   0.0251  23.00    5.4
2021/03/17 01:51:26.000    455571.3318   3639410.9678   5200658.7801   1   8   0.0363   0.0434   0.0669   0.0292   0.0449   0.0282  26.00    5.4
2021/03/17 01:51:28.000    455571.3326   3639410.9679   5200658.7737   1   8   0.0390   0.0464   0.0717   0.0314   0.0481   0.0303  28.00    5.4
2021/03/17 01:51:31.000    455571.3170   3639410.9575   5200658.8025   1   8   0.0068   0.0128   0.0162   0.0061   0.0126   0.0062   1.00    5.7
2021/03/17 01:51:33.000    455571.3199   3639410.9617   5200658.8055   1   8   0.0080   0.0137   0.0178   0.0069   0.0135   0.0069   3.00    5.9
2021/03/17 01:51:36.000    455571.3224   3639410.9608   5200658.8009   1   8   0.0108   0.0162   0.0221   0.0091   0.0161   0.0089   6.00    5.9
2021/03/17 01:51:41.000    455571.3305   3639410.9638   5200658.8111   1   8   0.0167   0.0219   0.0320   0.0137   0.0222   0.0133  11.00    5.9
2021/03/17 01:51:44.000    455571.3354   3639410.9699   5200658.8303   1   8   0.0205   0.0259   0.0386   0.0167   0.0265   0.0162  14.00    5.9
2021/03/17 01:51:46.000    455571.3389   3639410.9701   5200658.8350   1   8   0.0231   0.0287   0.0433   0.0187   0.0295   0.0181  16.00    5.9
2021/03/17 01:51:49.000    455571.3417   3639410.9713   5200658.8447   1   8   0.0270   0.0330   0.0503   0.0219   0.0341   0.0212  19.00    5.9
2021/03/17 01:51:50.000    455571.3425   3639410.9709   5200658.8498   1   8   0.0283   0.0345   0.0527   0.0229   0.0356   0.0222  20.00    5.8
2021/03/17 01:51:52.000    455571.3422   3639410.9696   5200658.8477   1   8   0.0310   0.0375   0.0575   0.0250   0.0388   0.0243  22.00    5.8
2021/03/17 01:51:57.000    455571.3459   3639410.9728   5200658.8559   1   8   0.0376   0.0450   0.0697   0.0303   0.0468   0.0295  27.00    5.7
2021/03/17 01:52:00.000    455571.3147   3639410.9598   5200658.8062   1   8   0.0067   0.0127   0.0160   0.0060   0.0125   0.0060   0.00    5.9
2021/03/17 01:52:03.000    455571.3171   3639410.9651   5200658.8135   1   8   0.0080   0.0137   0.0178   0.0069   0.0135   0.0069   3.00    6.2
2021/03/17 01:52:05.000    455571.3169   3639410.9637   5200658.8147   1   8   0.0097   0.0152   0.0205   0.0083   0.0151   0.0082   5.00    6.3
2021/03/17 01:52:08.000    455571.3175   3639410.9622   5200658.8185   1   8   0.0130   0.0183   0.0258   0.0108   0.0184   0.0106   8.00    6.4
2021/03/17 01:52:10.000    455571.3192   3639410.9620   5200658.8179   1   8   0.0154   0.0207   0.0299   0.0127   0.0210   0.0124  10.00    6.5
2021/03/17 01:52:13.000    455571.3195   3639410.9595   5200658.8163   1   8   0.0192   0.0246   0.0365   0.0157   0.0252   0.0153  13.00    6.4
2021/03/17 01:52:16.000    455571.3222   3639410.9606   5200658.8191   1   8   0.0230   0.0288   0.0435   0.0188   0.0296   0.0183  16.00    6.5
2021/03/17 01:52:18.000    455571.3241   3639410.9644   5200658.8220   1   8   0.0257   0.0317   0.0482   0.0208   0.0327   0.0203  18.00    6.4
2021/03/17 01:52:21.000    455571.3226   3639410.9601   5200658.8200   1   8   0.0296   0.0361   0.0554   0.0240   0.0374   0.0234  21.00    6.4
2021/03/17 01:52:23.000    455571.3242   3639410.9596   5200658.8225   1   8   0.0323   0.0391   0.0602   0.0261   0.0406   0.0255  23.00    6.4
2021/03/17 01:52:26.000    455571.3234   3639410.9596   5200658.8210   1   8   0.0362   0.0436   0.0676   0.0293   0.0454   0.0286  26.00    6.3
2021/03/17 01:52:29.000    455571.3239   3639410.9561   5200658.8249   1   8   0.0403   0.0482   0.0750   0.0326   0.0503   0.0318  29.00    6.3
2021/03/17 01:52:31.000    455571.3174   3639410.9537   5200658.8018   1   8   0.0070   0.0128   0.0162   0.0061   0.0126   0.0062   1.00    6.6
2021/03/17 01:52:34.000    455571.3196   3639410.9556   5200658.8037   1   8   0.0087   0.0144   0.0190   0.0075   0.0142   0.0075   4.00    6.7
2021/03/17 01:52:36.000    455571.3202   3639410.9574   5200658.8062   1   8   0.0107   0.0162   0.0222   0.0091   0.0161   0.0090   6.00    6.7
2021/03/17 01:52:39.000    455571.3206   3639410.9559   5200658.8046   1   8   0.0142   0.0195   0.0280   0.0118   0.0197   0.0116   9.00    6.8
2021/03/17 01:52:42.000    455571.3215   3639410.9560   5200658.8083   1   8   0.0179   0.0233   0.0344   0.0147   0.0238   0.0144  12.00    6.8
2021/03/17 01:52:44.000    455571.3216   3639410.9548   5200658.8085   1   8   0.0204   0.0261   0.0390   0.0167   0.0268   0.0164  14.00    6.8
2021/03/17 01:52:47.000    455571.3225   3639410.9541   5200658.8078   1   8   0.0243   0.0303   0.0460   0.0198   0.0313   0.0194  17.00    6.9
2021/03/17 01:52:49.000    455571.3211   3639410.9554   5200658.8110   1   8   0.0269   0.0332   0.0508   0.0219   0.0344   0.0215  19.00    6.9
2021/03/17 01:52:52.000    455571.3197   3639410.9550   5200658.8138   1   8   0.0309   0.0377   0.0581   0.0251   0.0392   0.0246  22.00    6.9
2021/03/17 01:52:55.000    455571.3179   3639410.9539   5200658.8133   1   8   0.0349   0.0422   0.0654   0.0283   0.0440   0.0278  25.00    6.9
2021/03/17 01:52:57.000    455571.3166   3639410.9531   5200658.8156   1   8   0.0375   0.0453   0.0704   0.0305   0.0473   0.0299  27.00    7.0
2021/03/17 01:53:00.000    455571.3140   3639410.9526   5200658.7989   1   8   0.0066   0.0127   0.0160   0.0060   0.0125   0.0060   0.00    7.6
2021/03/17 01:53:02.000    455571.3140   3639410.9563   5200658.8017   1   8   0.0072   0.0131   0.0169   0.0064   0.0129   0.0065   2.00    8.0
2021/03/17 01:53:05.000    455571.3143   3639410.9523   5200658.7979   1   8   0.0096   0.0152   0.0205   0.0082   0.0151   0.0083   5.00    8.4
2021/03/17 01:53:08.000    455571.3145   3639410.9527   5200658.7981   1   8   0.0130   0.0184   0.0260   0.0108   0.0185   0.0107   8.00    8.6
2021/03/17 01:53:10.000    455571.3144   3639410.9529   5200658.7960   1   8   0.0154   0.0208   0.0302   0.0127   0.0211   0.0126  10.00    8.8
2021/03/17 01:53:13.000    455571.3147   3639410.9514   5200658.7933   1   8   0.0191   0.0247   0.0369   0.0157   0.0254   0.0155  13.00    9.0
2021/03/17 01:53:15.000    455571.3139   3639410.9510   5200658.7914   1   8   0.0217   0.0275   0.0415   0.0178   0.0284   0.0175  15.00    9.1
2021/03/17 01:53:18.000    455571.3135   3639410.9512   5200658.7880   1   8   0.0256   0.0318   0.0486   0.0209   0.0330   0.0206  18.00    9.1
2021/03/17 01:53:21.000    455571.3102   3639410.9483   5200658.7822   1   8   0.0295   0.0363   0.0559   0.0241   0.0378   0.0237  21.00    9.1
2021/03/17 01:53:23.000    455571.3104   3639410.9526   5200658.7847   1   8   0.0322   0.0393   0.0608   0.0262   0.0410   0.0259  23.00    9.2
2021/03/17 01:53:26.000    455571.3124   3639410.9538   5200658.7813   1   8   0.0362   0.0439   0.0683   0.0294   0.0459   0.0290  26.00    9.3
2021/03/17 01:53:28.000    455571.3126   3639410.9538   5200658.7752   1   8   0.0388   0.0470   0.0732   0.0316   0.0492   0.0312  28.00    9.3
2021/03/17 01:53:31.000    455571.3140   3639410.9508   5200658.7928   1   8   0.0069   0.0128   0.0163   0.0061   0.0126   0.0062   1.00    9.5
2021/03/17 01:53:34.000    455571.3141   3639410.9499   5200658.7904   1   8   0.0087   0.0144   0.0191   0.0075   0.0143   0.0076   4.00    9.7
2021/03/17 01:53:36.000    455571.3122   3639410.9477   5200658.7891   1   8   0.0107   0.0162   0.0223   0.0091   0.0162   0.0091   6.00    9.8
2021/03/17 01:53:39.000    455571.3109   3639410.9507   5200658.7992   1   8   0.0141   0.0196   0.0281   0.0118   0.0199   0.0117   9.00    9.8
2021/03/17 01:53:41.000    455571.3111   3639410.9488   5200658.8025   1   8   0.0166   0.0221   0.0325   0.0137   0.0226   0.0136  11.00    9.8
2021/03/17 01:53:44.000    455571.3115   3639410.9539   5200658.8121   1   8   0.0204   0.0262   0.0393   0.0168   0.0270   0.0166  14.00    9.9
2021/03/17 01:53:47.000    455571.3106   3639410.9503   5200658.8133   1   8   0.0243   0.0305   0.0465   0.0199   0.0316   0.0197  17.00    9.9
2021/03/17 01:53:49.000    455571.3120   3639410.9543   5200658.8188   1   8   0.0269   0.0334   0.0513   0.0220   0.0348   0.0218  19.00   10.0
2021/03/17 01:53:52.000    455571.3167   3639410.9568   5200658.8278   1   8   0.0308   0.0379   0.0587   0.0252   0.0396   0.0250  22.00   10.0
2021/03/17 01:53:54.000    455571.3177   3639410.9545   5200658.8250   1   8   0.0335   0.0409   0.0636   0.0273   0.0429   0.0271  24.00   10.1
2021/03/17 01:53:57.000    455571.3208   3639410.9590   5200658.8286   1   8   0.0375   0.0455   0.0711   0.0306   0.0478   0.0303  27.00   10.0
2021/03/17 01:54:00.000    455571.3114   3639410.9519   5200658.7948   1   8   0.0067   0.0126   0.0160   0.0060   0.0124   0.0060   0.00   10.3
2021/03/17 01:54:02.000    455571.3128   3639410.9522   5200658.7940   1   8   0.0071   0.0131   0.0169   0.0064   0.0129   0.0065   2.00   10.5
2021/03/17 01:54:05.000    455571.3126   3639410.9510   5200658.7950   1   8   0.0096   0.0152   0.0206   0.0083   0.0152   0.0083   5.00   10.5
2021/03/17 01:54:07.000    455571.3146   3639410.9512   5200658.7962   1   8   0.0118   0.0173   0.0242   0.0100   0.0174   0.0099   7.00   10.6
2021/03/17 01:54:10.000    455571.3162   3639410.9554   5200658.8032   1   8   0.0153   0.0209   0.0304   0.0128   0.0213   0.0127  10.00   10.6
2021/03/17 01:54:18.000    455571.3187   3639410.9559   5200658.8023   1   8   0.0255   0.0320   0.0491   0.0210   0.0334   0.0209  18.00   10.5
2021/03/17 01:54:20.000    455571.3163   3639410.9579   5200658.8070   1   8   0.0282   0.0350   0.0540   0.0231   0.0366   0.0230  20.00   10.5
2021/03/17 01:54:23.000    455571.3130   3639410.9534   5200658.8114   1   8   0.0321   0.0395   0.0614   0.0263   0.0415   0.0262  23.00   10.4
2021/03/17 01:54:26.000    455571.3095   3639410.9517   5200658.8190   1   8   0.0361   0.0441   0.0689   0.0295   0.0464   0.0295  26.00   10.4
2021/03/17 01:54:28.000    455571.3105   3639410.9562   5200658.8275   1   8   0.0388   0.0472   0.0739   0.0317   0.0497   0.0316  28.00   10.4
2021/03/17 01:54:31.000    455571.3114   3639410.9497   5200658.7970   1   8   0.0069   0.0127   0.0162   0.0062   0.0126   0.0061   1.00   10.7
2021/03/17 01:54:33.000    455571.3110   3639410.9516   5200658.8025   1   8   0.0078   0.0136   0.0178   0.0069   0.0135   0.0070   3.00   11.0
2021/03/17 01:54:36.000    455571.3096   3639410.9531   5200658.8087   1   8   0.0106   0.0162   0.0224   0.0091   0.0163   0.0092   6.00   11.1
2021/03/17 01:54:39.000    455571.3108   3639410.9508   5200658.8168   1   8   0.0141   0.0196   0.0283   0.0118   0.0200   0.0118   9.00   11.4
2021/03/17 01:54:41.000    455571.3108   3639410.9544   5200658.8241   1   8   0.0165   0.0222   0.0327   0.0138   0.0228   0.0138  11.00   11.6
2021/03/17 01:54:44.000    455571.3112   3639410.9560   5200658.8289   1   8   0.0203   0.0263   0.0397   0.0168   0.0273   0.0168  14.00   11.9
2021/03/17 01:54:46.000    455571.3139   3639410.9538   5200658.8275   1   8   0.0229   0.0292   0.0444   0.0189   0.0304   0.0189  16.00   12.1
2021/03/17 01:54:49.000    455571.3114   3639410.9543   5200658.8287   1   8   0.0268   0.0336   0.0518   0.0221   0.0352   0.0221  19.00   12.2
2021/03/17 01:54:54.000    455571.3136   3639410.9575   5200658.8338   1   8   0.0334   0.0412   0.0642   0.0274   0.0433   0.0275  24.00   12.4
2021/03/17 01:54:57.000    455571.3148   3639410.9583   5200658.8312   1   8   0.0374   0.0458   0.0718   0.0307   0.0483   0.0307  27.00   12.7
2021/03/17 01:54:59.000    455571.3145   3639410.9568   5200658.8314   1   8   0.0401   0.0489   0.0768   0.0328   0.0517   0.0329  29.00   12.9
2021/03/17 01:55:02.000    455571.3110   3639410.9483   5200658.7931   1   8   0.0071   0.0131   0.0169   0.0064   0.0129   0.0065   2.00   13.4
2021/03/17 01:55:03.000    455571.3119   3639410.9492   5200658.7940   1   8   0.0079   0.0136   0.0179   0.0069   0.0135   0.0070   3.00   13.9
2021/03/17 01:55:05.000    455571.3095   3639410.9485   5200658.7956   1   8   0.0096   0.0153   0.0207   0.0083   0.0152   0.0083   5.00   14.4
2021/03/17 01:55:08.000    455571.3079   3639410.9499   5200658.7939   1   8   0.0129   0.0185   0.0263   0.0109   0.0187   0.0110   8.00   14.9
2021/03/17 01:55:10.000    455571.3073   3639410.9471   5200658.7934   1   8   0.0153   0.0209   0.0306   0.0128   0.0215   0.0129  10.00   15.4
2021/03/17 01:55:13.000    455571.3072   3639410.9500   5200658.7913   1   8   0.0190   0.0250   0.0375   0.0158   0.0259   0.0159  13.00   15.7
2021/03/17 01:55:16.000    455571.3059   3639410.9464   5200658.7809   1   8   0.0229   0.0292   0.0446   0.0189   0.0305   0.0190  16.00   16.0
2021/03/17 01:55:18.000    455571.3058   3639410.9463   5200658.7786   1   8   0.0255   0.0322   0.0495   0.0211   0.0337   0.0212  18.00   16.2
2021/03/17 01:55:21.000    455571.3085   3639410.9500   5200658.7806   1   8   0.0294   0.0367   0.0570   0.0242   0.0386   0.0244  21.00   16.4
2021/03/17 01:55:23.000    455571.3086   3639410.9502   5200658.7768   1   8   0.0321   0.0397   0.0620   0.0264   0.0419   0.0266  23.00   16.6
2021/03/17 01:55:26.000    455571.3073   3639410.9463   5200658.7707   1   8   0.0360   0.0444   0.0695   0.0296   0.0469   0.0298  26.00   16.7
2021/03/17 01:55:29.000    455571.3081   3639410.9497   5200658.7665   1   8   0.0400   0.0491   0.0772   0.0329   0.0519   0.0331  29.00   16.7
2021/03/17 01:55:31.000    455571.3126   3639410.9495   5200658.7908   1   8   0.0068   0.0127   0.0162   0.0060   0.0126   0.0062   1.00   17.2
2021/03/17 01:55:34.000    455571.3150   3639410.9478   5200658.7849   1   8   0.0087   0.0144   0.0192   0.0075   0.0143   0.0077   4.00   17.5
2021/03/17 01:55:36.000    455571.3161   3639410.9474   5200658.7823   1   8   0.0106   0.0162   0.0225   0.0091   0.0164   0.0092   6.00   17.9
2021/03/17 01:55:39.000    455571.3188   3639410.9525   5200658.7808   1   8   0.0141   0.0197   0.0285   0.0119   0.0201   0.0120   9.00   18.2
2021/03/17 01:55:42.000    455571.3223   3639410.9527   5200658.7811   1   8   0.0178   0.0236   0.0353   0.0148   0.0245   0.0150  12.00   18.6
2021/03/17 01:55:44.000    455571.3224   3639410.9538   5200658.7792   1   8   0.0203   0.0264   0.0400   0.0169   0.0275   0.0170  14.00   18.8
2021/03/17 01:55:47.000    455571.3255   3639410.9580   5200658.7861   1   8   0.0242   0.0308   0.0473   0.0200   0.0323   0.0202  17.00   19.0
2021/03/17 01:55:49.000    455571.3256   3639410.9582   5200658.7885   1   8   0.0268   0.0338   0.0522   0.0221   0.0355   0.0224  19.00   19.3
2021/03/17 01:55:52.000    455571.3259   3639410.9578   5200658.7870   1   8   0.0307   0.0383   0.0597   0.0254   0.0404   0.0256  22.00   19.5
2021/03/17 01:55:55.000    455571.3244   3639410.9580   5200658.7884   1   8   0.0347   0.0429   0.0673   0.0286   0.0454   0.0289  25.00   19.7
2021/03/17 01:55:57.000    455571.3236   3639410.9562   5200658.7863   1   8   0.0373   0.0461   0.0724   0.0308   0.0488   0.0311  27.00   19.9
2021/03/17 01:56:00.000    455571.3123   3639410.9481   5200658.7923   1   8   0.0066   0.0125   0.0160   0.0060   0.0124   0.0061   0.00   20.4
2021/03/17 01:56:02.000    455571.3109   3639410.9462   5200658.7921   1   8   0.0072   0.0130   0.0169   0.0065   0.0130   0.0065   2.00   20.7
2021/03/17 01:56:05.000    455571.3108   3639410.9447   5200658.7938   1   8   0.0096   0.0153   0.0208   0.0083   0.0153   0.0084   5.00   20.8
2021/03/17 01:56:08.000    455571.3115   3639410.9467   5200658.7987   1   8   0.0129   0.0185   0.0265   0.0109   0.0189   0.0111   8.00   20.6
2021/03/17 01:56:10.000    455571.3096   3639410.9412   5200658.7961   1   8   0.0153   0.0210   0.0308   0.0128   0.0216   0.0130  10.00   20.4
2021/03/17 01:56:13.000    455571.3081   3639410.9377   5200658.7939   1   8   0.0190   0.0251   0.0377   0.0159   0.0261   0.0161  13.00   20.3
2021/03/17 01:56:15.000    455571.3088   3639410.9339   5200658.7907   1   8   0.0215   0.0279   0.0426   0.0179   0.0292   0.0182  15.00   20.1
2021/03/17 01:56:18.000    455571.3082   3639410.9348   5200658.7949   1   8   0.0254   0.0323   0.0499   0.0211   0.0340   0.0214  18.00   19.8
2021/03/17 01:56:21.000    455571.3076   3639410.9345   5200658.7975   1   8   0.0294   0.0369   0.0574   0.0243   0.0390   0.0247  21.00   19.6
2021/03/17 01:56:23.000    455571.3072   3639410.9325   5200658.7976   1   8   0.0320   0.0400   0.0625   0.0265   0.0423   0.0269  23.00   19.4
2021/03/17 01:56:26.000    455571.3108   3639410.9351   5200658.8033   1   8   0.0360   0.0446   0.0701   0.0297   0.0473   0.0302  26.00   19.3
2021/03/17 01:56:28.000    455571.3120   3639410.9339   5200658.8022   1   8   0.0386   0.0478   0.0753   0.0319   0.0507   0.0324  28.00   19.2
2021/03/17 01:56:31.000    455571.3126   3639410.9482   5200658.7925   1   8   0.0067   0.0127   0.0162   0.0060   0.0125   0.0062   1.00   19.7
2021/03/17 01:56:34.000    455571.3110   3639410.9455   5200658.7920   1   8   0.0086   0.0144   0.0192   0.0075   0.0143   0.0077   4.00   20.3
2021/03/17 01:56:36.000    455571.3119   3639410.9473   5200658.7945   1   8   0.0106   0.0163   0.0226   0.0091   0.0164   0.0093   6.00   20.6
2021/03/17 01:56:39.000    455571.3118   3639410.9462   5200658.7963   1   8   0.0140   0.0198   0.0287   0.0119   0.0203   0.0121   9.00   20.8
2021/03/17 01:56:41.000    455571.3114   3639410.9465   5200658.7989   1   8   0.0165   0.0224   0.0332   0.0139   0.0231   0.0141  11.00   21.0
2021/03/17 01:56:44.000    455571.3112   3639410.9446   5200658.7972   1   8   0.0202   0.0265   0.0403   0.0169   0.0277   0.0172  14.00   21.2
2021/03/17 01:56:47.000    455571.3114   3639410.9436   5200658.8014   1   8   0.0241   0.0309   0.0476   0.0201   0.0325   0.0205  17.00   21.3
2021/03/17 01:56:49.000    455571.3129   3639410.9459   5200658.8070   1   8   0.0267   0.0339   0.0526   0.0222   0.0358   0.0226  19.00   21.5
2021/03/17 01:56:52.000    455571.3151   3639410.9492   5200658.8126   1   8   0.0306   0.0385   0.0602   0.0254   0.0408   0.0259  22.00   21.6
2021/03/17 01:56:54.000    455571.3164   3639410.9462   5200658.8124   1   8   0.0333   0.0416   0.0653   0.0276   0.0442   0.0282  24.00   21.6
2021/03/17 01:56:57.000    455571.3179   3639410.9465   5200658.8129   1   8   0.0372   0.0463   0.0730   0.0309   0.0493   0.0315  27.00   21.7
2021/03/17 01:57:02.000    455571.3112   3639410.9448   5200658.7867   1   8   0.0070   0.0130   0.0169   0.0063   0.0129   0.0065   2.00   22.4
2021/03/17 01:57:04.000    455571.3110   3639410.9483   5200658.7922   1   8   0.0086   0.0144   0.0193   0.0076   0.0144   0.0077   4.00   22.6
2021/03/17 01:57:06.000    455571.3115   3639410.9454   5200658.7887   1   8   0.0106   0.0163   0.0226   0.0091   0.0164   0.0093   6.00   22.8
2021/03/17 01:57:09.000    455571.3131   3639410.9470   5200658.7893   1   8   0.0140   0.0198   0.0288   0.0119   0.0203   0.0121   9.00   23.0
2021/03/17 01:57:13.000    455571.3110   3639410.9474   5200658.7921   1   8   0.0190   0.0252   0.0380   0.0159   0.0263   0.0163  13.00   23.2
2021/03/17 01:57:16.000    455571.3104   3639410.9467   5200658.7903   1   8   0.0228   0.0295   0.0453   0.0191   0.0310   0.0195  16.00   23.6
2021/03/17 01:57:18.000    455571.3082   3639410.9470   5200658.7905   1   8   0.0254   0.0325   0.0503   0.0212   0.0343   0.0217  18.00   23.9
2021/03/17 01:57:21.000    455571.3099   3639410.9514   5200658.8005   1   8   0.0293   0.0371   0.0579   0.0244   0.0393   0.0250  21.00   24.4
2021/03/17 01:57:27.000    455571.3098   3639410.9534   5200658.8015   1   8   0.0372   0.0464   0.0733   0.0309   0.0495   0.0317  27.00   24.8
2021/03/17 01:57:29.000    455571.3085   3639410.9554   5200658.7983   1   8   0.0398   0.0496   0.0785   0.0331   0.0529   0.0340  29.00   25.2
2021/03/17 01:57:32.000    455571.3122   3639410.9483   5200658.7845   1   8   0.0072   0.0130   0.0169   0.0063   0.0129   0.0066   2.00   26.7
2021/03/17 01:57:34.000    455571.3142   3639410.9494   5200658.7817   1   8   0.0086   0.0144   0.0192   0.0075   0.0144   0.0077   4.00   28.9
2021/03/17 01:57:38.000    455571.3156   3639410.9505   5200658.7734   1   8   0.0128   0.0186   0.0267   0.0110   0.0190   0.0112   8.00   31.1
2021/03/17 01:57:41.000    455571.3154   3639410.9516   5200658.7685   1   8   0.0164   0.0224   0.0334   0.0139   0.0233   0.0142  11.00   32.9
2021/03/17 01:57:45.000    455571.3151   3639410.9518   5200658.7645   1   8   0.0215   0.0281   0.0430   0.0180   0.0296   0.0185  15.00   34.4
2021/03/17 01:57:46.000    455571.3177   3639410.9563   5200658.7701   1   8   0.0228   0.0296   0.0455   0.0191   0.0312   0.0196  16.00   35.7
2021/03/17 01:57:48.000    455571.3165   3639410.9514   5200658.7660   1   8   0.0253   0.0326   0.0505   0.0212   0.0345   0.0218  18.00   37.0
2021/03/17 01:57:51.000    455571.3189   3639410.9557   5200658.7678   1   8   0.0293   0.0372   0.0581   0.0244   0.0395   0.0251  21.00   38.0
2021/03/17 01:57:57.000    455571.3182   3639410.9542   5200658.7715   1   8   0.0372   0.0465   0.0736   0.0309   0.0497   0.0319  27.00   38.9
2021/03/17 01:57:59.000    455571.3169   3639410.9536   5200658.7711   1   8   0.0398   0.0497   0.0788   0.0331   0.0531   0.0341  29.00   39.6
2021/03/17 01:58:02.000    455571.3123   3639410.9513   5200658.7946   1   8   0.0071   0.0130   0.0169   0.0064   0.0129   0.0065   2.00   40.7
2021/03/17 01:58:04.000    455571.3124   3639410.9518   5200658.7959   1   8   0.0086   0.0144   0.0193   0.0075   0.0143   0.0077   4.00   41.3
2021/03/17 01:58:09.000    455571.3145   3639410.9506   5200658.7916   1   8   0.0140   0.0199   0.0289   0.0119   0.0204   0.0123   9.00   41.6
2021/03/17 01:58:12.000    455571.3154   3639410.9520   5200658.7927   1   8   0.0177   0.0239   0.0359   0.0149   0.0249   0.0154  12.00   41.9
2021/03/17 01:58:15.000    455571.3150   3639410.9503   5200658.7876   1   8   0.0214   0.0282   0.0432   0.0180   0.0297   0.0186  15.00   42.2
2021/03/17 01:58:16.000    455571.3165   3639410.9505   5200658.7885   1   8   0.0227   0.0296   0.0457   0.0191   0.0313   0.0197  16.00   42.5
2021/03/17 01:58:19.000    455571.3162   3639410.9526   5200658.7909   1   8   0.0266   0.0342   0.0532   0.0223   0.0363   0.0230  19.00   42.4
2021/03/17 01:58:21.000    455571.3185   3639410.9533   5200658.7919   1   8   0.0292   0.0372   0.0583   0.0245   0.0396   0.0253  21.00   42.0
2021/03/17 01:58:25.000    455571.3202   3639410.9550   5200658.7934   1   8   0.0345   0.0435   0.0686   0.0288   0.0465   0.0298  25.00   41.9
2021/03/17 01:58:27.000    455571.3196   3639410.9571   5200658.7947   1   8   0.0371   0.0467   0.0738   0.0310   0.0499   0.0320  27.00   41.8
2021/03/17 01:58:30.000    455571.3148   3639410.9500   5200658.7909   1   8   0.0067   0.0125   0.0159   0.0060   0.0124   0.0061   0.00   42.3
2021/03/17 01:58:36.000    455571.3191   3639410.9519   5200658.7932   1   8   0.0106   0.0163   0.0227   0.0091   0.0165   0.0094   6.00   43.5
2021/03/17 01:58:38.000    455571.3200   3639410.9543   5200658.7951   1   8   0.0128   0.0186   0.0268   0.0109   0.0191   0.0113   8.00   44.3
2021/03/17 01:58:41.000    455571.3225   3639410.9544   5200658.7980   1   8   0.0164   0.0225   0.0336   0.0139   0.0235   0.0144  11.00   44.9
2021/03/17 01:58:42.000    455571.3239   3639410.9541   5200658.7996   1   8   0.0176   0.0239   0.0360   0.0149   0.0250   0.0154  12.00   45.6
2021/03/17 01:58:43.000    455571.3241   3639410.9558   5200658.7997   1   8   0.0189   0.0253   0.0384   0.0160   0.0266   0.0165  13.00   46.0
2021/03/17 01:58:45.000    455571.3266   3639410.9582   5200658.8053   1   8   0.0214   0.0282   0.0433   0.0181   0.0298   0.0187  15.00   46.4
2021/03/17 01:58:47.000    455571.3270   3639410.9598   5200658.8070   1   8   0.0240   0.0312   0.0483   0.0202   0.0331   0.0209  17.00   46.3
2021/03/17 01:58:53.000    455571.3320   3639410.9571   5200658.8086   1   8   0.0318   0.0404   0.0637   0.0267   0.0432   0.0276  23.00   46.3
2021/03/17 01:58:55.000    455571.3346   3639410.9578   5200658.8133   1   8   0.0344   0.0436   0.0689   0.0288   0.0466   0.0299  25.00   46.6
2021/03/17 01:58:57.000    455571.3365   3639410.9588   5200658.8157   1   8   0.0371   0.0468   0.0741   0.0310   0.0501   0.0322  27.00   46.8
2021/03/17 01:58:59.000    455571.3389   3639410.9633   5200658.8224   1   8   0.0397   0.0499   0.0793   0.0332   0.0536   0.0345  29.00   46.8
2021/03/17 01:59:01.000    455571.3158   3639410.9497   5200658.7932   1   8   0.0067   0.0126   0.0162   0.0059   0.0124   0.0061   1.00   48.1
2021/03/17 01:59:03.000    455571.3182   3639410.9515   5200658.7959   1   8   0.0078   0.0136   0.0179   0.0069   0.0135   0.0070   3.00   50.2
2021/03/17 01:59:06.000    455571.3198   3639410.9545   5200658.7960   1   8   0.0105   0.0163   0.0228   0.0091   0.0166   0.0094   6.00   51.3
2021/03/17 01:59:08.000    455571.3211   3639410.9550   5200658.7959   1   8   0.0128   0.0186   0.0269   0.0110   0.0192   0.0113   8.00   52.2
2021/03/17 01:59:10.000    455571.3204   3639410.9551   5200658.7997   1   8   0.0152   0.0212   0.0314   0.0129   0.0220   0.0134  10.00   52.8
2021/03/17 01:59:13.000    455571.3202   3639410.9545   5200658.8019   1   8   0.0189   0.0254   0.0385   0.0160   0.0267   0.0166  13.00   53.3
2021/03/17 01:59:15.000    455571.3213   3639410.9573   5200658.8094   1   8   0.0214   0.0283   0.0434   0.0181   0.0299   0.0188  15.00   53.9
2021/03/17 01:59:18.000    455571.3212   3639410.9564   5200658.8068   1   8   0.0253   0.0328   0.0510   0.0213   0.0348   0.0221  18.00   54.8
2021/03/17 01:59:20.000    455571.3177   3639410.9522   5200658.7995   1   8   0.0279   0.0359   0.0561   0.0234   0.0382   0.0244  20.00   55.2
2021/03/17 01:59:22.000    455571.2802   3639411.0449   5200658.8196   2   9   0.0416   0.0567   0.0638   0.0292   0.0433   0.0294  22.00    1.6
2021/03/17 01:59:25.000    455571.2802   3639411.0450   5200658.8173   2   9   0.0404   0.0564   0.0681   0.0255   0.0435   0.0257  25.00    2.0
2021/03/17 01:59:27.000    455571.2805   3639411.0433   5200658.8155   2   9   0.0404   0.0571   0.0718   0.0242   0.0449   0.0244  27.00    2.3
2021/03/17 01:59:30.000    455571.3133   3639410.9502   5200658.7893   1   9   0.0058   0.0106   0.0146   0.0039   0.0105   0.0040   0.00    7.4
2021/03/17 01:59:32.000    455571.3130   3639410.9523   5200658.7954   1   9   0.0060   0.0110   0.0154   0.0040   0.0109   0.0043   2.00   12.1
2021/03/17 01:59:34.000    455571.3117   3639410.9494   5200658.7935   1   9   0.0071   0.0120   0.0177   0.0044   0.0121   0.0049   4.00   16.3
2021/03/17 01:59:37.000    455571.3118   3639410.9480   5200658.7995   1   9   0.0092   0.0142   0.0226   0.0054   0.0147   0.0060   7.00   19.1
2021/03/17 01:59:39.000    455571.3117   3639410.9496   5200658.8023   1   9   0.0106   0.0161   0.0266   0.0060   0.0169   0.0067   9.00   21.5
2021/03/17 01:59:42.000    455571.3125   3639410.9477   5200658.8026   1   9   0.0129   0.0191   0.0329   0.0070   0.0204   0.0079  12.00   22.9
2021/03/17 01:59:44.000    455571.3133   3639410.9474   5200658.8051   1   9   0.0144   0.0213   0.0374   0.0078   0.0229   0.0088  14.00   24.0
2021/03/17 01:59:46.000    455571.3130   3639410.9475   5200658.8044   1   9   0.0160   0.0235   0.0419   0.0085   0.0255   0.0096  16.00   25.1
2021/03/17 01:59:49.000    455571.3142   3639410.9487   5200658.8076   1   9   0.0184   0.0270   0.0489   0.0097   0.0295   0.0110  19.00   25.9
2021/03/17 01:59:51.000    455571.3141   3639410.9444   5200658.8055   1   9   0.0201   0.0294   0.0536   0.0105   0.0322   0.0119  21.00   26.7
2021/03/17 01:59:54.000    455571.3126   3639410.9414   5200658.8065   1   9   0.0226   0.0330   0.0607   0.0117   0.0363   0.0133  24.00   27.3
2021/03/17 01:59:56.000    455571.3116   3639410.9439   5200658.8116   1   9   0.0243   0.0354   0.0655   0.0125   0.0391   0.0142  26.00   27.8
2021/03/17 01:59:58.000    455571.3122   3639410.9457   5200658.8132   1   9   0.0260   0.0379   0.0702   0.0134   0.0419   0.0152  28.00   28.3
2021/03/17 02:00:01.000    455571.3142   3639410.9503   5200658.7940   1   8   0.0057   0.0127   0.0157   0.0036   0.0122   0.0039   1.00   31.8
2021/03/17 02:00:06.000    455571.3164   3639410.9518   5200658.7953   1   8   0.0084   0.0161   0.0217   0.0042   0.0156   0.0051   6.00   33.8
2021/03/17 02:00:08.000    455571.3157   3639410.9526   5200658.7966   1   8   0.0099   0.0183   0.0255   0.0045   0.0178   0.0058   8.00   35.6
2021/03/17 02:00:10.000    455571.3183   3639410.9529   5200658.7980   1   8   0.0114   0.0206   0.0296   0.0046   0.0203   0.0063  10.00   37.1
2021/03/17 02:00:13.000    455571.3174   3639410.9558   5200658.8021   1   8   0.0138   0.0245   0.0363   0.0049   0.0242   0.0073  13.00   38.1
2021/03/17 02:00:14.000    455571.3183   3639410.9541   5200658.7999   1   8   0.0146   0.0258   0.0385   0.0050   0.0256   0.0076  14.00   39.0
2021/03/17 02:00:17.000    455571.3223   3639410.9505   5200658.7965   1   8   0.0171   0.0300   0.0455   0.0052   0.0299   0.0085  17.00   39.5
2021/03/17 02:00:19.000    455571.3221   3639410.9534   5200658.8021   1   8   0.0188   0.0328   0.0503   0.0053   0.0329   0.0092  19.00   40.0
2021/03/17 02:00:21.000    455571.3260   3639410.9538   5200658.8059   1   8   0.0205   0.0358   0.0550   0.0054   0.0359   0.0099  21.00   40.5
2021/03/17 02:00:24.000    455571.3276   3639410.9554   5200658.8159   1   8   0.0231   0.0402   0.0623   0.0056   0.0404   0.0109  24.00   41.1
2021/03/17 02:00:26.000    455571.3275   3639410.9559   5200658.8193   1   8   0.0248   0.0432   0.0672   0.0058   0.0435   0.0117  26.00   41.4
2021/03/17 02:00:29.000    455571.3324   3639410.9601   5200658.8265   1   8   0.0274   0.0477   0.0745   0.0060   0.0481   0.0128  29.00   41.5
2021/03/17 02:00:31.000    455571.3141   3639410.9529   5200658.7959   1   8   0.0058   0.0127   0.0157   0.0037   0.0121   0.0040   1.00   45.0
2021/03/17 02:00:33.000    455571.3138   3639410.9509   5200658.7976   1   8   0.0066   0.0136   0.0173   0.0038   0.0131   0.0043   3.00   49.1
2021/03/17 02:00:36.000    455571.3150   3639410.9516   5200658.8000   1   8   0.0085   0.0161   0.0218   0.0042   0.0156   0.0052   6.00   53.3
2021/03/17 02:00:38.000    455571.3117   3639410.9521   5200658.7988   1   8   0.0099   0.0182   0.0256   0.0045   0.0179   0.0058   8.00   57.0
2021/03/17 02:00:41.000    455571.3162   3639410.9569   5200658.8032   1   8   0.0122   0.0219   0.0319   0.0048   0.0216   0.0067  11.00   59.8
2021/03/17 02:00:43.000    455571.3156   3639410.9577   5200658.8041   1   8   0.0138   0.0245   0.0364   0.0049   0.0243   0.0073  13.00   62.2
2021/03/17 02:00:45.000    455571.3163   3639410.9580   5200658.8043   1   8   0.0154   0.0272   0.0410   0.0050   0.0272   0.0080  15.00   64.0
2021/03/17 02:00:48.000    455571.3171   3639410.9583   5200658.8029   1   8   0.0179   0.0315   0.0480   0.0052   0.0315   0.0090  18.00   65.5
2021/03/17 02:00:50.000    455571.3174   3639410.9614   5200658.8029   1   8   0.0196   0.0344   0.0528   0.0053   0.0345   0.0097  20.00   66.8
2021/03/17 02:00:53.000    455571.3168   3639410.9601   5200658.7982   1   8   0.0222   0.0388   0.0601   0.0055   0.0391   0.0108  23.00   67.9
2021/03/17 02:00:55.000    455571.3181   3639410.9620   5200658.7958   1   8   0.0239   0.0418   0.0649   0.0056   0.0421   0.0115  25.00   68.7
2021/03/17 02:00:57.000    455571.3189   3639410.9652   5200658.7995   1   8   0.0257   0.0448   0.0699   0.0057   0.0452   0.0122  27.00   69.3
2021/03/17 02:01:00.000    455571.3157   3639410.9505   5200658.7969   1   8   0.0058   0.0126   0.0155   0.0033   0.0120   0.0040   0.00   73.5
2021/03/17 02:01:02.000    455571.3141   3639410.9513   5200658.7991   1   8   0.0062   0.0130   0.0163   0.0038   0.0125   0.0042   2.00   79.3
2021/03/17 02:01:05.000    455571.3104   3639410.9457   5200658.7929   1   8   0.0078   0.0151   0.0201   0.0041   0.0147   0.0049   5.00   83.8
2021/03/17 02:01:07.000    455571.3114   3639410.9480   5200658.7968   1   8   0.0092   0.0171   0.0236   0.0044   0.0167   0.0055   7.00   87.1
2021/03/17 02:01:09.000    455571.3111   3639410.9465   5200658.7980   1   8   0.0106   0.0194   0.0277   0.0045   0.0191   0.0062   9.00   89.3
2021/03/17 02:01:12.000    455571.3084   3639410.9477   5200658.8038   1   8   0.0130   0.0232   0.0342   0.0048   0.0230   0.0071  12.00   90.3
2021/03/17 02:01:17.000    455571.3107   3639410.9484   5200658.8089   1   8   0.0171   0.0301   0.0458   0.0051   0.0302   0.0088  17.00   91.2
2021/03/17 02:01:19.000    455571.3126   3639410.9473   5200658.8126   1   8   0.0188   0.0330   0.0506   0.0052   0.0332   0.0095  19.00   92.0
2021/03/17 02:01:21.000    455571.3147   3639410.9509   5200658.8190   1   8   0.0205   0.0359   0.0554   0.0053   0.0362   0.0102  21.00   92.1
2021/03/17 02:01:24.000    455571.3136   3639410.9520   5200658.8289   1   8   0.0231   0.0404   0.0627   0.0055   0.0408   0.0113  24.00   92.6
2021/03/17 02:01:25.000    455571.3123   3639410.9499   5200658.8270   1   8   0.0239   0.0419   0.0652   0.0056   0.0423   0.0117  25.00   93.1
2021/03/17 02:01:28.000    455571.3135   3639410.9504   5200658.8335   1   8   0.0266   0.0465   0.0725   0.0057   0.0470   0.0128  28.00   92.7
2021/03/17 02:01:30.000    455571.3176   3639410.9510   5200658.7991   1   8   0.0057   0.0125   0.0154   0.0034   0.0120   0.0039   0.00   94.0
2021/03/17 02:01:32.000    455571.3183   3639410.9496   5200658.7964   1   8   0.0059   0.0130   0.0163   0.0035   0.0125   0.0041   2.00   95.0
2021/03/17 02:01:35.000    455571.3223   3639410.9549   5200658.7970   1   8   0.0077   0.0151   0.0201   0.0040   0.0147   0.0049   5.00   95.6
2021/03/17 02:01:37.000    455571.3216   3639410.9517   5200658.7902   1   8   0.0092   0.0171   0.0237   0.0043   0.0167   0.0056   7.00   97.1
2021/03/17 02:01:40.000    455571.3216   3639410.9498   5200658.7853   1   8   0.0114   0.0206   0.0299   0.0046   0.0204   0.0065  10.00   99.1
2021/03/17 02:01:42.000    455571.3246   3639410.9523   5200658.7834   1   8   0.0130   0.0232   0.0343   0.0047   0.0231   0.0072  12.00  100.7
2021/03/17 02:01:44.000    455571.3221   3639410.9491   5200658.7780   1   8   0.0146   0.0259   0.0389   0.0049   0.0259   0.0079  14.00  102.3
2021/03/17 02:01:47.000    455571.3216   3639410.9491   5200658.7775   1   8   0.0171   0.0302   0.0459   0.0051   0.0303   0.0089  17.00  103.6
2021/03/17 02:01:49.000    455571.3244   3639410.9460   5200658.7754   1   8   0.0188   0.0331   0.0507   0.0052   0.0333   0.0096  19.00  105.0
2021/03/17 02:01:52.000    455571.3203   3639410.9391   5200658.7668   1   8   0.0214   0.0375   0.0580   0.0053   0.0379   0.0107  22.00  105.3
2021/03/17 02:01:54.000    455571.3192   3639410.9332   5200658.7612   1   8   0.0231   0.0405   0.0629   0.0054   0.0410   0.0115  24.00  106.3
2021/03/17 02:01:56.000    455571.3186   3639410.9349   5200658.7590   1   8   0.0248   0.0435   0.0678   0.0056   0.0441   0.0122  26.00  107.1
2021/03/17 02:01:59.000    455571.3202   3639410.9335   5200658.7562   1   8   0.0275   0.0481   0.0752   0.0057   0.0488   0.0134  29.00  107.5
2021/03/17 02:02:01.000    455571.3170   3639410.9530   5200658.7978   1   8   0.0059   0.0126   0.0157   0.0035   0.0121   0.0041   1.00  108.0
2021/03/17 02:02:04.000    455571.3187   3639410.9528   5200658.7943   1   8   0.0071   0.0142   0.0186   0.0039   0.0138   0.0046   4.00  110.0
2021/03/17 02:02:06.000    455571.3203   3639410.9543   5200658.7918   1   8   0.0084   0.0161   0.0219   0.0042   0.0156   0.0053   6.00  110.9
2021/03/17 02:02:08.000    455571.3227   3639410.9564   5200658.7922   1   8   0.0099   0.0182   0.0257   0.0043   0.0179   0.0059   8.00  112.0
2021/03/17 02:02:11.000    455571.3236   3639410.9583   5200658.7905   1   8   0.0122   0.0219   0.0321   0.0047   0.0218   0.0069  11.00  111.7
2021/03/17 02:02:13.000    455571.3245   3639410.9535   5200658.7861   1   8   0.0138   0.0246   0.0366   0.0048   0.0246   0.0076  13.00  111.7
2021/03/17 02:02:16.000    455571.3242   3639410.9535   5200658.7852   1   8   0.0163   0.0288   0.0437   0.0050   0.0289   0.0086  16.00  110.5
2021/03/17 02:02:18.000    455571.3232   3639410.9564   5200658.7874   1   8   0.0179   0.0317   0.0484   0.0051   0.0319   0.0094  18.00  109.1
2021/03/17 02:02:20.000    455571.3242   3639410.9526   5200658.7829   1   8   0.0196   0.0346   0.0533   0.0052   0.0349   0.0101  20.00  108.7
2021/03/17 02:02:23.000    455571.3279   3639410.9572   5200658.7894   1   8   0.0222   0.0391   0.0606   0.0053   0.0396   0.0112  23.00  108.7
2021/03/17 02:02:25.000    455571.3290   3639410.9599   5200658.7922   1   8   0.0240   0.0421   0.0655   0.0054   0.0427   0.0120  25.00  107.9
2021/03/17 02:02:28.000    455571.3303   3639410.9554   5200658.7879   1   8   0.0266   0.0467   0.0730   0.0056   0.0474   0.0132  28.00  107.7
2021/03/17 02:02:30.000    455571.3134   3639410.9485   5200658.7982   1   8   0.0057   0.0124   0.0154   0.0034   0.0119   0.0039   0.00  109.5
2021/03/17 02:02:32.000    455571.3154   3639410.9489   5200658.8003   1   8   0.0063   0.0129   0.0163   0.0036   0.0124   0.0041   2.00  110.2
2021/03/17 02:02:35.000    455571.3149   3639410.9462   5200658.8003   1   8   0.0077   0.0151   0.0201   0.0040   0.0146   0.0049   5.00  111.2
2021/03/17 02:02:40.000    455571.3156   3639410.9511   5200658.8032   1   8   0.0114   0.0207   0.0300   0.0045   0.0205   0.0066  10.00  110.6
2021/03/17 02:02:42.000    455571.3124   3639410.9459   5200658.7989   1   8   0.0130   0.0233   0.0344   0.0047   0.0232   0.0073  12.00  109.1
2021/03/17 02:02:44.000    455571.3120   3639410.9461   5200658.8021   1   8   0.0146   0.0260   0.0390   0.0048   0.0261   0.0080  14.00  107.9
2021/03/17 02:02:51.000    455571.3123   3639410.9527   5200658.8016   1   8   0.0205   0.0362   0.0559   0.0052   0.0366   0.0106  21.00  105.7
2021/03/17 02:02:53.000    455571.3157   3639410.9556   5200658.8055   1   8   0.0222   0.0392   0.0608   0.0053   0.0397   0.0114  23.00  104.4
2021/03/17 02:02:57.000    455571.3157   3639410.9611   5200658.8117   1   8   0.0257   0.0453   0.0707   0.0055   0.0460   0.0130  27.00  102.5
2021/03/17 02:02:58.000    455571.3155   3639410.9572   5200658.8072   1   8   0.0266   0.0468   0.0732   0.0055   0.0476   0.0134  28.00  101.5
2021/03/17 02:03:01.000    455571.3171   3639410.9485   5200658.7994   1   8   0.0058   0.0125   0.0156   0.0034   0.0120   0.0041   1.00  102.1
2021/03/17 02:03:03.000    455571.3164   3639410.9489   5200658.8020   1   8   0.0065   0.0135   0.0173   0.0036   0.0129   0.0044   3.00  102.0
2021/03/17 02:03:06.000    455571.3151   3639410.9504   5200658.8030   1   8   0.0085   0.0160   0.0219   0.0041   0.0157   0.0053   6.00  102.2
2021/03/17 02:03:09.000    455571.3161   3639410.9474   5200658.8000   1   8   0.0106   0.0194   0.0279   0.0045   0.0193   0.0063   9.00  101.3
2021/03/17 02:03:12.000    455571.3165   3639410.9483   5200658.7988   1   8   0.0130   0.0233   0.0345   0.0047   0.0233   0.0074  12.00  101.1
2021/03/17 02:03:14.000    455571.3170   3639410.9477   5200658.7968   1   8   0.0146   0.0260   0.0391   0.0048   0.0262   0.0081  14.00  101.2
2021/03/17 02:03:15.000    455571.3168   3639410.9464   5200658.7948   1   8   0.0154   0.0275   0.0415   0.0048   0.0276   0.0085  15.00  100.5
2021/03/17 02:03:18.000    455571.3171   3639410.9471   5200658.7906   1   8   0.0180   0.0318   0.0487   0.0050   0.0321   0.0096  18.00   98.6
2021/03/17 02:03:20.000    455571.3199   3639410.9517   5200658.7932   1   8   0.0197   0.0347   0.0535   0.0051   0.0352   0.0104  20.00   97.1
2021/03/17 02:03:23.000    455571.3202   3639410.9514   5200658.7901   1   8   0.0223   0.0393   0.0609   0.0052   0.0399   0.0116  23.00   95.7
2021/03/17 02:03:25.000    455571.3191   3639410.9510   5200658.7908   1   8   0.0240   0.0423   0.0659   0.0053   0.0430   0.0124  25.00   94.3
2021/03/17 02:03:28.000    455571.3205   3639410.9503   5200658.7914   1   8   0.0266   0.0469   0.0734   0.0054   0.0478   0.0136  28.00   93.1
2021/03/17 02:03:30.000    455571.3161   3639410.9518   5200658.7999   1   8   0.0056   0.0123   0.0154   0.0035   0.0119   0.0040   0.00   93.5
2021/03/17 02:03:33.000    455571.3160   3639410.9530   5200658.8009   1   8   0.0066   0.0134   0.0173   0.0035   0.0130   0.0042   3.00   94.0
2021/03/17 02:03:35.000    455571.3159   3639410.9581   5200658.8065   1   8   0.0077   0.0150   0.0202   0.0040   0.0147   0.0050   5.00   94.3
2021/03/17 02:03:37.000    455571.3145   3639410.9541   5200658.8041   1   8   0.0091   0.0171   0.0238   0.0042   0.0168   0.0057   7.00   94.6
2021/03/17 02:03:40.000    455571.3177   3639410.9527   5200658.8014   1   8   0.0114   0.0207   0.0301   0.0045   0.0206   0.0067  10.00   94.6
2021/03/17 02:03:42.000    455571.3192   3639410.9544   5200658.8012   1   8   0.0130   0.0233   0.0346   0.0047   0.0234   0.0075  12.00   94.3
2021/03/17 02:03:47.000    455571.3210   3639410.9579   5200658.8073   1   8   0.0171   0.0304   0.0464   0.0049   0.0307   0.0093  17.00   94.8
2021/03/17 02:03:49.000    455571.3224   3639410.9582   5200658.8087   1   8   0.0188   0.0333   0.0512   0.0050   0.0338   0.0101  19.00   95.6
2021/03/17 02:03:54.000    455571.3219   3639410.9589   5200658.8041   1   8   0.0231   0.0409   0.0635   0.0052   0.0416   0.0121  24.00   95.1
2021/03/17 02:03:55.000    455571.3221   3639410.9595   5200658.8018   1   8   0.0240   0.0424   0.0660   0.0052   0.0432   0.0125  25.00   94.5
2021/03/17 02:03:58.000    455571.3220   3639410.9567   5200658.7978   1   8   0.0267   0.0471   0.0735   0.0053   0.0480   0.0138  28.00   94.0
2021/03/17 02:04:00.000    455571.3159   3639410.9563   5200658.8022   1   8   0.0058   0.0122   0.0153   0.0036   0.0119   0.0038   0.00   93.6
2021/03/17 02:04:03.000    455571.3146   3639410.9571   5200658.8020   1   8   0.0066   0.0133   0.0172   0.0036   0.0129   0.0042   3.00   93.7
