% program   : rnx2rtkp ver.2.4.3 b33
% inp file  : /home/danisimo/post/R1_193.2020-111.2021/R00125618.20o
% inp file  : /home/danisimo/post/NSK1_193.2020-111.2021/NSK12560.20o
% inp file  : /home/danisimo/post/NSK1_193.2020-111.2021/NSK12560.20N
% obs start : 2020/09/12 01:23:55.5 GPST (week2122 523435.5s)
% obs end   : 2020/09/12 11:40:19.0 GPST (week2122 560419.0s)
% ref pos   :   447670.3040   3638117.3850   5202281.5640
%
% (x/y/z-ecef=WGS84,Q=1:fix,2:float,3:sbas,4:dgps,5:single,6:ppp,ns=# of satellites)
%  GPST                      x-ecef(m)      y-ecef(m)      z-ecef(m)   Q  ns   sdx(m)   sdy(m)   sdz(m)  sdxy(m)  sdyz(m)  sdzx(m) age(s)  ratio
2020/09/12 01:23:55.482    455571.3928   3639412.2032   5200659.3180   2   6   0.5930   1.2074   2.0635   0.4471   0.9555  -0.2571  25.50    0.0
2020/09/12 01:23:55.982    455571.4035   3639412.0860   5200659.1439   2   6   0.4217   0.8597   1.4671   0.3177   0.6801  -0.1820  26.00    0.0
2020/09/12 01:23:56.482    455571.2027   3639411.8510   5200659.6600   2   6   0.3453   0.7041   1.2015   0.2601   0.5569  -0.1495  26.50    0.0
2020/09/12 01:23:56.982    455571.2542   3639411.3726   5200659.7342   2   6   0.2998   0.6111   1.0431   0.2258   0.4833  -0.1304  27.00    0.0
2020/09/12 01:23:57.482    455571.3141   3639411.3520   5200659.6922   2   6   0.2687   0.5477   0.9352   0.2024   0.4330  -0.1176  27.50    0.0
2020/09/12 01:23:58.482    455571.3852   3639411.4273   5200659.3958   2   6   0.2459   0.5009   0.8559   0.1852   0.3960  -0.1086  28.50    0.0
2020/09/12 01:24:00.500    455571.4446   3639411.4851   5200659.3632   2   6   0.2260   0.4616   0.7865   0.1700   0.3649  -0.0984   0.50    0.0
2020/09/12 01:24:06.500    455571.4965   3639411.4605   5200659.2849   2   6   0.2115   0.4322   0.7358   0.1588   0.3414  -0.0940   6.50    0.0
2020/09/12 01:24:09.000    455571.5014   3639411.4242   5200659.1771   2   6   0.1995   0.4077   0.6940   0.1497   0.3220  -0.0894   9.00    0.0
2020/09/12 01:24:10.000    455571.5183   3639411.3783   5200659.1460   2   6   0.1893   0.3870   0.6585   0.1420   0.3056  -0.0850  10.00    0.0
2020/09/12 01:24:12.000    455571.4919   3639411.3594   5200659.0852   2   6   0.1807   0.3693   0.6285   0.1355   0.2916  -0.0818  12.00    0.0
2020/09/12 01:24:13.000    455571.3083   3639410.8785   5200659.2467   2   6   0.5923   1.2069   2.0628   0.4451   0.9525  -0.2700  13.00    1.6
2020/09/12 01:24:15.000    455571.3347   3639410.6805   5200659.1658   2   6   0.4207   0.8588   1.4652   0.3158   0.6774  -0.1914  15.00    2.5
2020/09/12 01:24:17.500    455571.4259   3639410.6443   5200659.2871   2   6   0.3443   0.7031   1.1990   0.2582   0.5544  -0.1577  17.50    2.3
2020/09/12 01:24:24.000    455571.4413   3639410.7177   5200659.0768   2   6   0.2990   0.6107   1.0416   0.2239   0.4811  -0.1405  24.00    2.2
2020/09/12 01:24:27.000    455571.5030   3639410.8042   5200658.9160   2   6   0.2682   0.5476   0.9345   0.2007   0.4312  -0.1277  27.00    1.5
2020/09/12 01:24:29.000    455571.5006   3639410.8664   5200658.7120   2   6   0.2456   0.5011   0.8558   0.1837   0.3945  -0.1182  29.00    1.3
2020/09/12 01:24:30.000    455571.5406   3639410.9467   5200658.8980   2   6   0.2257   0.4616   0.7846   0.1686   0.3640  -0.1056   0.00    2.0
2020/09/12 01:24:33.000    455571.5652   3639410.9428   5200658.9231   2   6   0.2111   0.4320   0.7337   0.1576   0.3406  -0.0994   3.00    1.9
2020/09/12 01:24:37.000    455571.5916   3639410.9327   5200659.0803   2   6   0.1991   0.4076   0.6920   0.1485   0.3212  -0.0950   7.00    1.4
2020/09/12 01:24:39.000    455571.6015   3639410.9164   5200659.1154   2   6   0.1890   0.3869   0.6569   0.1409   0.3049  -0.0907   9.00    1.3
2020/09/12 01:24:42.000    455571.6098   3639410.8765   5200659.1994   2   6   0.1805   0.3693   0.6273   0.1344   0.2910  -0.0875  12.00    1.1
2020/09/12 01:24:45.000    455571.5814   3639410.8034   5200659.2313   2   6   0.1732   0.3542   0.6019   0.1289   0.2790  -0.0851  15.00    1.0
2020/09/12 01:24:46.000    455571.5716   3639410.7748   5200659.2100   2   6   0.1666   0.3407   0.5790   0.1240   0.2683  -0.0822  16.00    1.1
2020/09/12 01:24:48.000    455571.5708   3639410.7793   5200659.1680   2   6   0.1609   0.3289   0.5593   0.1197   0.2589  -0.0802  18.00    1.0
2020/09/12 01:24:51.000    455571.5671   3639410.7840   5200659.2221   2   6   0.1561   0.3187   0.5427   0.1161   0.2508  -0.0791  21.00    1.0
2020/09/12 01:24:53.000    455571.5564   3639410.8038   5200659.2630   2   6   0.1517   0.3094   0.5275   0.1128   0.2434  -0.0778  23.00    1.0
2020/09/12 01:24:57.000    455571.5364   3639410.8228   5200659.1973   2   6   0.1482   0.3018   0.5158   0.1101   0.2373  -0.0780  27.00    1.2
2020/09/12 01:24:59.000    455571.5188   3639410.8348   5200659.1860   2   6   0.1448   0.2945   0.5041   0.1076   0.2314  -0.0774  29.00    1.3
2020/09/12 01:25:01.000    455571.4953   3639410.8435   5200659.1864   2   6   0.1368   0.2809   0.4707   0.1012   0.2226  -0.0653   1.00    2.2
2020/09/12 01:25:04.000    455571.3271   3639410.9682   5200658.7999   1   6   0.0078   0.0150   0.0275   0.0058   0.0117  -0.0054   4.00    3.0
2020/09/12 01:25:06.000    455571.3305   3639410.9699   5200658.8013   1   6   0.0096   0.0178   0.0340   0.0072   0.0138  -0.0074   6.00    3.8
2020/09/12 01:25:07.000    455571.3316   3639410.9756   5200658.8017   1   6   0.0106   0.0194   0.0376   0.0080   0.0150  -0.0085   7.00    4.1
2020/09/12 01:25:09.000    455571.3363   3639410.9817   5200658.7966   1   6   0.0127   0.0228   0.0452   0.0096   0.0177  -0.0107   9.00    3.9
2020/09/12 01:25:12.000    455571.3411   3639410.9857   5200658.7959   1   6   0.0161   0.0284   0.0574   0.0122   0.0219  -0.0141  12.00    3.5
2020/09/12 01:25:14.000    455571.3414   3639410.9827   5200658.7902   1   6   0.0184   0.0323   0.0657   0.0140   0.0249  -0.0163  14.00    3.4
2020/09/12 01:25:16.000    455571.3425   3639410.9856   5200658.7892   1   6   0.0208   0.0363   0.0742   0.0159   0.0279  -0.0186  16.00    3.6
2020/09/12 01:25:19.000    455571.3429   3639410.9830   5200658.7835   1   6   0.0244   0.0423   0.0870   0.0186   0.0325  -0.0221  19.00    4.0
2020/09/12 01:25:21.000    455571.3438   3639410.9812   5200658.7752   1   6   0.0268   0.0464   0.0957   0.0205   0.0356  -0.0245  21.00    4.4
2020/09/12 01:25:23.000    455571.3440   3639410.9795   5200658.7708   1   6   0.0292   0.0506   0.1043   0.0224   0.0388  -0.0268  23.00    4.7
2020/09/12 01:25:28.000    455571.3476   3639410.9822   5200658.7537   1   6   0.0353   0.0609   0.1261   0.0270   0.0466  -0.0327  28.00    4.5
2020/09/12 01:25:30.000    455571.3215   3639410.9666   5200658.8120   1   6   0.0061   0.0122   0.0209   0.0044   0.0096  -0.0032   0.00    5.2
2020/09/12 01:25:33.000    455571.3209   3639410.9615   5200658.8066   1   6   0.0071   0.0139   0.0249   0.0052   0.0108  -0.0047   3.00    5.3
2020/09/12 01:25:35.000    455571.3217   3639410.9611   5200658.8012   1   6   0.0087   0.0163   0.0307   0.0064   0.0126  -0.0066   5.00    4.8
2020/09/12 01:25:37.000    455571.3204   3639410.9603   5200658.7945   1   6   0.0106   0.0194   0.0376   0.0079   0.0150  -0.0088   7.00    4.2
2020/09/12 01:25:38.000    455571.3213   3639410.9589   5200658.7890   1   6   0.0116   0.0211   0.0414   0.0088   0.0162  -0.0099   8.00    3.5
2020/09/12 01:25:43.000    455571.3234   3639410.9607   5200658.7770   1   6   0.0173   0.0304   0.0616   0.0131   0.0232  -0.0157  13.00    3.2
2020/09/12 01:25:46.000    455571.3770   3639411.2096   5200659.1894   2   6   0.0995   0.2040   0.3317   0.0721   0.1659  -0.0467  16.00    2.8
2020/09/12 01:25:48.000    455571.3883   3639411.2488   5200659.2385   2   6   0.0987   0.2021   0.3296   0.0715   0.1642  -0.0475  18.00    2.3
2020/09/12 01:25:50.000    455571.3987   3639411.2757   5200659.2455   2   6   0.0981   0.2005   0.3280   0.0711   0.1627  -0.0484  20.00    2.2
2020/09/12 01:25:52.000    455571.3989   3639411.2892   5200659.2439   2   6   0.0976   0.1990   0.3268   0.0708   0.1613  -0.0495  22.00    2.2
2020/09/12 01:25:56.000    455571.4067   3639411.3051   5200659.2421   2   6   0.0980   0.1989   0.3290   0.0711   0.1608  -0.0523  26.00    2.2
2020/09/12 01:25:59.000    455571.4144   3639411.3273   5200659.2517   2   6   0.0982   0.1986   0.3305   0.0713   0.1602  -0.0545  29.00    2.1
2020/09/12 01:26:01.000    455571.3916   3639411.2951   5200659.2051   2   6   0.0903   0.1868   0.2959   0.0648   0.1533  -0.0372   1.00    2.3
2020/09/12 01:26:03.000    455571.3989   3639411.3011   5200659.1675   2   6   0.0892   0.1846   0.2896   0.0638   0.1528  -0.0345   3.00    2.5
2020/09/12 01:26:05.000    455571.4057   3639411.3168   5200659.1488   2   6   0.0883   0.1827   0.2854   0.0630   0.1518  -0.0334   5.00    2.7
2020/09/12 01:26:09.000    455571.3934   3639411.3187   5200659.1345   2   6   0.0878   0.1814   0.2837   0.0626   0.1508  -0.0344   9.00    3.0
2020/09/12 01:26:12.000    455571.3113   3639410.9512   5200658.8107   1   6   0.0162   0.0286   0.0575   0.0122   0.0217  -0.0149  12.00    3.2
2020/09/12 01:26:14.000    455571.3094   3639410.9487   5200658.8078   1   6   0.0185   0.0325   0.0658   0.0140   0.0246  -0.0173  14.00    3.3
2020/09/12 01:26:16.000    455571.3053   3639410.9480   5200658.8132   1   6   0.0209   0.0365   0.0743   0.0158   0.0276  -0.0197  16.00    3.3
2020/09/12 01:26:18.000    455571.3027   3639410.9444   5200658.8083   1   6   0.0233   0.0405   0.0829   0.0176   0.0306  -0.0222  18.00    3.3
2020/09/12 01:26:22.000    455571.2908   3639410.9318   5200658.8143   1   6   0.0281   0.0488   0.1002   0.0213   0.0367  -0.0271  22.00    3.4
2020/09/12 01:26:31.000    455571.3185   3639410.9551   5200658.8047   1   6   0.0061   0.0124   0.0214   0.0045   0.0096  -0.0037   1.00    3.6
2020/09/12 01:26:35.000    455571.3189   3639410.9503   5200658.8024   1   6   0.0087   0.0164   0.0307   0.0064   0.0125  -0.0071   5.00    3.4
2020/09/12 01:26:36.000    455571.3179   3639410.9483   5200658.8023   1   6   0.0096   0.0179   0.0341   0.0071   0.0136  -0.0082   6.00    3.4
2020/09/12 01:26:37.000    455571.3168   3639410.9482   5200658.8025   1   6   0.0106   0.0195   0.0377   0.0079   0.0148  -0.0093   7.00    3.5
2020/09/12 01:26:39.000    455571.3167   3639410.9458   5200658.8005   1   6   0.0128   0.0230   0.0454   0.0095   0.0174  -0.0117   9.00    3.6
2020/09/12 01:26:43.000    455571.3155   3639410.9438   5200658.8024   1   6   0.0174   0.0306   0.0617   0.0130   0.0230  -0.0165  13.00    3.4
2020/09/12 01:26:46.000    455571.3155   3639410.9446   5200658.8013   1   6   0.0209   0.0366   0.0744   0.0157   0.0274  -0.0203  16.00    3.3
2020/09/12 01:26:51.000    455571.3152   3639410.9405   5200658.7924   1   6   0.0270   0.0469   0.0959   0.0203   0.0349  -0.0265  21.00    3.3
2020/09/12 01:26:54.000    455571.3171   3639410.9404   5200658.7922   1   6   0.0306   0.0531   0.1090   0.0231   0.0395  -0.0303  24.00    3.3
2020/09/12 01:26:57.000    455571.3168   3639410.9404   5200658.7888   1   6   0.0343   0.0594   0.1221   0.0259   0.0442  -0.0341  27.00    3.3
2020/09/12 01:26:58.000    455571.3157   3639410.9371   5200658.7862   1   6   0.0356   0.0615   0.1264   0.0268   0.0457  -0.0354  28.00    3.3
2020/09/12 01:27:01.000    455571.3194   3639410.9575   5200658.7945   1   6   0.0061   0.0125   0.0215   0.0044   0.0096  -0.0039   1.00    3.2
2020/09/12 01:27:04.000    455571.3741   3639411.3392   5200659.0338   2   6   0.0733   0.1530   0.2219   0.0503   0.1324  -0.0154   4.00    3.0
2020/09/12 01:27:07.000    455571.3691   3639411.3324   5200659.0362   2   6   0.0730   0.1523   0.2207   0.0501   0.1321  -0.0161   7.00    2.8
2020/09/12 01:27:09.000    455571.3642   3639411.3344   5200659.0476   2   6   0.0728   0.1516   0.2200   0.0499   0.1316  -0.0171   9.00    2.7
2020/09/12 01:27:10.000    455571.3651   3639411.3425   5200659.0602   2   6   0.0725   0.1508   0.2189   0.0496   0.1309  -0.0175  10.00    2.5
2020/09/12 01:27:12.000    455571.3641   3639411.3365   5200659.0467   2   6   0.0724   0.1503   0.2191   0.0496   0.1304  -0.0194  12.00    2.4
2020/09/12 01:27:15.000    455571.3659   3639411.3220   5200659.0474   2   6   0.0728   0.1505   0.2213   0.0499   0.1302  -0.0228  15.00    2.4
2020/09/12 01:27:18.000    455571.3661   3639411.3136   5200659.0257   2   6   0.0733   0.1510   0.2243   0.0504   0.1303  -0.0264  18.00    2.3
2020/09/12 01:27:21.000    455571.3712   3639411.3130   5200659.0048   2   6   0.0741   0.1518   0.2281   0.0510   0.1304  -0.0301  21.00    2.2
2020/09/12 01:27:23.000    455571.3757   3639411.3085   5200658.9983   2   6   0.0745   0.1522   0.2307   0.0515   0.1304  -0.0327  23.00    2.2
2020/09/12 01:27:25.000    455571.3803   3639411.3033   5200658.9946   2   6   0.0751   0.1527   0.2336   0.0520   0.1304  -0.0352  25.00    2.1
2020/09/12 01:27:28.000    455571.3842   3639411.3092   5200658.9841   2   6   0.0763   0.1542   0.2391   0.0530   0.1310  -0.0390  28.00    1.9
2020/09/12 01:27:31.000    455571.4008   3639411.3595   5200659.0915   2   6   0.0673   0.1412   0.1987   0.0454   0.1237  -0.0046   1.00    1.8
2020/09/12 01:27:34.000    455571.4011   3639411.3605   5200659.0759   2   6   0.0669   0.1404   0.1961   0.0450   0.1237   0.0051   4.00    1.7
2020/09/12 01:27:36.000    455571.4005   3639411.3673   5200659.0932   2   6   0.0667   0.1398   0.1948   0.0448   0.1235   0.0054   6.00    1.6
2020/09/12 01:27:38.000    455571.3998   3639411.3747   5200659.0881   2   6   0.0666   0.1393   0.1944   0.0447   0.1232  -0.0015   8.00    1.5
2020/09/12 01:27:41.000    455571.3988   3639411.3827   5200659.0923   2   6   0.0668   0.1394   0.1959   0.0449   0.1230  -0.0102  11.00    1.5
2020/09/12 01:27:44.000    455571.3968   3639411.3898   5200659.0918   2   6   0.0673   0.1398   0.1985   0.0453   0.1230  -0.0156  14.00    1.4
2020/09/12 01:27:47.000    455571.3982   3639411.3971   5200659.0949   2   6   0.0680   0.1405   0.2020   0.0458   0.1232  -0.0204  17.00    1.3
2020/09/12 01:27:49.000    455571.4016   3639411.4122   5200659.1044   2   6   0.0684   0.1409   0.2045   0.0462   0.1232  -0.0235  19.00    1.2
2020/09/12 01:27:51.000    455571.4087   3639411.4321   5200659.1270   2   6   0.0690   0.1414   0.2074   0.0467   0.1232  -0.0265  21.00    1.1
2020/09/12 01:27:54.000    455571.4083   3639411.4408   5200659.1417   2   6   0.0701   0.1429   0.2129   0.0477   0.1238  -0.0309  24.00    1.1
2020/09/12 01:27:57.000    455571.4114   3639411.4600   5200659.1628   2   6   0.0715   0.1447   0.2191   0.0488   0.1246  -0.0352  27.00    1.0
2020/09/12 01:28:00.000    455571.4418   3639411.4814   5200659.2487   2   6   0.0625   0.1318   0.1785   0.0413   0.1175   0.0136   0.00    1.0
2020/09/12 01:28:02.000    455571.4493   3639411.4845   5200659.2561   2   6   0.0621   0.1310   0.1752   0.0408   0.1175   0.0164   2.00    1.1
2020/09/12 01:28:04.000    455571.4557   3639411.4854   5200659.2586   2   6   0.0618   0.1304   0.1736   0.0406   0.1174   0.0170   4.00    1.1
2020/09/12 01:28:07.000    455571.4593   3639411.4835   5200659.2732   2   6   0.0619   0.1302   0.1740   0.0406   0.1173   0.0154   7.00    1.1
2020/09/12 01:28:10.000    455571.4642   3639411.4883   5200659.2757   2   6   0.0622   0.1304   0.1758   0.0408   0.1173   0.0118  10.00    1.2
2020/09/12 01:28:13.000    455571.4671   3639411.4943   5200659.2800   2   6   0.0627   0.1309   0.1787   0.0413   0.1174   0.0023  13.00    1.2
2020/09/12 01:28:15.000    455571.4660   3639411.4962   5200659.2858   2   6   0.0631   0.1313   0.1809   0.0416   0.1173  -0.0102  15.00    1.1
2020/09/12 01:28:17.000    455571.4691   3639411.4963   5200659.2893   2   6   0.0636   0.1317   0.1836   0.0420   0.1173  -0.0152  17.00    1.2
2020/09/12 01:28:20.000    455571.4730   3639411.4898   5200659.2935   2   6   0.0646   0.1331   0.1888   0.0429   0.1179  -0.0211  20.00    1.2
2020/09/12 01:28:23.000    455571.4758   3639411.4882   5200659.2993   2   6   0.0659   0.1347   0.1948   0.0440   0.1185  -0.0264  23.00    1.2
2020/09/12 01:28:30.000    455571.4677   3639411.4776   5200659.2910   2   6   0.0588   0.1246   0.1620   0.0379   0.1131   0.0188   0.00    1.2
2020/09/12 01:28:33.000    455571.4710   3639411.4868   5200659.2860   2   6   0.0586   0.1241   0.1602   0.0376   0.1130   0.0195   3.00    1.2
2020/09/12 01:28:35.000    455571.4768   3639411.4997   5200659.2845   2   6   0.0584   0.1237   0.1596   0.0375   0.1129   0.0193   5.00    1.2
2020/09/12 01:28:36.000    455571.4798   3639411.5096   5200659.2915   2   6   0.0583   0.1233   0.1589   0.0374   0.1126   0.0191   6.00    1.2
2020/09/12 01:28:39.000    455571.4822   3639411.5179   5200659.2943   2   6   0.0586   0.1235   0.1608   0.0376   0.1126   0.0167   9.00    1.2
2020/09/12 01:28:42.000    455571.4892   3639411.5239   5200659.2899   2   6   0.0591   0.1241   0.1638   0.0381   0.1127   0.0123  12.00    1.3
2020/09/12 01:28:45.000    455571.4907   3639411.5189   5200659.2825   2   6   0.0599   0.1251   0.1680   0.0388   0.1131  -0.0037  15.00    1.3
2020/09/12 01:28:47.000    455571.4965   3639411.5235   5200659.2800   2   6   0.0605   0.1257   0.1711   0.0393   0.1132  -0.0120  17.00    1.3
2020/09/12 01:28:51.000    455571.5028   3639411.5252   5200659.2730   2   6   0.0622   0.1280   0.1791   0.0407   0.1142  -0.0212  21.00    1.4
2020/09/12 01:28:54.000    455571.5054   3639411.5257   5200659.2811   2   6   0.0637   0.1299   0.1859   0.0419   0.1151  -0.0268  24.00    1.5
2020/09/12 01:28:56.000    455571.5091   3639411.5294   5200659.2918   2   6   0.0647   0.1312   0.1907   0.0428   0.1156  -0.0303  26.00    1.5
2020/09/12 01:28:59.000    455571.5156   3639411.5415   5200659.2995   2   6   0.0664   0.1337   0.1986   0.0442   0.1167  -0.0353  29.00    1.6
2020/09/12 01:29:00.000    455571.5190   3639411.5417   5200659.3291   2   6   0.0552   0.1175   0.1481   0.0348   0.1078   0.0205   0.00    1.7
2020/09/12 01:29:02.000    455571.5224   3639411.5416   5200659.3303   2   6   0.0549   0.1170   0.1462   0.0345   0.1078   0.0213   2.00    1.7
2020/09/12 01:29:05.000    455571.5278   3639411.5442   5200659.3282   2   6   0.0549   0.1168   0.1464   0.0345   0.1077   0.0206   5.00    1.8
2020/09/12 01:29:08.000    455571.5313   3639411.5423   5200659.3217   2   6   0.0553   0.1171   0.1482   0.0347   0.1078   0.0186   8.00    1.8
2020/09/12 01:29:10.000    455571.5328   3639411.5444   5200659.3153   2   6   0.0555   0.1173   0.1499   0.0350   0.1077   0.0165  10.00    1.9
2020/09/12 01:29:13.000    455571.5357   3639411.5444   5200659.3087   2   6   0.0563   0.1182   0.1538   0.0356   0.1080   0.0113  13.00    1.9
2020/09/12 01:29:15.000    455571.5392   3639411.5453   5200659.3102   2   6   0.0568   0.1188   0.1568   0.0361   0.1082   0.0031  15.00    2.0
2020/09/12 01:29:18.000    455571.5413   3639411.5434   5200659.3054   2   6   0.0580   0.1203   0.1625   0.0371   0.1088  -0.0140  18.00    2.0
2020/09/12 01:29:21.000    455571.5470   3639411.5452   5200659.3046   2   6   0.0594   0.1222   0.1690   0.0383   0.1096  -0.0209  21.00    2.1
2020/09/12 01:29:23.000    455571.5496   3639411.5431   5200659.3108   2   6   0.0603   0.1234   0.1737   0.0391   0.1100  -0.0249  23.00    2.1
2020/09/12 01:29:26.000    455571.5522   3639411.5337   5200659.3062   2   6   0.0620   0.1258   0.1815   0.0405   0.1111  -0.0304  26.00    2.2
2020/09/12 01:29:28.000    455571.5525   3639411.5297   5200659.2949   2   6   0.0632   0.1274   0.1869   0.0415   0.1118  -0.0339  28.00    2.2
2020/09/12 01:29:31.000    455571.5514   3639411.5261   5200659.4052   2   6   0.0521   0.1115   0.1371   0.0321   0.1033   0.0210   1.00    2.2
2020/09/12 01:29:34.000    455571.5551   3639411.5287   5200659.3866   2   6   0.0521   0.1113   0.1369   0.0321   0.1033   0.0206   4.00    2.3
2020/09/12 01:29:36.000    455571.5592   3639411.5337   5200659.3812   2   6   0.0522   0.1113   0.1374   0.0321   0.1032   0.0198   6.00    2.3
2020/09/12 01:29:39.000    455571.5587   3639411.5300   5200659.3882   2   6   0.0527   0.1118   0.1399   0.0325   0.1033   0.0172   9.00    2.4
2020/09/12 01:29:44.000    455571.5493   3639411.5118   5200659.4029   2   6   0.0542   0.1138   0.1474   0.0338   0.1042   0.0071  14.00    2.5
2020/09/12 01:29:47.000    455571.5451   3639411.4989   5200659.4078   2   6   0.0554   0.1153   0.1531   0.0348   0.1049  -0.0121  17.00    2.5
2020/09/12 01:29:52.000    455571.5438   3639411.4925   5200659.4129   2   6   0.0579   0.1189   0.1649   0.0369   0.1066  -0.0236  22.00    2.5
2020/09/12 01:29:53.000    455571.5425   3639411.4890   5200659.4081   2   6   0.0584   0.1195   0.1672   0.0373   0.1067  -0.0256  23.00    2.6
2020/09/12 01:29:56.000    455571.5405   3639411.4885   5200659.4239   2   6   0.0602   0.1220   0.1754   0.0389   0.1078  -0.0311  26.00    2.6
2020/09/12 01:29:59.000    455571.5372   3639411.4843   5200659.4312   2   6   0.0622   0.1248   0.1841   0.0405   0.1092  -0.0363  29.00    2.6
2020/09/12 01:30:00.000    455571.5677   3639411.5254   5200659.3954   2   6   0.0499   0.1072   0.1292   0.0301   0.0999   0.0210   0.00    2.5
2020/09/12 01:30:02.000    455571.5628   3639411.5207   5200659.3976   2   6   0.0497   0.1068   0.1279   0.0299   0.0998   0.0215   2.00    2.5
2020/09/12 01:30:04.000    455571.5625   3639411.5186   5200659.4026   2   6   0.0497   0.1066   0.1278   0.0299   0.0997   0.0212   4.00    2.5
2020/09/12 01:30:07.000    455571.5613   3639411.5127   5200659.4054   2   6   0.0501   0.1070   0.1297   0.0301   0.0998   0.0195   7.00    2.5
2020/09/12 01:30:10.000    455571.5624   3639411.5098   5200659.4089   2   6   0.0507   0.1077   0.1330   0.0307   0.1001   0.0163  10.00    2.5
2020/09/12 01:30:13.000    455571.5626   3639411.5053   5200659.4007   2   6   0.0516   0.1089   0.1377   0.0315   0.1005   0.0107  13.00    2.6
2020/09/12 01:30:15.000    455571.5612   3639411.5019   5200659.4035   2   6   0.0523   0.1098   0.1412   0.0321   0.1008  -0.0028  15.00    2.5
2020/09/12 01:30:17.000    455571.5591   3639411.4981   5200659.4041   2   6   0.0531   0.1108   0.1453   0.0328   0.1011  -0.0122  17.00    2.5
2020/09/12 01:30:20.000    455571.5595   3639411.4981   5200659.4034   2   6   0.0546   0.1129   0.1524   0.0341   0.1020  -0.0198  20.00    2.5
2020/09/12 01:30:23.000    455571.5673   3639411.5058   5200659.4223   2   6   0.0563   0.1152   0.1603   0.0356   0.1031  -0.0259  23.00    2.4
2020/09/12 01:30:26.000    455571.5720   3639411.5114   5200659.4448   2   6   0.0582   0.1180   0.1689   0.0372   0.1044  -0.0315  26.00    2.4
2020/09/12 01:30:28.000    455571.5726   3639411.5111   5200659.4523   2   6   0.0596   0.1198   0.1748   0.0383   0.1052  -0.0351  28.00    2.4
2020/09/12 01:30:30.000    455571.5669   3639411.4980   5200659.4371   2   6   0.0476   0.1026   0.1208   0.0280   0.0963   0.0213   0.00    2.4
2020/09/12 01:30:33.000    455571.5663   3639411.4922   5200659.4306   2   6   0.0475   0.1024   0.1205   0.0280   0.0962   0.0211   3.00    2.5
2020/09/12 01:30:36.000    455571.5683   3639411.4855   5200659.4265   2   6   0.0478   0.1027   0.1221   0.0282   0.0963   0.0197   6.00    2.5
2020/09/12 01:30:39.000    455571.5661   3639411.4837   5200659.4307   2   6   0.0484   0.1034   0.1252   0.0287   0.0965   0.0169   9.00    2.5
2020/09/12 01:30:41.000    455571.5664   3639411.4830   5200659.4237   2   6   0.0489   0.1040   0.1279   0.0291   0.0967   0.0140  11.00    2.6
2020/09/12 01:30:43.000    455571.5649   3639411.4756   5200659.4232   2   6   0.0495   0.1048   0.1312   0.0297   0.0969   0.0094  13.00    2.6
2020/09/12 01:30:46.000    455571.5655   3639411.4727   5200659.4281   2   6   0.0508   0.1065   0.1374   0.0308   0.0976  -0.0104  16.00    2.6
2020/09/12 01:30:49.000    455571.5671   3639411.4706   5200659.4325   2   6   0.0523   0.1085   0.1445   0.0321   0.0985  -0.0185  19.00    2.6
2020/09/12 01:30:52.000    455571.5667   3639411.4661   5200659.4367   2   6   0.0540   0.1109   0.1524   0.0336   0.0996  -0.0249  22.00    2.6
2020/09/12 01:30:54.000    455571.5672   3639411.4644   5200659.4349   2   6   0.0553   0.1127   0.1580   0.0347   0.1003  -0.0288  24.00    2.6
2020/09/12 01:30:56.000    455571.5620   3639411.4571   5200659.4301   2   6   0.0566   0.1145   0.1640   0.0358   0.1011  -0.0324  26.00    2.5
2020/09/12 01:30:59.000    455571.5618   3639411.4508   5200659.4267   2   6   0.0588   0.1177   0.1734   0.0376   0.1026  -0.0377  29.00    2.5
2020/09/12 01:31:02.000    455571.5735   3639411.4706   5200659.4078   2   6   0.0456   0.0987   0.1148   0.0262   0.0930   0.0204   2.00    2.6
2020/09/12 01:31:07.000    455571.5729   3639411.4556   5200659.3982   2   6   0.0462   0.0995   0.1182   0.0267   0.0933   0.0176   7.00    2.7
2020/09/12 01:31:09.000    455571.5730   3639411.4507   5200659.3901   2   6   0.0467   0.1000   0.1204   0.0271   0.0934   0.0154   9.00    2.8
2020/09/12 01:31:12.000    455571.5733   3639411.4450   5200659.3926   2   6   0.0476   0.1012   0.1251   0.0279   0.0939   0.0097  12.00    2.8
2020/09/12 01:31:16.000    455571.5756   3639411.4466   5200659.3958   2   6   0.0494   0.1036   0.1334   0.0295   0.0949  -0.0128  16.00    2.8
2020/09/12 01:31:18.000    455571.5750   3639411.4476   5200659.3942   2   6   0.0504   0.1049   0.1381   0.0303   0.0954  -0.0179  18.00    2.8
2020/09/12 01:31:20.000    455571.5784   3639411.4432   5200659.3929   2   6   0.0515   0.1064   0.1433   0.0313   0.0960  -0.0223  20.00    2.8
2020/09/12 01:31:23.000    455571.5794   3639411.4436   5200659.3891   2   6   0.0533   0.1090   0.1517   0.0329   0.0972  -0.0282  23.00    2.8
2020/09/12 01:31:24.000    455571.5792   3639411.4452   5200659.3904   2   6   0.0539   0.1098   0.1545   0.0335   0.0974  -0.0301  24.00    2.7
2020/09/12 01:31:27.000    455571.5824   3639411.4450   5200659.3834   2   6   0.0561   0.1130   0.1638   0.0353   0.0989  -0.0354  27.00    2.7
2020/09/12 01:31:29.000    455571.5837   3639411.4453   5200659.3869   2   6   0.0576   0.1151   0.1703   0.0365   0.0998  -0.0389  29.00    2.7
2020/09/12 01:31:32.000    455571.5834   3639411.4568   5200659.4133   2   6   0.0439   0.0955   0.1101   0.0247   0.0901   0.0195   2.00    2.9
2020/09/12 01:31:34.000    455571.5842   3639411.4502   5200659.4106   2   6   0.0440   0.0955   0.1104   0.0248   0.0901   0.0190   4.00    3.0
2020/09/12 01:31:37.000    455571.6531   3639411.3118   5200659.1914   1   6   0.0109   0.0200   0.0380   0.0077   0.0139  -0.0116   7.00    3.0
2020/09/12 01:31:40.000    455571.6537   3639411.3103   5200659.2046   1   6   0.0142   0.0255   0.0497   0.0101   0.0175  -0.0158  10.00    3.0
2020/09/12 01:31:42.000    455571.6542   3639411.3119   5200659.2108   1   6   0.0166   0.0295   0.0579   0.0119   0.0201  -0.0187  12.00    3.1
2020/09/12 01:31:47.000    455571.6554   3639411.3125   5200659.2127   1   6   0.0227   0.0399   0.0790   0.0163   0.0269  -0.0262  17.00    3.1
2020/09/12 01:31:50.000    455571.6563   3639411.3119   5200659.2122   1   6   0.0265   0.0463   0.0919   0.0190   0.0311  -0.0307  20.00    3.2
2020/09/12 01:31:53.000    455571.6564   3639411.3142   5200659.2205   1   6   0.0303   0.0528   0.1050   0.0217   0.0353  -0.0352  23.00    3.2
2020/09/12 01:31:55.000    455571.6604   3639411.3212   5200659.2305   1   6   0.0328   0.0571   0.1137   0.0236   0.0382  -0.0382  25.00    3.2
2020/09/12 01:31:56.000    455571.6613   3639411.3225   5200659.2344   1   6   0.0341   0.0593   0.1181   0.0245   0.0396  -0.0397  26.00    3.3
2020/09/12 01:31:59.000    455571.6626   3639411.3235   5200659.2406   1   6   0.0379   0.0659   0.1312   0.0272   0.0439  -0.0443  29.00    3.3
2020/09/12 01:32:01.000    455571.6556   3639411.3162   5200659.1698   1   6   0.0061   0.0126   0.0218   0.0042   0.0092  -0.0053   1.00    3.5
2020/09/12 01:32:05.000    455571.6575   3639411.3216   5200659.1923   1   6   0.0088   0.0167   0.0310   0.0062   0.0118  -0.0091   5.00    3.8
2020/09/12 01:32:07.000    455571.6565   3639411.3216   5200659.1996   1   6   0.0109   0.0200   0.0380   0.0077   0.0139  -0.0118   7.00    4.0
2020/09/12 01:32:09.000    455571.6551   3639411.3214   5200659.2121   1   6   0.0131   0.0237   0.0457   0.0093   0.0162  -0.0146   9.00    3.8
2020/09/12 01:32:12.000    455571.6544   3639411.3244   5200659.2206   1   6   0.0167   0.0296   0.0579   0.0119   0.0200  -0.0190  12.00    3.7
2020/09/12 01:32:14.000    455571.6542   3639411.3258   5200659.2282   1   6   0.0191   0.0337   0.0662   0.0136   0.0226  -0.0220  14.00    3.6
2020/09/12 01:32:18.000    455571.6531   3639411.3256   5200659.2402   1   6   0.0241   0.0422   0.0833   0.0172   0.0281  -0.0281  18.00    3.6
2020/09/12 01:32:20.000    455571.6524   3639411.3261   5200659.2441   1   6   0.0266   0.0465   0.0919   0.0190   0.0308  -0.0311  20.00    3.5
2020/09/12 01:32:22.000    455571.6538   3639411.3263   5200659.2503   1   6   0.0291   0.0508   0.1006   0.0208   0.0336  -0.0342  22.00    3.5
2020/09/12 01:32:25.000    455571.6531   3639411.3297   5200659.2625   1   6   0.0329   0.0573   0.1137   0.0235   0.0379  -0.0388  25.00    3.4
2020/09/12 01:32:27.000    455571.6536   3639411.3288   5200659.2619   1   6   0.0355   0.0617   0.1224   0.0254   0.0407  -0.0419  27.00    3.4
2020/09/12 01:32:31.000    455571.6534   3639411.3224   5200659.1690   1   6   0.0062   0.0126   0.0218   0.0042   0.0092  -0.0054   1.00    3.5
2020/09/12 01:32:33.000    455571.6532   3639411.3196   5200659.1645   1   6   0.0071   0.0141   0.0253   0.0050   0.0101  -0.0069   3.00    3.6
2020/09/12 01:32:35.000    455571.6504   3639411.3114   5200659.1564   1   6   0.0089   0.0168   0.0311   0.0062   0.0117  -0.0093   5.00    3.6
2020/09/12 01:32:38.000    455571.6470   3639411.3086   5200659.1570   1   6   0.0120   0.0219   0.0418   0.0085   0.0149  -0.0134   8.00    3.6
2020/09/12 01:32:40.000    455571.6428   3639411.3111   5200659.1699   1   6   0.0143   0.0257   0.0497   0.0101   0.0173  -0.0163  10.00    3.6
2020/09/12 01:32:48.000    455571.6335   3639411.3060   5200659.1783   1   6   0.0241   0.0423   0.0833   0.0172   0.0278  -0.0285  18.00    3.6
2020/09/12 01:32:51.000    455571.6285   3639411.3042   5200659.1798   1   6   0.0279   0.0488   0.0962   0.0199   0.0320  -0.0331  21.00    3.7
2020/09/12 01:32:53.000    455571.6250   3639411.3000   5200659.1848   1   6   0.0305   0.0532   0.1049   0.0217   0.0348  -0.0362  23.00    3.7
2020/09/12 01:32:55.000    455571.6225   3639411.2969   5200659.1827   1   6   0.0330   0.0575   0.1136   0.0235   0.0375  -0.0393  25.00    3.7
2020/09/12 01:32:58.000    455571.6190   3639411.2961   5200659.1839   1   6   0.0369   0.0641   0.1268   0.0262   0.0418  -0.0440  28.00    3.7
2020/09/12 01:33:00.000    455571.6515   3639411.3202   5200659.1762   1   6   0.0062   0.0124   0.0213   0.0040   0.0090  -0.0053   0.00    3.7
2020/09/12 01:33:03.000    455571.6494   3639411.3195   5200659.1726   1   6   0.0072   0.0142   0.0253   0.0048   0.0101  -0.0070   3.00    3.8
2020/09/12 01:33:06.000    455571.6480   3639411.3175   5200659.1672   1   6   0.0099   0.0184   0.0345   0.0069   0.0126  -0.0108   6.00    3.9
2020/09/12 01:33:07.000    455571.6482   3639411.3148   5200659.1666   1   6   0.0110   0.0201   0.0381   0.0076   0.0137  -0.0122   7.00    3.9
2020/09/12 01:33:09.000    455571.6464   3639411.3143   5200659.1685   1   6   0.0132   0.0238   0.0457   0.0093   0.0160  -0.0151   9.00    3.9
2020/09/12 01:33:12.000    455571.6464   3639411.3142   5200659.1541   1   6   0.0168   0.0298   0.0579   0.0118   0.0197  -0.0196  12.00    4.0
2020/09/12 01:33:14.000    455571.6473   3639411.3120   5200659.1480   1   6   0.0192   0.0339   0.0662   0.0136   0.0223  -0.0226  14.00    4.1
2020/09/12 01:33:18.000    455571.6493   3639411.3136   5200659.1351   1   6   0.0242   0.0425   0.0833   0.0172   0.0276  -0.0289  18.00    4.2
2020/09/12 01:33:20.000    455571.6492   3639411.3121   5200659.1335   1   6   0.0268   0.0468   0.0919   0.0190   0.0303  -0.0320  20.00    4.2
2020/09/12 01:33:22.000    455571.6505   3639411.3157   5200659.1446   1   6   0.0293   0.0512   0.1005   0.0208   0.0331  -0.0351  22.00    4.2
2020/09/12 01:33:25.000    455571.6553   3639411.3189   5200659.1366   1   6   0.0331   0.0577   0.1136   0.0235   0.0372  -0.0398  25.00    4.3
2020/09/12 01:33:27.000    455571.6534   3639411.3224   5200659.1417   1   6   0.0357   0.0622   0.1223   0.0253   0.0400  -0.0430  27.00    4.3
2020/09/12 01:33:31.000    455571.6494   3639411.3240   5200659.1822   1   6   0.0061   0.0126   0.0218   0.0042   0.0092  -0.0056   1.00    4.3
2020/09/12 01:33:33.000    455571.6486   3639411.3251   5200659.1874   1   6   0.0072   0.0142   0.0253   0.0049   0.0101  -0.0072   3.00    4.2
2020/09/12 01:33:35.000    455571.6505   3639411.3241   5200659.1894   1   6   0.0090   0.0168   0.0311   0.0061   0.0116  -0.0096   5.00    4.2
2020/09/12 01:33:38.000    455571.6509   3639411.3225   5200659.1836   1   6   0.0121   0.0220   0.0418   0.0084   0.0147  -0.0138   8.00    4.2
2020/09/12 01:33:40.000    455571.6518   3639411.3242   5200659.1790   1   6   0.0144   0.0259   0.0497   0.0101   0.0171  -0.0168  10.00    4.2
2020/09/12 01:33:44.000    455571.6503   3639411.3215   5200659.1684   1   6   0.0193   0.0341   0.0662   0.0136   0.0221  -0.0229  14.00    4.3
2020/09/12 01:33:46.000    455571.6502   3639411.3231   5200659.1665   1   6   0.0218   0.0383   0.0747   0.0153   0.0247  -0.0261  16.00    4.4
2020/09/12 01:33:48.000    455571.6519   3639411.3191   5200659.1585   1   6   0.0243   0.0426   0.0832   0.0171   0.0274  -0.0292  18.00    4.4
2020/09/12 01:33:51.000    455571.6524   3639411.3187   5200659.1513   1   6   0.0281   0.0492   0.0962   0.0199   0.0315  -0.0340  21.00    4.4
2020/09/12 01:33:53.000    455571.6524   3639411.3187   5200659.1543   1   6   0.0307   0.0535   0.1048   0.0217   0.0342  -0.0372  23.00    4.4
2020/09/12 01:33:57.000    455571.6485   3639411.3165   5200659.1479   1   6   0.0358   0.0624   0.1223   0.0253   0.0397  -0.0436  27.00    4.4
2020/09/12 01:33:59.000    455571.6494   3639411.3184   5200659.1469   1   6   0.0384   0.0668   0.1310   0.0271   0.0424  -0.0468  29.00    4.4
2020/09/12 01:34:01.000    455571.6488   3639411.3247   5200659.1760   1   6   0.0061   0.0126   0.0218   0.0041   0.0091  -0.0057   1.00    4.5
2020/09/12 01:34:04.000    455571.6479   3639411.3263   5200659.1800   1   6   0.0080   0.0154   0.0280   0.0054   0.0107  -0.0084   4.00    4.6
2020/09/12 01:34:06.000    455571.6477   3639411.3264   5200659.1820   1   6   0.0099   0.0185   0.0345   0.0068   0.0125  -0.0111   6.00    4.7
2020/09/12 01:34:12.000    455571.6485   3639411.3237   5200659.1795   1   6   0.0169   0.0300   0.0578   0.0118   0.0194  -0.0201  12.00    4.7
2020/09/12 01:34:14.000    455571.6461   3639411.3261   5200659.1778   1   6   0.0194   0.0342   0.0662   0.0136   0.0219  -0.0232  14.00    4.7
2020/09/12 01:34:19.000    455571.6432   3639411.3175   5200659.1760   1   6   0.0257   0.0450   0.0875   0.0180   0.0285  -0.0312  19.00    4.8
2020/09/12 01:34:25.000    455571.6384   3639411.3050   5200659.1614   1   6   0.0334   0.0582   0.1135   0.0235   0.0366  -0.0408  25.00    4.8
2020/09/12 01:34:26.000    455571.6367   3639411.3088   5200659.1649   1   6   0.0347   0.0604   0.1178   0.0244   0.0380  -0.0425  26.00    4.8
2020/09/12 01:34:28.000    455571.6375   3639411.3017   5200659.1528   1   6   0.0373   0.0649   0.1265   0.0262   0.0407  -0.0457  28.00    4.9
2020/09/12 01:34:30.000    455571.6418   3639411.3293   5200659.1842   1   6   0.0061   0.0124   0.0214   0.0040   0.0090  -0.0056   0.00    4.9
2020/09/12 01:34:35.000    455571.6405   3639411.3331   5200659.1670   1   6   0.0090   0.0169   0.0311   0.0061   0.0115  -0.0098   5.00    5.0
2020/09/12 01:34:41.000    455571.6348   3639411.3240   5200659.1508   1   6   0.0157   0.0280   0.0537   0.0109   0.0180  -0.0188  11.00    5.0
2020/09/12 01:34:42.000    455571.6331   3639411.3223   5200659.1434   1   6   0.0169   0.0301   0.0578   0.0118   0.0192  -0.0203  12.00    5.1
2020/09/12 01:34:45.000    455571.6331   3639411.3213   5200659.1291   1   6   0.0207   0.0364   0.0703   0.0144   0.0230  -0.0251  15.00    5.1
2020/09/12 01:34:51.000    455571.6340   3639411.3254   5200659.1096   1   6   0.0283   0.0495   0.0960   0.0198   0.0309  -0.0348  21.00    5.1
2020/09/12 01:34:52.000    455571.6356   3639411.3290   5200659.1083   1   6   0.0296   0.0517   0.1004   0.0207   0.0323  -0.0364  22.00    5.2
2020/09/12 01:34:55.000    455571.6393   3639411.3349   5200659.1097   1   6   0.0335   0.0584   0.1134   0.0235   0.0363  -0.0413  25.00    5.3
2020/09/12 01:34:56.000    455571.6412   3639411.3386   5200659.1109   1   6   0.0348   0.0606   0.1177   0.0244   0.0377  -0.0430  26.00    5.3
2020/09/12 01:34:59.000    455571.6432   3639411.3430   5200659.1075   1   6   0.0387   0.0674   0.1308   0.0271   0.0417  -0.0479  29.00    5.3
2020/09/12 01:35:01.000    455571.6425   3639411.3323   5200659.1851   1   6   0.0062   0.0127   0.0219   0.0041   0.0091  -0.0059   1.00    5.5
2020/09/12 01:35:02.000    455571.6431   3639411.3355   5200659.1810   1   6   0.0067   0.0133   0.0233   0.0044   0.0094  -0.0065   2.00    5.4
2020/09/12 01:35:04.000    455571.6431   3639411.3371   5200659.1795   1   6   0.0081   0.0155   0.0281   0.0054   0.0106  -0.0087   4.00    5.3
2020/09/12 01:35:07.000    455571.6430   3639411.3399   5200659.1866   1   6   0.0111   0.0203   0.0381   0.0076   0.0134  -0.0128   7.00    5.2
2020/09/12 01:35:10.000    455571.6421   3639411.3451   5200659.2003   1   6   0.0146   0.0261   0.0496   0.0101   0.0167  -0.0174  10.00    5.1
2020/09/12 01:35:12.000    455571.6450   3639411.3496   5200659.1935   1   6   0.0170   0.0302   0.0578   0.0118   0.0191  -0.0206  12.00    5.0
2020/09/12 01:35:14.000    455571.6432   3639411.3516   5200659.1993   1   6   0.0195   0.0344   0.0661   0.0135   0.0216  -0.0238  14.00    4.9
2020/09/12 01:35:17.000    455571.6443   3639411.3589   5200659.2024   1   6   0.0233   0.0409   0.0788   0.0162   0.0254  -0.0286  17.00    4.8
2020/09/12 01:35:19.000    455571.6462   3639411.3630   5200659.2136   1   6   0.0259   0.0453   0.0873   0.0180   0.0280  -0.0319  19.00    4.7
2020/09/12 01:35:22.000    455571.6478   3639411.3694   5200659.2345   1   6   0.0297   0.0519   0.1003   0.0207   0.0320  -0.0368  22.00    4.7
2020/09/12 01:35:24.000    455571.6502   3639411.3676   5200659.2468   1   6   0.0323   0.0564   0.1089   0.0225   0.0347  -0.0401  24.00    4.7
2020/09/12 01:35:27.000    455571.6493   3639411.3743   5200659.2612   1   6   0.0362   0.0631   0.1220   0.0253   0.0387  -0.0451  27.00    4.7
2020/09/12 01:35:29.000    455571.6494   3639411.3755   5200659.2643   1   6   0.0388   0.0676   0.1307   0.0271   0.0414  -0.0484  29.00    4.7
2020/09/12 01:35:32.000    455571.6399   3639411.3296   5200659.1870   1   6   0.0067   0.0133   0.0233   0.0043   0.0094  -0.0067   2.00    4.9
2020/09/12 01:35:35.000    455571.6404   3639411.3316   5200659.1832   1   6   0.0090   0.0170   0.0311   0.0061   0.0114  -0.0101   5.00    5.0
2020/09/12 01:35:37.000    455571.6384   3639411.3276   5200659.1805   1   6   0.0111   0.0204   0.0381   0.0076   0.0133  -0.0130   7.00    5.1
2020/09/12 01:35:39.000    455571.6375   3639411.3297   5200659.1804   1   6   0.0134   0.0242   0.0457   0.0092   0.0154  -0.0160   9.00    5.1
2020/09/12 01:35:42.000    455571.6353   3639411.3309   5200659.1793   1   6   0.0170   0.0303   0.0577   0.0118   0.0190  -0.0208  12.00    5.2
2020/09/12 01:35:48.000    455571.6330   3639411.3283   5200659.1700   1   6   0.0247   0.0433   0.0830   0.0171   0.0265  -0.0306  18.00    5.2
2020/09/12 01:35:50.000    455571.6347   3639411.3277   5200659.1607   1   6   0.0272   0.0477   0.0916   0.0189   0.0291  -0.0339  20.00    5.2
2020/09/12 01:35:52.000    455571.6344   3639411.3260   5200659.1582   1   6   0.0298   0.0521   0.1002   0.0207   0.0317  -0.0372  22.00    5.3
2020/09/12 01:35:56.000    455571.6362   3639411.3327   5200659.1647   1   6   0.0350   0.0611   0.1175   0.0243   0.0370  -0.0439  26.00    5.3
2020/09/12 01:35:59.000    455571.6385   3639411.3334   5200659.1644   1   6   0.0390   0.0679   0.1306   0.0271   0.0410  -0.0489  29.00    5.4
2020/09/12 01:36:01.000    455571.6363   3639411.3307   5200659.1914   1   6   0.0062   0.0127   0.0219   0.0041   0.0090  -0.0061   1.00    5.6
2020/09/12 01:36:03.000    455571.6381   3639411.3318   5200659.1853   1   6   0.0073   0.0143   0.0254   0.0049   0.0099  -0.0077   3.00    5.8
2020/09/12 01:36:04.000    455571.6383   3639411.3336   5200659.1896   1   6   0.0081   0.0156   0.0281   0.0054   0.0105  -0.0089   4.00    6.0
2020/09/12 01:36:07.000    455571.6400   3639411.3347   5200659.1821   1   6   0.0111   0.0205   0.0381   0.0076   0.0132  -0.0131   7.00    6.2
2020/09/12 01:36:14.000    455571.6422   3639411.3381   5200659.1667   1   6   0.0196   0.0347   0.0660   0.0135   0.0213  -0.0243  14.00    6.3
2020/09/12 01:36:16.000    455571.6430   3639411.3427   5200659.1682   1   6   0.0222   0.0390   0.0744   0.0153   0.0238  -0.0276  16.00    6.3
2020/09/12 01:36:19.000    455571.6467   3639411.3448   5200659.1602   1   6   0.0260   0.0456   0.0872   0.0180   0.0276  -0.0326  19.00    6.5
2020/09/12 01:36:20.000    455571.6468   3639411.3448   5200659.1583   1   6   0.0273   0.0479   0.0915   0.0189   0.0289  -0.0343  20.00    6.6
2020/09/12 01:36:21.000    455571.6488   3639411.3485   5200659.1589   1   6   0.0286   0.0501   0.0958   0.0198   0.0302  -0.0359  21.00    6.7
2020/09/12 01:36:23.000    455571.6497   3639411.3456   5200659.1558   1   6   0.0312   0.0546   0.1044   0.0216   0.0328  -0.0393  23.00    6.8
2020/09/12 01:36:25.000    455571.6501   3639411.3441   5200659.1496   1   6   0.0339   0.0591   0.1130   0.0234   0.0354  -0.0426  25.00    6.8
2020/09/12 01:36:28.000    455571.6492   3639411.3410   5200659.1482   1   6   0.0378   0.0659   0.1261   0.0262   0.0393  -0.0477  28.00    6.9
2020/09/12 01:36:31.000    455571.6339   3639411.3343   5200659.1879   1   6   0.0062   0.0127   0.0219   0.0041   0.0090  -0.0062   1.00    7.2
2020/09/12 01:36:33.000    455571.6327   3639411.3342   5200659.1849   1   6   0.0073   0.0143   0.0254   0.0048   0.0098  -0.0078   3.00    7.4
2020/09/12 01:36:35.000    455571.6321   3639411.3311   5200659.1795   1   6   0.0090   0.0171   0.0311   0.0060   0.0113  -0.0103   5.00    7.6
2020/09/12 01:36:37.000    455571.6297   3639411.3289   5200659.1794   1   6   0.0112   0.0205   0.0380   0.0076   0.0131  -0.0133   7.00    7.7
2020/09/12 01:36:40.000    455571.6301   3639411.3262   5200659.1751   1   6   0.0147   0.0264   0.0496   0.0100   0.0164  -0.0180  10.00    7.8
2020/09/12 01:36:43.000    455571.6295   3639411.3207   5200659.1717   1   6   0.0184   0.0327   0.0618   0.0126   0.0199  -0.0229  13.00    7.9
2020/09/12 01:36:45.000    455571.6275   3639411.3184   5200659.1708   1   6   0.0210   0.0370   0.0701   0.0144   0.0223  -0.0262  15.00    8.0
2020/09/12 01:36:47.000    455571.6251   3639411.3156   5200659.1749   1   6   0.0235   0.0414   0.0786   0.0162   0.0248  -0.0295  17.00    8.1
2020/09/12 01:36:49.000    455571.6230   3639411.3161   5200659.1798   1   6   0.0261   0.0458   0.0871   0.0180   0.0274  -0.0329  19.00    8.2
2020/09/12 01:36:52.000    455571.6231   3639411.3174   5200659.1850   1   6   0.0300   0.0525   0.1000   0.0207   0.0312  -0.0380  22.00    8.2
2020/09/12 01:36:57.000    455571.6190   3639411.3083   5200659.1987   1   6   0.0366   0.0639   0.1216   0.0252   0.0377  -0.0464  27.00    8.3
2020/09/12 01:36:59.000    455571.6167   3639411.3036   5200659.2125   1   6   0.0392   0.0684   0.1302   0.0271   0.0403  -0.0498  29.00    8.3
2020/09/12 01:37:01.000    455571.6311   3639411.3256   5200659.1936   1   6   0.0063   0.0128   0.0220   0.0039   0.0089  -0.0063   1.00    8.6
2020/09/12 01:37:04.000    455571.6250   3639411.3194   5200659.2094   1   6   0.0081   0.0156   0.0281   0.0054   0.0105  -0.0091   4.00    8.8
2020/09/12 01:37:05.000    455571.6237   3639411.3170   5200659.2131   1   6   0.0090   0.0171   0.0311   0.0061   0.0112  -0.0104   5.00    9.0
2020/09/12 01:37:07.000    455571.6208   3639411.3141   5200659.2195   1   6   0.0112   0.0206   0.0380   0.0075   0.0131  -0.0134   7.00    9.2
2020/09/12 01:37:09.000    455571.6185   3639411.3077   5200659.2185   1   6   0.0135   0.0244   0.0456   0.0092   0.0151  -0.0165   9.00    9.3
2020/09/12 01:37:11.000    455571.6146   3639411.3026   5200659.2221   1   6   0.0160   0.0285   0.0535   0.0109   0.0174  -0.0198  11.00    9.4
2020/09/12 01:37:14.000    455571.6120   3639411.3010   5200659.2180   1   6   0.0198   0.0349   0.0658   0.0135   0.0209  -0.0248  14.00    9.4
2020/09/12 01:37:17.000    455571.6097   3639411.2961   5200659.2156   1   6   0.0236   0.0415   0.0785   0.0162   0.0246  -0.0298  17.00    9.5
2020/09/12 01:37:19.000    455571.6077   3639411.2930   5200659.2141   1   6   0.0262   0.0460   0.0870   0.0180   0.0271  -0.0332  19.00    9.6
2020/09/12 01:37:21.000    455571.6087   3639411.2931   5200659.2080   1   6   0.0288   0.0505   0.0955   0.0198   0.0297  -0.0366  21.00    9.7
2020/09/12 01:37:23.000    455571.6098   3639411.2922   5200659.2069   1   6   0.0315   0.0550   0.1041   0.0216   0.0322  -0.0400  23.00    9.7
2020/09/12 01:37:26.000    455571.6067   3639411.2916   5200659.1942   1   6   0.0354   0.0618   0.1171   0.0243   0.0361  -0.0451  26.00    9.8
2020/09/12 01:37:29.000    455571.6082   3639411.2889   5200659.1850   1   6   0.0394   0.0687   0.1301   0.0271   0.0399  -0.0503  29.00    9.9
2020/09/12 01:37:31.000    455571.6271   3639411.3248   5200659.1869   1   6   0.0063   0.0128   0.0220   0.0040   0.0089  -0.0063   1.00   10.2
2020/09/12 01:37:33.000    455571.6288   3639411.3299   5200659.1807   1   6   0.0074   0.0144   0.0254   0.0048   0.0098  -0.0080   3.00   10.5
2020/09/12 01:37:35.000    455571.6288   3639411.3241   5200659.1709   1   6   0.0091   0.0172   0.0311   0.0060   0.0112  -0.0106   5.00   10.6
2020/09/12 01:37:38.000    455571.6278   3639411.3184   5200659.1629   1   6   0.0124   0.0225   0.0417   0.0083   0.0140  -0.0151   8.00   10.8
2020/09/12 01:37:41.000    455571.6264   3639411.3183   5200659.1556   1   6   0.0160   0.0286   0.0535   0.0109   0.0173  -0.0200  11.00   10.9
2020/09/12 01:37:43.000    455571.6253   3639411.3166   5200659.1501   1   6   0.0185   0.0329   0.0616   0.0126   0.0196  -0.0233  13.00   10.9
2020/09/12 01:37:45.000    455571.6242   3639411.3145   5200659.1403   1   6   0.0211   0.0373   0.0699   0.0144   0.0220  -0.0267  15.00   10.9
2020/09/12 01:37:47.000    455571.6215   3639411.3134   5200659.1398   1   6   0.0237   0.0417   0.0784   0.0162   0.0244  -0.0301  17.00   11.0
2020/09/12 01:37:50.000    455571.6208   3639411.3116   5200659.1273   1   6   0.0276   0.0484   0.0911   0.0189   0.0282  -0.0352  20.00   11.0
2020/09/12 01:37:53.000    455571.6225   3639411.3086   5200659.1157   1   6   0.0316   0.0552   0.1040   0.0216   0.0319  -0.0404  23.00   11.0
2020/09/12 01:37:55.000    455571.6215   3639411.3104   5200659.1119   1   6   0.0342   0.0598   0.1126   0.0234   0.0345  -0.0438  25.00   10.9
2020/09/12 01:37:57.000    455571.6238   3639411.3128   5200659.1046   1   6   0.0369   0.0644   0.1212   0.0252   0.0370  -0.0473  27.00   10.9
2020/09/12 01:37:59.000    455571.6239   3639411.3114   5200659.1017   1   6   0.0395   0.0690   0.1299   0.0271   0.0396  -0.0507  29.00   10.8
2020/09/12 01:38:02.000    455571.6264   3639411.3251   5200659.1855   1   6   0.0067   0.0134   0.0234   0.0043   0.0092  -0.0071   2.00   10.8
2020/09/12 01:38:05.000    455571.6248   3639411.3244   5200659.1803   1   6   0.0091   0.0172   0.0311   0.0060   0.0111  -0.0107   5.00   10.7
2020/09/12 01:38:07.000    455571.6237   3639411.3175   5200659.1705   1   6   0.0113   0.0207   0.0380   0.0075   0.0129  -0.0137   7.00   10.6
2020/09/12 01:38:09.000    455571.6202   3639411.3173   5200659.1685   1   6   0.0136   0.0246   0.0455   0.0092   0.0149  -0.0169   9.00   10.5
2020/09/12 01:38:11.000    455571.6178   3639411.3159   5200659.1635   1   6   0.0161   0.0287   0.0534   0.0109   0.0171  -0.0201  11.00   10.4
2020/09/12 01:38:14.000    455571.6163   3639411.3118   5200659.1497   1   6   0.0199   0.0352   0.0657   0.0135   0.0206  -0.0252  14.00   10.3
2020/09/12 01:38:17.000    455571.6123   3639411.3092   5200659.1497   1   6   0.0238   0.0418   0.0783   0.0162   0.0242  -0.0303  17.00   10.2
2020/09/12 01:38:19.000    455571.6076   3639411.3090   5200659.1458   1   6   0.0264   0.0463   0.0867   0.0180   0.0267  -0.0338  19.00   10.1
2020/09/12 01:38:21.000    455571.6076   3639411.3069   5200659.1412   1   6   0.0290   0.0509   0.0953   0.0198   0.0292  -0.0372  21.00   10.1
2020/09/12 01:38:23.000    455571.6069   3639411.3046   5200659.1383   1   6   0.0317   0.0554   0.1038   0.0216   0.0317  -0.0407  23.00   10.0
2020/09/12 01:38:26.000    455571.6051   3639411.3048   5200659.1327   1   6   0.0357   0.0623   0.1167   0.0243   0.0354  -0.0459  26.00   10.0
2020/09/12 01:38:29.000    455571.6037   3639411.2976   5200659.1244   1   6   0.0397   0.0692   0.1296   0.0271   0.0392  -0.0511  29.00    9.9
2020/09/12 01:38:31.000    455571.6212   3639411.3297   5200659.1926   1   6   0.0064   0.0128   0.0220   0.0039   0.0089  -0.0065   1.00    9.8
2020/09/12 01:38:33.000    455571.6216   3639411.3312   5200659.1939   1   6   0.0074   0.0145   0.0255   0.0047   0.0097  -0.0082   3.00    9.7
2020/09/12 01:38:39.000    455571.6185   3639411.3251   5200659.1947   1   6   0.0137   0.0247   0.0455   0.0092   0.0148  -0.0170   9.00    9.7
2020/09/12 01:38:41.000    455571.6174   3639411.3272   5200659.1975   1   6   0.0161   0.0288   0.0533   0.0109   0.0170  -0.0203  11.00    9.6
2020/09/12 01:38:46.000    455571.6163   3639411.3225   5200659.1888   1   6   0.0225   0.0398   0.0739   0.0153   0.0228  -0.0288  16.00    9.5
2020/09/12 01:38:50.000    455571.6143   3639411.3251   5200659.1981   1   6   0.0278   0.0488   0.0908   0.0189   0.0277  -0.0358  20.00    9.4
2020/09/12 01:38:52.000    455571.6101   3639411.3227   5200659.1997   1   6   0.0305   0.0534   0.0994   0.0207   0.0302  -0.0393  22.00    9.3
2020/09/12 01:38:53.000    455571.6092   3639411.3224   5200659.2046   1   6   0.0318   0.0557   0.1036   0.0216   0.0314  -0.0410  23.00    9.3
2020/09/12 01:38:55.000    455571.6084   3639411.3162   5200659.2007   1   6   0.0344   0.0603   0.1122   0.0234   0.0339  -0.0445  25.00    9.1
2020/09/12 01:38:56.000    455571.6063   3639411.3164   5200659.2001   1   6   0.0358   0.0626   0.1165   0.0243   0.0351  -0.0463  26.00    9.1
2020/09/12 01:38:59.000    455571.6057   3639411.3168   5200659.1945   1   6   0.0398   0.0695   0.1294   0.0271   0.0389  -0.0515  29.00    9.0
2020/09/12 01:39:02.000    455571.6200   3639411.3336   5200659.1914   1   6   0.0067   0.0135   0.0234   0.0042   0.0092  -0.0072   2.00    9.0
2020/09/12 01:39:04.000    455571.6194   3639411.3380   5200659.1909   1   6   0.0083   0.0158   0.0281   0.0053   0.0103  -0.0095   4.00    9.0
2020/09/12 01:39:06.000    455571.6193   3639411.3338   5200659.1840   1   6   0.0102   0.0190   0.0344   0.0067   0.0119  -0.0123   6.00    9.0
2020/09/12 01:39:08.000    455571.6174   3639411.3358   5200659.1762   1   6   0.0125   0.0228   0.0416   0.0083   0.0137  -0.0155   8.00    9.0
2020/09/12 01:39:11.000    455571.6195   3639411.3338   5200659.1590   1   6   0.0162   0.0289   0.0533   0.0109   0.0169  -0.0205  11.00    9.0
2020/09/12 01:39:14.000    455571.6176   3639411.3323   5200659.1484   1   6   0.0200   0.0355   0.0655   0.0135   0.0203  -0.0256  14.00    8.9
2020/09/12 01:39:16.000    455571.6196   3639411.3351   5200659.1487   1   6   0.0226   0.0399   0.0738   0.0153   0.0226  -0.0291  16.00    8.9
2020/09/12 01:39:18.000    455571.6183   3639411.3324   5200659.1466   1   6   0.0252   0.0444   0.0822   0.0171   0.0250  -0.0326  18.00    8.8
2020/09/12 01:39:21.000    455571.6183   3639411.3406   5200659.1486   1   6   0.0292   0.0513   0.0949   0.0198   0.0287  -0.0378  21.00    8.8
2020/09/12 01:39:24.000    455571.6190   3639411.3412   5200659.1451   1   6   0.0332   0.0582   0.1077   0.0225   0.0324  -0.0431  24.00    8.7
2020/09/12 01:39:26.000    455571.6213   3639411.3423   5200659.1396   1   6   0.0359   0.0628   0.1163   0.0243   0.0348  -0.0466  26.00    8.7
2020/09/12 01:39:28.000    455571.6211   3639411.3458   5200659.1419   1   6   0.0386   0.0675   0.1249   0.0262   0.0373  -0.0501  28.00    8.6
2020/09/12 01:39:31.000    455571.6157   3639411.3340   5200659.1970   1   6   0.0063   0.0128   0.0220   0.0040   0.0089  -0.0067   1.00    8.5
2020/09/12 01:39:33.000    455571.6174   3639411.3370   5200659.2004   1   6   0.0075   0.0145   0.0255   0.0047   0.0096  -0.0083   3.00    8.4
2020/09/12 01:39:36.000    455571.6173   3639411.3392   5200659.1911   1   6   0.0102   0.0191   0.0344   0.0067   0.0118  -0.0124   6.00    8.4
2020/09/12 01:39:38.000    455571.6180   3639411.3404   5200659.1889   1   6   0.0126   0.0229   0.0416   0.0083   0.0137  -0.0156   8.00    8.4
2020/09/12 01:39:40.000    455571.6178   3639411.3407   5200659.1879   1   6   0.0150   0.0269   0.0492   0.0100   0.0157  -0.0189  10.00    8.4
2020/09/12 01:39:43.000    455571.6204   3639411.3410   5200659.1817   1   6   0.0188   0.0334   0.0613   0.0126   0.0190  -0.0241  13.00    8.4
2020/09/12 01:39:45.000    455571.6212   3639411.3445   5200659.1789   1   6   0.0214   0.0378   0.0695   0.0144   0.0213  -0.0275  15.00    8.3
2020/09/12 01:39:48.000    455571.6227   3639411.3423   5200659.1723   1   6   0.0253   0.0446   0.0821   0.0171   0.0248  -0.0328  18.00    8.3
2020/09/12 01:39:53.000    455571.6220   3639411.3433   5200659.1716   1   6   0.0320   0.0561   0.1033   0.0216   0.0309  -0.0416  23.00    8.2
2020/09/12 01:39:55.000    455571.6199   3639411.3415   5200659.1712   1   6   0.0347   0.0608   0.1118   0.0234   0.0333  -0.0452  25.00    8.2
2020/09/12 01:39:57.000    455571.6210   3639411.3449   5200659.1699   1   6   0.0374   0.0654   0.1204   0.0252   0.0358  -0.0487  27.00    8.2
2020/09/12 01:40:01.000    455571.6156   3639411.3387   5200659.2022   1   6   0.0064   0.0129   0.0220   0.0040   0.0088  -0.0068   1.00    7.9
2020/09/12 01:40:02.000    455571.6163   3639411.3374   5200659.1995   1   6   0.0068   0.0135   0.0234   0.0043   0.0091  -0.0074   2.00    7.7
2020/09/12 01:40:03.000    455571.6169   3639411.3367   5200659.2036   1   6   0.0074   0.0146   0.0255   0.0048   0.0096  -0.0085   3.00    7.6
2020/09/12 01:40:05.000    455571.6162   3639411.3349   5200659.2018   1   6   0.0092   0.0174   0.0311   0.0060   0.0110  -0.0111   5.00    7.4
2020/09/12 01:40:08.000    455571.6167   3639411.3307   5200659.2063   1   6   0.0126   0.0229   0.0415   0.0083   0.0136  -0.0157   8.00    7.3
2020/09/12 01:40:11.000    455571.6173   3639411.3321   5200659.2105   1   6   0.0163   0.0292   0.0531   0.0109   0.0167  -0.0208  11.00    7.2
2020/09/12 01:40:14.000    455571.6178   3639411.3329   5200659.2068   1   6   0.0201   0.0357   0.0653   0.0135   0.0200  -0.0260  14.00    7.1
2020/09/12 01:40:16.000    455571.6169   3639411.3340   5200659.2147   1   6   0.0228   0.0402   0.0735   0.0153   0.0223  -0.0295  16.00    7.0
2020/09/12 01:40:18.000    455571.6180   3639411.3326   5200659.2112   1   6   0.0254   0.0448   0.0819   0.0171   0.0246  -0.0330  18.00    6.9
2020/09/12 01:40:20.000    455571.6183   3639411.3308   5200659.2151   1   6   0.0281   0.0494   0.0903   0.0189   0.0270  -0.0365  20.00    6.9
2020/09/12 01:40:23.000    455571.6153   3639411.3307   5200659.2180   1   6   0.0321   0.0563   0.1031   0.0216   0.0306  -0.0419  23.00    6.8
2020/09/12 01:40:26.000    455571.6141   3639411.3283   5200659.2208   1   6   0.0361   0.0633   0.1158   0.0243   0.0343  -0.0472  26.00    6.8
2020/09/12 01:40:28.000    455571.6151   3639411.3262   5200659.2163   1   6   0.0388   0.0680   0.1244   0.0262   0.0367  -0.0508  28.00    6.7
2020/09/12 01:40:30.000    455571.6139   3639411.3390   5200659.1996   1   6   0.0061   0.0127   0.0216   0.0036   0.0087  -0.0065   0.00    6.5
2020/09/12 01:40:32.000    455571.6131   3639411.3385   5200659.1994   1   6   0.0067   0.0136   0.0234   0.0042   0.0091  -0.0075   2.00    6.5
2020/09/12 01:40:35.000    455571.6112   3639411.3366   5200659.2015   1   6   0.0092   0.0175   0.0310   0.0060   0.0109  -0.0111   5.00    6.5
2020/09/12 01:40:38.000    455571.6063   3639411.3354   5200659.2074   1   6   0.0126   0.0230   0.0415   0.0083   0.0135  -0.0158   8.00    6.6
2020/09/12 01:40:40.000    455571.6045   3639411.3367   5200659.2138   1   6   0.0151   0.0271   0.0491   0.0100   0.0155  -0.0192  10.00    6.7
2020/09/12 01:40:42.000    455571.6041   3639411.3388   5200659.2183   1   6   0.0176   0.0314   0.0570   0.0117   0.0176  -0.0226  12.00    6.8
2020/09/12 01:40:44.000    455571.6013   3639411.3423   5200659.2295   1   6   0.0202   0.0359   0.0651   0.0135   0.0199  -0.0261  14.00    7.0
2020/09/12 01:40:50.000    455571.5951   3639411.3406   5200659.2499   1   6   0.0282   0.0496   0.0901   0.0189   0.0268  -0.0368  20.00    7.0
2020/09/12 01:40:52.000    455571.5922   3639411.3399   5200659.2548   1   6   0.0308   0.0542   0.0986   0.0207   0.0292  -0.0404  22.00    7.1
2020/09/12 01:40:54.000    455571.5898   3639411.3398   5200659.2594   1   6   0.0335   0.0589   0.1071   0.0225   0.0316  -0.0439  24.00    7.1
2020/09/12 01:40:56.000    455571.5890   3639411.3362   5200659.2577   1   6   0.0362   0.0636   0.1156   0.0243   0.0340  -0.0475  26.00    7.2
2020/09/12 01:40:58.000    455571.5884   3639411.3371   5200659.2577   1   6   0.0389   0.0683   0.1241   0.0261   0.0364  -0.0511  28.00    7.2
2020/09/12 01:41:01.000    455571.6086   3639411.3399   5200659.2084   1   6   0.0063   0.0129   0.0221   0.0038   0.0088  -0.0068   1.00    7.2
2020/09/12 01:41:03.000    455571.6060   3639411.3340   5200659.2015   1   6   0.0075   0.0146   0.0255   0.0047   0.0095  -0.0086   3.00    7.1
2020/09/12 01:41:05.000    455571.6025   3639411.3309   5200659.1948   1   6   0.0092   0.0175   0.0310   0.0059   0.0109  -0.0112   5.00    7.1
2020/09/12 01:41:07.000    455571.5999   3639411.3265   5200659.1913   1   6   0.0114   0.0211   0.0378   0.0075   0.0125  -0.0143   7.00    7.1
2020/09/12 01:41:10.000    455571.5969   3639411.3228   5200659.1863   1   6   0.0151   0.0272   0.0490   0.0100   0.0154  -0.0193  10.00    7.2
2020/09/12 01:41:13.000    455571.5946   3639411.3264   5200659.1877   1   6   0.0189   0.0338   0.0609   0.0126   0.0186  -0.0245  13.00    7.2
2020/09/12 01:41:15.000    455571.5929   3639411.3234   5200659.1878   1   6   0.0216   0.0383   0.0691   0.0144   0.0208  -0.0281  15.00    7.3
2020/09/12 01:41:17.000    455571.5927   3639411.3284   5200659.1894   1   6   0.0242   0.0428   0.0774   0.0162   0.0231  -0.0316  17.00    7.3
2020/09/12 01:41:20.000    455571.5978   3639411.3332   5200659.1860   1   6   0.0282   0.0498   0.0899   0.0189   0.0266  -0.0370  20.00    7.3
2020/09/12 01:41:23.000    455571.6020   3639411.3404   5200659.1929   1   6   0.0323   0.0568   0.1026   0.0216   0.0301  -0.0424  23.00    7.3
2020/09/12 01:41:26.000    455571.6032   3639411.3459   5200659.1990   1   6   0.0364   0.0639   0.1153   0.0243   0.0337  -0.0478  26.00    7.4
2020/09/12 01:41:28.000    455571.6073   3639411.3454   5200659.1918   1   6   0.0391   0.0686   0.1238   0.0261   0.0361  -0.0514  28.00    7.4
2020/09/12 01:41:30.000    455571.6091   3639411.3421   5200659.2046   1   6   0.0061   0.0127   0.0216   0.0038   0.0087  -0.0067   0.00    7.3
2020/09/12 01:41:32.000    455571.6107   3639411.3466   5200659.1998   1   6   0.0068   0.0136   0.0234   0.0041   0.0091  -0.0076   2.00    7.1
2020/09/12 01:41:35.000    455571.6128   3639411.3533   5200659.1908   1   6   0.0093   0.0176   0.0310   0.0059   0.0108  -0.0113   5.00    7.0
