% program   : rnx2rtkp ver.2.4.3 b33
% inp file  : /home/danisimo/post/R1_193.2020-111.2021/R00107918.21o
% inp file  : /home/danisimo/post/NSK1_193.2020-111.2021/NSK10790.21o
% inp file  : /home/danisimo/post/NSK1_193.2020-111.2021/NSK10790.21N
% obs start : 2021/03/20 02:24:41.0 GPST (week2149 527081.0s)
% obs end   : 2021/03/20 12:12:08.0 GPST (week2149 562328.0s)
% ref pos   :   447670.3040   3638117.3850   5202281.5640
%
% (x/y/z-ecef=WGS84,Q=1:fix,2:float,3:sbas,4:dgps,5:single,6:ppp,ns=# of satellites)
%  GPST                      x-ecef(m)      y-ecef(m)      z-ecef(m)   Q  ns   sdx(m)   sdy(m)   sdz(m)  sdxy(m)  sdyz(m)  sdzx(m) age(s)  ratio
2021/03/20 02:24:41.003    455571.6242   3639411.6936   5200658.9387   2   8   0.5680   1.0073   1.2817   0.1826   0.8880   0.2958  11.00    0.0
2021/03/20 02:24:41.503    455571.6249   3639411.6886   5200658.9569   2   8   0.4042   0.7172   0.9121   0.1328   0.6319   0.2102  11.50    0.0
2021/03/20 02:24:42.003    455571.6437   3639411.7910   5200659.0782   2   8   0.3307   0.5871   0.7464   0.1094   0.5171   0.1720  12.00    0.0
2021/03/20 02:24:42.503    455571.6432   3639411.8182   5200659.0974   2   8   0.2868   0.5091   0.6473   0.0951   0.4484   0.1491  12.50    0.0
2021/03/20 02:24:43.003    455571.6302   3639411.8499   5200659.1354   2   8   0.2568   0.4558   0.5795   0.0852   0.4014   0.1334  13.00    0.0
2021/03/20 02:24:44.003    455571.6493   3639411.8827   5200659.1538   2   8   0.2346   0.4165   0.5293   0.0778   0.3667   0.1219  14.00    0.0
2021/03/20 02:24:46.003    455571.6563   3639411.9259   5200659.1417   2   8   0.2175   0.3860   0.4904   0.0719   0.3397   0.1129  16.00    0.0
2021/03/20 02:24:47.503    455571.6506   3639411.9755   5200659.1406   2   8   0.2037   0.3614   0.4591   0.0671   0.3180   0.1057  17.50    0.0
2021/03/20 02:24:52.000    455571.6464   3639412.0306   5200659.2542   2   8   0.1926   0.3415   0.4334   0.0626   0.3002   0.0998  22.00    0.0
2021/03/20 02:24:55.000    455571.7291   3639412.8087   5200659.6636   2   8   0.5688   1.0074   1.2815   0.1812   0.8871   0.2954  25.00    1.2
2021/03/20 02:24:57.000    455571.7008   3639412.6630   5200659.6408   2   8   0.4051   0.7178   0.9126   0.1314   0.6316   0.2101  27.00    1.2
2021/03/20 02:24:59.000    455571.6273   3639412.3795   5200659.4853   2   8   0.3320   0.5881   0.7475   0.1079   0.5173   0.1720  29.00    1.3
2021/03/20 02:25:02.000    455571.6129   3639412.2244   5200659.4705   2   8   0.2873   0.5090   0.6464   0.0940   0.4473   0.1486   2.00    1.0
2021/03/20 02:25:05.000    455571.6035   3639412.0899   5200659.4697   2   8   0.2570   0.4553   0.5779   0.0841   0.3999   0.1328   5.00    1.2
2021/03/20 02:25:09.000    455571.6206   3639412.0169   5200659.4343   2   8   0.2348   0.4158   0.5272   0.0765   0.3648   0.1210   9.00    1.2
2021/03/20 02:25:10.000    455571.6143   3639411.9694   5200659.3867   2   8   0.2175   0.3851   0.4881   0.0709   0.3377   0.1120  10.00    1.2
2021/03/20 02:25:12.000    455571.6266   3639411.9388   5200659.3092   2   8   0.2036   0.3604   0.4566   0.0661   0.3159   0.1047  12.00    1.2
2021/03/20 02:25:19.000    455571.6090   3639411.9071   5200659.2852   2   8   0.1925   0.3405   0.4307   0.0615   0.2981   0.0988  19.00    1.2
2021/03/20 02:25:22.000    455571.5940   3639411.9103   5200659.2470   2   8   0.1831   0.3236   0.4091   0.0579   0.2831   0.0938  22.00    1.1
2021/03/20 02:25:24.000    455571.5915   3639411.9077   5200659.2492   2   8   0.1750   0.3090   0.3905   0.0549   0.2703   0.0895  24.00    1.1
2021/03/20 02:25:25.000    455571.5828   3639411.8876   5200659.2586   2   8   0.1678   0.2963   0.3744   0.0523   0.2591   0.0858  25.00    1.2
2021/03/20 02:25:26.000    455571.5649   3639411.8699   5200659.2741   2   8   0.1616   0.2851   0.3602   0.0500   0.2493   0.0826  26.00    1.2
2021/03/20 02:25:29.000    455571.5458   3639411.8680   5200659.3128   2   8   0.1564   0.2757   0.3481   0.0475   0.2409   0.0798  29.00    1.3
2021/03/20 02:25:32.000    455571.5359   3639411.8821   5200659.3191   2   8   0.1486   0.2614   0.3266   0.0466   0.2262   0.0742   2.00    1.4
2021/03/20 02:25:34.000    455571.5368   3639411.8754   5200659.3217   2   8   0.1439   0.2527   0.3140   0.0447   0.2178   0.0710   4.00    1.5
2021/03/20 02:25:36.000    455571.5454   3639411.8673   5200659.3200   2   8   0.1397   0.2450   0.3037   0.0431   0.2107   0.0685   6.00    1.6
2021/03/20 02:25:39.000    455571.5471   3639411.8811   5200659.3219   2   8   0.1359   0.2382   0.2949   0.0416   0.2047   0.0665   9.00    1.6
2021/03/20 02:25:42.000    455571.5484   3639411.8941   5200659.3162   2   8   0.1325   0.2322   0.2872   0.0401   0.1994   0.0647  12.00    1.6
2021/03/20 02:25:45.000    455571.5434   3639411.8892   5200659.3332   2   8   0.1295   0.2268   0.2804   0.0387   0.1947   0.0632  15.00    1.7
2021/03/20 02:25:47.000    455571.5475   3639411.8547   5200659.3295   2   8   0.1267   0.2218   0.2742   0.0375   0.1903   0.0618  17.00    1.7
2021/03/20 02:25:49.000    455571.5538   3639411.8377   5200659.3290   2   8   0.1241   0.2172   0.2685   0.0363   0.1864   0.0605  19.00    1.8
2021/03/20 02:25:52.000    455571.5705   3639411.8132   5200659.3111   2   8   0.1220   0.2133   0.2637   0.0349   0.1830   0.0595  22.00    1.8
2021/03/20 02:25:55.000    455571.5753   3639411.8067   5200659.3079   2   8   0.1201   0.2098   0.2594   0.0335   0.1801   0.0586  25.00    1.8
2021/03/20 02:25:58.000    455571.5773   3639411.8046   5200659.2986   2   8   0.1184   0.2067   0.2556   0.0320   0.1774   0.0578  28.00    1.8
2021/03/20 02:26:00.000    455571.5717   3639411.7893   5200659.2683   2   8   0.1128   0.1963   0.2388   0.0329   0.1660   0.0531   0.00    1.9
2021/03/20 02:26:02.000    455571.5696   3639411.7904   5200659.2479   2   8   0.1107   0.1918   0.2308   0.0317   0.1608   0.0509   2.00    1.9
2021/03/20 02:26:05.000    455571.5690   3639411.7929   5200659.2334   2   8   0.1087   0.1881   0.2251   0.0307   0.1570   0.0493   5.00    1.9
2021/03/20 02:26:11.000    455571.5754   3639411.7874   5200659.2364   2   8   0.1073   0.1855   0.2215   0.0295   0.1546   0.0485  11.00    1.9
2021/03/20 02:26:13.000    455571.5624   3639411.7813   5200659.2268   2   8   0.1057   0.1827   0.2181   0.0288   0.1523   0.0477  13.00    2.0
2021/03/20 02:26:15.000    455571.5536   3639411.7848   5200659.2367   2   8   0.1043   0.1802   0.2151   0.0280   0.1501   0.0470  15.00    2.0
2021/03/20 02:26:18.000    455571.5511   3639411.7833   5200659.2290   2   8   0.1032   0.1781   0.2127   0.0269   0.1485   0.0466  18.00    2.0
2021/03/20 02:26:21.000    455571.5494   3639411.7801   5200659.2091   2   8   0.1022   0.1764   0.2107   0.0258   0.1471   0.0462  21.00    1.9
2021/03/20 02:26:24.000    455571.5538   3639411.7691   5200659.1760   2   8   0.1015   0.1749   0.2092   0.0246   0.1460   0.0460  24.00    1.8
2021/03/20 02:26:26.000    455571.5589   3639411.7729   5200659.1505   2   8   0.1006   0.1733   0.2074   0.0236   0.1448   0.0457  26.00    1.8
2021/03/20 02:26:28.000    455571.5583   3639411.7877   5200659.1197   2   8   0.0998   0.1719   0.2060   0.0225   0.1437   0.0455  28.00    1.6
2021/03/20 02:26:31.000    455571.5613   3639411.7950   5200659.1442   2   8   0.0944   0.1620   0.1894   0.0249   0.1325   0.0407   1.00    1.7
2021/03/20 02:26:34.000    455571.5698   3639411.7908   5200659.1527   2   8   0.0932   0.1593   0.1840   0.0240   0.1291   0.0390   4.00    1.7
2021/03/20 02:26:37.000    455571.5810   3639411.7941   5200659.1612   2   8   0.0921   0.1572   0.1806   0.0232   0.1269   0.0380   7.00    1.7
2021/03/20 02:26:39.000    455571.5943   3639411.7922   5200659.1733   2   8   0.0911   0.1553   0.1779   0.0226   0.1252   0.0373   9.00    1.7
2021/03/20 02:26:41.000    455571.5928   3639411.7916   5200659.1901   2   8   0.0903   0.1537   0.1758   0.0220   0.1237   0.0368  11.00    1.7
2021/03/20 02:26:44.000    455571.6019   3639411.7847   5200659.2118   2   8   0.0896   0.1525   0.1745   0.0212   0.1228   0.0365  14.00    1.8
2021/03/20 02:26:47.000    455571.6055   3639411.7930   5200659.2201   2   8   0.0891   0.1516   0.1736   0.0202   0.1221   0.0364  17.00    1.7
2021/03/20 02:26:50.000    455571.6105   3639411.8031   5200659.2306   2   8   0.0888   0.1509   0.1730   0.0191   0.1217   0.0364  20.00    1.7
2021/03/20 02:26:52.000    455571.6159   3639411.8027   5200659.2362   2   8   0.0883   0.1501   0.1723   0.0182   0.1212   0.0364  22.00    1.7
2021/03/20 02:26:54.000    455571.6260   3639411.8003   5200659.2404   2   8   0.0880   0.1494   0.1718   0.0172   0.1208   0.0364  24.00    1.7
2021/03/20 02:26:57.000    455571.6382   3639411.8121   5200659.2414   2   8   0.0880   0.1494   0.1721   0.0155   0.1210   0.0367  27.00    1.6
2021/03/20 02:27:00.000    455571.6534   3639411.8194   5200659.2692   2   8   0.0827   0.1397   0.1558   0.0194   0.1100   0.0318   0.00    1.7
2021/03/20 02:27:03.000    455571.6567   3639411.8052   5200659.2383   2   8   0.0818   0.1375   0.1509   0.0186   0.1070   0.0302   3.00    1.7
2021/03/20 02:27:05.000    455571.6615   3639411.7994   5200659.2208   2   8   0.0811   0.1359   0.1478   0.0181   0.1050   0.0291   5.00    1.7
2021/03/20 02:27:07.000    455571.6629   3639411.7898   5200659.2082   2   8   0.0804   0.1345   0.1456   0.0176   0.1036   0.0285   7.00    1.7
2021/03/20 02:27:10.000    455571.6661   3639411.7815   5200659.1942   2   8   0.0799   0.1337   0.1445   0.0169   0.1029   0.0282  10.00    1.7
2021/03/20 02:27:13.000    455571.6668   3639411.7854   5200659.1797   2   8   0.0796   0.1331   0.1440   0.0161   0.1025   0.0282  13.00    1.6
2021/03/20 02:27:18.000    455571.6693   3639411.7838   5200659.1802   2   8   0.0799   0.1335   0.1449   0.0144   0.1031   0.0286  18.00    1.6
2021/03/20 02:27:20.000    455571.6726   3639411.7799   5200659.1772   2   8   0.0797   0.1331   0.1449   0.0134   0.1031   0.0288  20.00    1.6
2021/03/20 02:27:23.000    455571.6732   3639411.7776   5200659.1702   2   8   0.0799   0.1334   0.1457   0.0117   0.1035   0.0292  23.00    1.6
2021/03/20 02:27:26.000    455571.6775   3639411.7685   5200659.1593   2   8   0.0802   0.1338   0.1467   0.0094   0.1042   0.0297  26.00    1.6
2021/03/20 02:27:32.000    455571.6791   3639411.7706   5200659.1567   2   8   0.0750   0.1246   0.1313   0.0152   0.0938   0.0248   2.00    1.6
2021/03/20 02:27:34.000    455571.6778   3639411.7633   5200659.1329   2   8   0.0744   0.1230   0.1278   0.0147   0.0917   0.0235   4.00    1.6
2021/03/20 02:27:37.000    455571.6768   3639411.7623   5200659.1175   2   8   0.0740   0.1221   0.1261   0.0142   0.0906   0.0229   7.00    1.5
2021/03/20 02:27:39.000    455571.6778   3639411.7570   5200659.1035   2   8   0.0736   0.1213   0.1249   0.0137   0.0899   0.0226   9.00    1.5
2021/03/20 02:27:42.000    455571.6805   3639411.7495   5200659.0922   2   8   0.0734   0.1210   0.1247   0.0129   0.0898   0.0226  12.00    1.5
2021/03/20 02:27:44.000    455571.6773   3639411.7411   5200659.0758   2   8   0.0732   0.1206   0.1245   0.0121   0.0896   0.0226  14.00    1.5
2021/03/20 02:27:47.000    455571.6700   3639411.7413   5200659.0594   2   8   0.0733   0.1208   0.1251   0.0108   0.0900   0.0230  17.00    1.5
2021/03/20 02:27:50.000    455571.6696   3639411.7398   5200659.0475   2   8   0.0736   0.1211   0.1261   0.0089   0.0906   0.0235  20.00    1.5
2021/03/20 02:27:51.000    455571.6658   3639411.7397   5200659.0373   2   8   0.0734   0.1208   0.1260   0.0081   0.0905   0.0236  21.00    1.5
2021/03/20 02:27:53.000    455571.6639   3639411.7303   5200659.0275   2   8   0.0735   0.1210   0.1267   0.0060   0.0910   0.0240  23.00    1.5
2021/03/20 02:27:56.000    455571.6639   3639411.7262   5200659.0148   2   8   0.0740   0.1218   0.1284  -0.0032   0.0921   0.0247  26.00    1.5
2021/03/20 02:27:59.000    455571.6660   3639411.7222   5200659.0093   2   8   0.0747   0.1229   0.1304  -0.0079   0.0934   0.0255  29.00    1.5
2021/03/20 02:28:02.000    455571.6693   3639411.7147   5200659.0388   2   8   0.0681   0.1115   0.1118   0.0122   0.0808   0.0192   2.00    1.5
2021/03/20 02:28:04.000    455571.6660   3639411.7052   5200659.0311   2   8   0.0676   0.1103   0.1089   0.0119   0.0791   0.0181   4.00    1.5
2021/03/20 02:28:06.000    455571.6644   3639411.6865   5200659.0211   2   8   0.0673   0.1094   0.1073   0.0116   0.0781   0.0174   6.00    1.5
2021/03/20 02:28:09.000    455571.6583   3639411.6666   5200659.0053   2   8   0.0671   0.1091   0.1068   0.0110   0.0779   0.0173   9.00    1.6
2021/03/20 02:28:12.000    455571.6573   3639411.6618   5200658.9984   2   8   0.0672   0.1091   0.1071   0.0100   0.0780   0.0175  12.00    1.6
2021/03/20 02:28:15.000    455571.6561   3639411.6385   5200658.9843   2   8   0.0674   0.1094   0.1079   0.0086   0.0785   0.0179  15.00    1.6
2021/03/20 02:28:17.000    455571.6507   3639411.6233   5200658.9776   2   8   0.0675   0.1095   0.1085   0.0073   0.0789   0.0183  17.00    1.6
2021/03/20 02:28:19.000    455571.6414   3639411.6179   5200658.9731   2   8   0.0676   0.1098   0.1092   0.0054   0.0794   0.0187  19.00    1.7
2021/03/20 02:28:22.000    455571.6376   3639411.6052   5200658.9641   2   8   0.0682   0.1107   0.1110  -0.0032   0.0805   0.0195  22.00    1.7
2021/03/20 02:28:25.000    455571.6336   3639411.5952   5200658.9589   2   8   0.0688   0.1118   0.1130  -0.0075   0.0818   0.0204  25.00    1.7
2021/03/20 02:28:28.000    455571.6311   3639411.5834   5200658.9497   2   8   0.0697   0.1131   0.1154  -0.0103   0.0834   0.0214  28.00    1.7
2021/03/20 02:28:30.000    455571.6411   3639411.5962   5200658.9541   2   8   0.0630   0.1016   0.0963   0.0101   0.0706   0.0145   0.00    1.7
2021/03/20 02:28:32.000    455571.6414   3639411.5791   5200658.9393   2   8   0.0626   0.1002   0.0932   0.0101   0.0687   0.0131   2.00    1.7
2021/03/20 02:28:35.000    455571.6379   3639411.5670   5200658.9212   2   8   0.0623   0.0996   0.0918   0.0099   0.0680   0.0124   5.00    1.7
2021/03/20 02:28:38.000    455571.6420   3639411.5560   5200658.9065   2   8   0.0623   0.0994   0.0916   0.0094   0.0679   0.0123   8.00    1.7
2021/03/20 02:28:41.000    455571.6448   3639411.5539   5200658.9035   2   8   0.0624   0.0996   0.0921   0.0085   0.0682   0.0127  11.00    1.7
2021/03/20 02:28:43.000    455571.6426   3639411.5517   5200658.8974   2   8   0.0624   0.0996   0.0926   0.0075   0.0685   0.0130  13.00    1.7
2021/03/20 02:28:45.000    455571.6405   3639411.5541   5200658.8946   2   8   0.0626   0.0999   0.0933   0.0062   0.0689   0.0135  15.00    1.7
2021/03/20 02:28:48.000    455571.6390   3639411.5519   5200658.8848   2   8   0.0631   0.1007   0.0950   0.0026   0.0700   0.0143  18.00    1.8
2021/03/20 02:28:51.000    455571.6372   3639411.5399   5200658.8683   2   8   0.0637   0.1017   0.0971  -0.0056   0.0713   0.0154  21.00    1.8
2021/03/20 02:28:54.000    455571.6356   3639411.5362   5200658.8638   2   8   0.0645   0.1031   0.0995  -0.0087   0.0729   0.0165  24.00    1.8
2021/03/20 02:28:56.000    455571.6314   3639411.5298   5200658.8553   2   8   0.0650   0.1039   0.1012  -0.0104   0.0740   0.0173  26.00    1.8
2021/03/20 02:28:58.000    455571.6314   3639411.5243   5200658.8494   2   8   0.0656   0.1049   0.1031  -0.0119   0.0752   0.0181  28.00    1.8
2021/03/20 02:29:04.000    455571.6231   3639411.5094   5200658.8686   2   8   0.0588   0.0934   0.0842   0.0087   0.0626   0.0103   4.00    1.9
2021/03/20 02:29:06.000    455571.6189   3639411.4991   5200658.8564   2   8   0.0586   0.0929   0.0832   0.0086   0.0621   0.0097   6.00    1.9
2021/03/20 02:29:14.000    455571.6218   3639411.4754   5200658.8329   2   8   0.0597   0.0947   0.0864   0.0051   0.0642   0.0114  14.00    2.0
2021/03/20 02:29:16.000    455571.6223   3639411.4708   5200658.8244   2   8   0.0599   0.0951   0.0874   0.0026   0.0648   0.0120  16.00    2.0
2021/03/20 02:29:19.000    455571.6190   3639411.4637   5200658.8085   2   8   0.0606   0.0962   0.0894  -0.0052   0.0661   0.0130  19.00    2.0
2021/03/20 02:29:22.000    455571.6164   3639411.4525   5200658.7944   2   8   0.0614   0.0974   0.0917  -0.0082   0.0676   0.0142  22.00    2.0
2021/03/20 02:29:24.000    455571.6180   3639411.4475   5200658.7895   2   8   0.0619   0.0983   0.0934  -0.0099   0.0687   0.0150  24.00    2.0
2021/03/20 02:29:27.000    455571.6137   3639411.4445   5200658.7784   2   8   0.0629   0.1000   0.0964  -0.0122   0.0706   0.0163  27.00    2.0
2021/03/20 02:29:29.000    455571.6107   3639411.4469   5200658.7775   2   8   0.0636   0.1011   0.0984  -0.0136   0.0720   0.0172  29.00    2.0
2021/03/20 02:29:32.000    455571.6118   3639411.4739   5200658.8412   2   8   0.0559   0.0879   0.0764   0.0079   0.0574   0.0075   2.00    2.1
2021/03/20 02:29:40.000    455571.6100   3639411.4615   5200658.8250   2   8   0.0565   0.0889   0.0780   0.0064   0.0585   0.0082  10.00    2.2
2021/03/20 02:29:42.000    455571.6123   3639411.4581   5200658.8300   2   8   0.0566   0.0891   0.0785   0.0054   0.0589   0.0086  12.00    2.2
2021/03/20 02:29:45.000    455571.6048   3639411.4519   5200658.8287   2   8   0.0571   0.0899   0.0801   0.0018   0.0599   0.0096  15.00    2.3
2021/03/20 02:29:46.000    455571.5987   3639411.4483   5200658.8286   2   8   0.0571   0.0899   0.0805  -0.0026   0.0601   0.0099  16.00    2.3
2021/03/20 02:29:52.000    455571.5940   3639411.4370   5200658.8216   2   8   0.0590   0.0929   0.0856  -0.0091   0.0635   0.0125  22.00    2.3
2021/03/20 02:29:55.000    455571.5922   3639411.4296   5200658.8164   2   8   0.0600   0.0946   0.0886  -0.0114   0.0654   0.0139  25.00    2.4
2021/03/20 02:29:57.000    455571.5869   3639411.4251   5200658.8105   2   8   0.0607   0.0957   0.0906  -0.0128   0.0667   0.0149  27.00    2.4
2021/03/20 02:29:58.000    455571.5838   3639411.4257   5200658.8116   2   8   0.0610   0.0962   0.0916  -0.0135   0.0674   0.0154  28.00    2.5
2021/03/20 02:29:59.000    455571.5811   3639411.4296   5200658.8171   2   8   0.0612   0.0967   0.0927  -0.0142   0.0680   0.0159  29.00    2.5
2021/03/20 02:30:02.000    455571.5856   3639411.4278   5200658.8383   2   8   0.0532   0.0829   0.0696   0.0073   0.0528   0.0044   2.00    2.7
2021/03/20 02:30:04.000    455571.5801   3639411.4182   5200658.8332   2   8   0.0530   0.0822   0.0680   0.0077   0.0520   0.0022   4.00    2.9
2021/03/20 02:30:07.000    455571.3172   3639410.9582   5200658.7832   1   8   0.0094   0.0157   0.0200  -0.0034   0.0136   0.0047   7.00    3.1
2021/03/20 02:30:09.000    455571.3179   3639410.9619   5200658.7818   1   8   0.0111   0.0183   0.0231  -0.0047   0.0158   0.0055   9.00    3.2
2021/03/20 02:30:11.000    455571.3233   3639410.9635   5200658.7814   1   8   0.0129   0.0211   0.0265  -0.0059   0.0182   0.0064  11.00    3.3
2021/03/20 02:30:17.000    455571.3292   3639410.9640   5200658.7721   1   8   0.0186   0.0301   0.0371  -0.0095   0.0257   0.0092  17.00    3.4
2021/03/20 02:30:22.000    455571.3335   3639410.9635   5200658.7647   1   8   0.0236   0.0379   0.0463  -0.0125   0.0322   0.0116  22.00    3.5
2021/03/20 02:30:24.000    455571.3342   3639410.9607   5200658.7585   1   8   0.0256   0.0411   0.0501  -0.0137   0.0349   0.0126  24.00    3.6
2021/03/20 02:30:26.000    455571.3333   3639410.9619   5200658.7529   1   8   0.0276   0.0442   0.0538  -0.0148   0.0376   0.0136  26.00    3.6
2021/03/20 02:30:29.000    455571.3362   3639410.9599   5200658.7446   1   8   0.0306   0.0490   0.0595  -0.0166   0.0416   0.0151  29.00    3.7
2021/03/20 02:30:32.000    455571.3119   3639410.9482   5200658.7903   1   8   0.0062   0.0107   0.0136   0.0013   0.0091   0.0029   2.00    4.0
2021/03/20 02:30:34.000    455571.3126   3639410.9473   5200658.7875   1   8   0.0072   0.0123   0.0157  -0.0012   0.0106   0.0036   4.00    4.2
2021/03/20 02:30:37.000    455571.3126   3639410.9473   5200658.7803   1   8   0.0094   0.0157   0.0199  -0.0034   0.0135   0.0047   7.00    4.3
2021/03/20 02:30:40.000    455571.3124   3639410.9424   5200658.7740   1   8   0.0120   0.0197   0.0247  -0.0054   0.0169   0.0059  10.00    4.4
2021/03/20 02:30:41.000    455571.3109   3639410.9419   5200658.7747   1   8   0.0129   0.0211   0.0264  -0.0060   0.0181   0.0064  11.00    4.6
2021/03/20 02:30:43.000    455571.3117   3639410.9418   5200658.7697   1   8   0.0148   0.0240   0.0298  -0.0072   0.0205   0.0073  13.00    4.7
2021/03/20 02:30:46.000    455571.3114   3639410.9413   5200658.7684   1   8   0.0177   0.0286   0.0351  -0.0090   0.0243   0.0087  16.00    4.8
2021/03/20 02:30:49.000    455571.3137   3639410.9396   5200658.7638   1   8   0.0206   0.0332   0.0405  -0.0108   0.0281   0.0101  19.00    4.9
2021/03/20 02:30:52.000    455571.3130   3639410.9399   5200658.7621   1   8   0.0236   0.0379   0.0461  -0.0126   0.0321   0.0116  22.00    5.0
2021/03/20 02:30:59.000    455571.3118   3639410.9386   5200658.7585   1   8   0.0307   0.0490   0.0592  -0.0168   0.0413   0.0150  29.00    5.0
2021/03/20 02:31:02.000    455571.3129   3639410.9491   5200658.7907   1   8   0.0061   0.0107   0.0136   0.0013   0.0091   0.0030   2.00    5.2
2021/03/20 02:31:05.000    455571.3110   3639410.9473   5200658.7865   1   8   0.0078   0.0133   0.0169  -0.0023   0.0114   0.0038   5.00    5.4
2021/03/20 02:31:06.000    455571.3089   3639410.9497   5200658.7862   1   8   0.0087   0.0144   0.0184  -0.0029   0.0124   0.0042   6.00    5.6
2021/03/20 02:31:08.000    455571.3103   3639410.9443   5200658.7829   1   8   0.0102   0.0170   0.0214  -0.0041   0.0145   0.0050   8.00    5.8
2021/03/20 02:31:11.000    455571.3103   3639410.9466   5200658.7849   1   8   0.0129   0.0211   0.0263  -0.0061   0.0180   0.0063  11.00    5.9
2021/03/20 02:31:14.000    455571.3088   3639410.9480   5200658.7842   1   8   0.0158   0.0255   0.0314  -0.0079   0.0216   0.0077  14.00    6.1
2021/03/20 02:31:17.000    455571.3075   3639410.9497   5200658.7847   1   8   0.0187   0.0301   0.0367  -0.0097   0.0254   0.0091  17.00    6.3
2021/03/20 02:31:20.000    455571.3084   3639410.9524   5200658.7860   1   8   0.0216   0.0347   0.0421  -0.0116   0.0293   0.0105  20.00    6.5
2021/03/20 02:31:23.000    455571.3097   3639410.9605   5200658.7902   1   8   0.0247   0.0394   0.0477  -0.0134   0.0332   0.0120  23.00    6.7
2021/03/20 02:31:26.000    455571.3079   3639410.9650   5200658.7935   1   8   0.0277   0.0442   0.0532  -0.0152   0.0371   0.0135  26.00    6.8
2021/03/20 02:31:29.000    455571.3113   3639410.9706   5200658.7976   1   8   0.0307   0.0489   0.0588  -0.0170   0.0411   0.0150  29.00    7.0
2021/03/20 02:31:31.000    455571.3119   3639410.9560   5200658.7963   1   8   0.0060   0.0102   0.0129   0.0017   0.0087   0.0028   1.00    7.1
2021/03/20 02:31:34.000    455571.3094   3639410.9559   5200658.7954   1   8   0.0072   0.0122   0.0156  -0.0016   0.0105   0.0035   4.00    7.2
2021/03/20 02:31:37.000    455571.3095   3639410.9567   5200658.7898   1   8   0.0094   0.0157   0.0198  -0.0036   0.0134   0.0046   7.00    7.4
2021/03/20 02:31:40.000    455571.3100   3639410.9578   5200658.7883   1   8   0.0120   0.0197   0.0245  -0.0055   0.0167   0.0058  10.00    7.5
2021/03/20 02:31:43.000    455571.3083   3639410.9492   5200658.7802   1   8   0.0148   0.0240   0.0295  -0.0074   0.0203   0.0072  13.00    7.5
2021/03/20 02:31:46.000    455571.3084   3639410.9497   5200658.7779   1   8   0.0177   0.0285   0.0348  -0.0092   0.0240   0.0086  16.00    7.5
2021/03/20 02:31:48.000    455571.3069   3639410.9511   5200658.7776   1   8   0.0197   0.0316   0.0383  -0.0105   0.0266   0.0095  18.00    7.6
2021/03/20 02:31:51.000    455571.3068   3639410.9524   5200658.7777   1   8   0.0227   0.0362   0.0437  -0.0123   0.0304   0.0110  21.00    7.7
2021/03/20 02:31:57.000    455571.3079   3639410.9492   5200658.7702   1   8   0.0288   0.0457   0.0548  -0.0159   0.0382   0.0139  27.00    7.7
2021/03/20 02:32:00.000    455571.3143   3639410.9555   5200658.7995   1   8   0.0059   0.0101   0.0127   0.0017   0.0085   0.0028   0.00    8.1
2021/03/20 02:32:03.000    455571.3133   3639410.9546   5200658.7978   1   8   0.0066   0.0113   0.0144   0.0008   0.0097   0.0034   3.00    8.4
2021/03/20 02:32:04.000    455571.3121   3639410.9570   5200658.7976   1   8   0.0072   0.0123   0.0156  -0.0017   0.0104   0.0034   4.00    8.6
2021/03/20 02:32:07.000    455571.3132   3639410.9556   5200658.7906   1   8   0.0095   0.0156   0.0197  -0.0036   0.0133   0.0046   7.00    8.8
2021/03/20 02:32:10.000    455571.3113   3639410.9528   5200658.7880   1   8   0.0120   0.0197   0.0244  -0.0056   0.0166   0.0058  10.00    8.9
2021/03/20 02:32:13.000    455571.3089   3639410.9544   5200658.7912   1   8   0.0148   0.0240   0.0294  -0.0075   0.0202   0.0071  13.00    9.1
2021/03/20 02:32:15.000    455571.3122   3639410.9581   5200658.7939   1   8   0.0168   0.0270   0.0328  -0.0087   0.0226   0.0081  15.00    9.2
2021/03/20 02:32:16.000    455571.3127   3639410.9606   5200658.7982   1   8   0.0178   0.0285   0.0346  -0.0093   0.0239   0.0085  16.00    9.3
2021/03/20 02:32:21.000    455571.3132   3639410.9607   5200658.7973   1   8   0.0227   0.0362   0.0435  -0.0124   0.0302   0.0109  21.00    9.4
2021/03/20 02:32:24.000    455571.3113   3639410.9620   5200658.8030   1   8   0.0258   0.0409   0.0490  -0.0143   0.0341   0.0124  24.00    9.6
2021/03/20 02:32:27.000    455571.3109   3639410.9571   5200658.8048   1   8   0.0288   0.0457   0.0545  -0.0161   0.0380   0.0138  27.00    9.6
2021/03/20 02:32:29.000    455571.3100   3639410.9586   5200658.8042   1   8   0.0308   0.0488   0.0582  -0.0173   0.0406   0.0148  29.00    9.7
2021/03/20 02:32:30.000    455571.3115   3639410.9613   5200658.8051   1   8   0.0058   0.0101   0.0127   0.0011   0.0084   0.0027   0.00   10.0
2021/03/20 02:32:33.000    455571.3110   3639410.9613   5200658.8032   1   8   0.0067   0.0113   0.0144  -0.0011   0.0096   0.0032   3.00   10.3
2021/03/20 02:32:36.000    455571.3115   3639410.9624   5200658.8045   1   8   0.0086   0.0144   0.0182  -0.0031   0.0122   0.0041   6.00   10.5
2021/03/20 02:32:38.000    455571.3125   3639410.9619   5200658.8055   1   8   0.0103   0.0169   0.0212  -0.0044   0.0143   0.0049   8.00   10.8
2021/03/20 02:32:43.000    455571.3136   3639410.9585   5200658.8071   1   8   0.0149   0.0240   0.0293  -0.0076   0.0201   0.0071  13.00   11.0
2021/03/20 02:32:46.000    455571.3122   3639410.9608   5200658.8106   1   8   0.0178   0.0285   0.0344  -0.0095   0.0238   0.0085  16.00   11.2
2021/03/20 02:32:49.000    455571.3120   3639410.9620   5200658.8134   1   8   0.0208   0.0331   0.0397  -0.0113   0.0275   0.0099  19.00   11.4
2021/03/20 02:32:51.000    455571.3125   3639410.9630   5200658.8172   1   8   0.0228   0.0362   0.0433  -0.0126   0.0301   0.0109  21.00   11.7
2021/03/20 02:32:52.000    455571.3127   3639410.9637   5200658.8160   1   8   0.0238   0.0377   0.0451  -0.0132   0.0313   0.0113  22.00   12.0
2021/03/20 02:32:55.000    455571.3126   3639410.9649   5200658.8222   1   8   0.0268   0.0425   0.0505  -0.0150   0.0352   0.0128  25.00   12.3
2021/03/20 02:32:57.000    455571.3132   3639410.9666   5200658.8245   1   8   0.0289   0.0456   0.0542  -0.0163   0.0378   0.0138  27.00   12.6
2021/03/20 02:33:00.000    455571.3124   3639410.9574   5200658.8036   1   8   0.0059   0.0100   0.0126   0.0018   0.0084   0.0027   0.00   12.9
2021/03/20 02:33:03.000    455571.3127   3639410.9570   5200658.8027   1   8   0.0067   0.0114   0.0144   0.0003   0.0096   0.0032   3.00   13.4
2021/03/20 02:33:05.000    455571.3124   3639410.9569   5200658.8010   1   8   0.0080   0.0133   0.0168  -0.0024   0.0112   0.0038   5.00   13.7
2021/03/20 02:33:08.000    455571.3125   3639410.9606   5200658.8075   1   8   0.0103   0.0169   0.0211  -0.0045   0.0142   0.0049   8.00   13.9
2021/03/20 02:33:10.000    455571.3126   3639410.9608   5200658.8055   1   8   0.0121   0.0196   0.0242  -0.0057   0.0165   0.0057  10.00   14.2
2021/03/20 02:33:13.000    455571.3140   3639410.9620   5200658.8031   1   8   0.0149   0.0240   0.0292  -0.0077   0.0200   0.0070  13.00   14.4
2021/03/20 02:33:16.000    455571.3157   3639410.9650   5200658.8070   1   8   0.0178   0.0284   0.0343  -0.0096   0.0236   0.0084  16.00   14.5
2021/03/20 02:33:18.000    455571.3136   3639410.9714   5200658.8085   1   8   0.0198   0.0315   0.0378  -0.0108   0.0261   0.0094  18.00   14.6
2021/03/20 02:33:21.000    455571.3155   3639410.9683   5200658.8067   1   8   0.0228   0.0361   0.0431  -0.0127   0.0299   0.0108  21.00   14.8
2021/03/20 02:33:23.000    455571.3177   3639410.9702   5200658.8068   1   8   0.0248   0.0393   0.0466  -0.0139   0.0324   0.0118  23.00   15.0
2021/03/20 02:33:26.000    455571.3185   3639410.9704   5200658.8019   1   8   0.0279   0.0440   0.0521  -0.0158   0.0363   0.0132  26.00   15.2
2021/03/20 02:33:29.000    455571.3192   3639410.9711   5200658.8017   1   8   0.0310   0.0488   0.0575  -0.0177   0.0402   0.0147  29.00   15.3
2021/03/20 02:33:31.000    455571.3117   3639410.9523   5200658.8034   1   8   0.0060   0.0102   0.0129   0.0016   0.0086   0.0029   1.00   15.5
2021/03/20 02:33:34.000    455571.3140   3639410.9531   5200658.8015   1   8   0.0073   0.0122   0.0155  -0.0019   0.0103   0.0034   4.00   15.6
2021/03/20 02:33:36.000    455571.3130   3639410.9539   5200658.8008   1   8   0.0087   0.0144   0.0181  -0.0032   0.0121   0.0041   6.00   15.9
2021/03/20 02:33:39.000    455571.3143   3639410.9542   5200658.8001   1   8   0.0112   0.0183   0.0226  -0.0052   0.0153   0.0052   9.00   16.3
2021/03/20 02:33:41.000    455571.3152   3639410.9581   5200658.8031   1   8   0.0130   0.0210   0.0258  -0.0065   0.0175   0.0061  11.00   16.4
2021/03/20 02:33:43.000    455571.3147   3639410.9584   5200658.8010   1   8   0.0149   0.0239   0.0290  -0.0078   0.0199   0.0070  13.00   16.5
2021/03/20 02:33:47.000    455571.3167   3639410.9595   5200658.7997   1   7   0.0189   0.0311   0.0523  -0.0111   0.0304   0.0019  17.00   15.8
2021/03/20 02:33:49.000    455571.3152   3639410.9601   5200658.7991   1   7   0.0210   0.0343   0.0580  -0.0124   0.0336   0.0016  19.00   16.0
2021/03/20 02:33:52.000    455571.3169   3639410.9552   5200658.8017   1   7   0.0240   0.0391   0.0664  -0.0144   0.0385   0.0012  22.00   16.1
2021/03/20 02:33:54.000    455571.3172   3639410.9540   5200658.7996   1   7   0.0260   0.0424   0.0721  -0.0158   0.0417   0.0006  24.00   16.2
2021/03/20 02:33:56.000    455571.3168   3639410.9489   5200658.7984   1   7   0.0281   0.0457   0.0778  -0.0171   0.0450  -0.0009  26.00   16.3
2021/03/20 02:34:02.000    455571.3126   3639410.9554   5200658.8091   1   7   0.0063   0.0108   0.0161  -0.0010   0.0098   0.0020   2.00   16.5
2021/03/20 02:34:05.000    455571.3134   3639410.9511   5200658.8032   1   7   0.0080   0.0136   0.0211  -0.0028   0.0127   0.0022   5.00   16.8
2021/03/20 02:34:07.000    455571.3149   3639410.9494   5200658.8017   1   7   0.0096   0.0160   0.0256  -0.0042   0.0152   0.0023   7.00   16.9
2021/03/20 02:34:09.000    455571.3139   3639410.9469   5200658.8018   1   7   0.0113   0.0188   0.0305  -0.0057   0.0180   0.0022   9.00   17.0
2021/03/20 02:34:11.000    455571.3162   3639410.9471   5200658.8008   1   7   0.0131   0.0217   0.0357  -0.0071   0.0209   0.0022  11.00   17.0
2021/03/20 02:34:13.000    455571.3151   3639410.9489   5200658.7992   1   7   0.0150   0.0247   0.0410  -0.0084   0.0240   0.0021  13.00   17.1
2021/03/20 02:34:16.000    455571.3162   3639410.9495   5200658.7982   1   7   0.0180   0.0294   0.0492  -0.0105   0.0286   0.0019  16.00   17.1
2021/03/20 02:34:18.000    455571.3174   3639410.9501   5200658.7972   1   7   0.0200   0.0326   0.0548  -0.0118   0.0318   0.0017  18.00   17.1
2021/03/20 02:34:20.000    455571.3182   3639410.9487   5200658.7940   1   7   0.0220   0.0358   0.0604  -0.0132   0.0350   0.0015  20.00   17.1
2021/03/20 02:34:24.000    455571.3174   3639410.9515   5200658.7966   1   7   0.0261   0.0423   0.0716  -0.0159   0.0414   0.0003  24.00   17.2
2021/03/20 02:34:26.000    455571.3183   3639410.9496   5200658.7917   1   7   0.0282   0.0456   0.0773  -0.0172   0.0447  -0.0010  26.00   17.1
2021/03/20 02:34:29.000    455571.3173   3639410.9500   5200658.7893   1   7   0.0313   0.0506   0.0858  -0.0192   0.0495  -0.0017  29.00   17.0
2021/03/20 02:34:31.000    455571.3135   3639410.9563   5200658.8107   1   7   0.0061   0.0103   0.0151   0.0015   0.0093   0.0016   1.00   17.3
2021/03/20 02:34:33.000    455571.3129   3639410.9548   5200658.8087   1   7   0.0067   0.0115   0.0173  -0.0013   0.0105   0.0021   3.00   17.3
2021/03/20 02:34:37.000    455571.3103   3639410.9583   5200658.8068   1   7   0.0096   0.0160   0.0254  -0.0044   0.0151   0.0023   7.00   17.2
2021/03/20 02:34:39.000    455571.3094   3639410.9603   5200658.8039   1   7   0.0113   0.0188   0.0303  -0.0057   0.0179   0.0022   9.00   17.2
2021/03/20 02:34:42.000    455571.3114   3639410.9628   5200658.8054   1   7   0.0141   0.0232   0.0381  -0.0078   0.0223   0.0021  12.00   17.2
2021/03/20 02:34:44.000    455571.3133   3639410.9645   5200658.8020   1   7   0.0160   0.0262   0.0435  -0.0092   0.0253   0.0020  14.00   17.3
2021/03/20 02:34:46.000    455571.3115   3639410.9690   5200658.8045   1   7   0.0180   0.0294   0.0489  -0.0106   0.0284   0.0018  16.00   17.2
2021/03/20 02:34:50.000    455571.3113   3639410.9685   5200658.8057   1   7   0.0220   0.0358   0.0600  -0.0133   0.0347   0.0014  20.00   17.1
2021/03/20 02:34:52.000    455571.3125   3639410.9644   5200658.8029   1   7   0.0241   0.0390   0.0656  -0.0146   0.0379   0.0010  22.00   17.1
2021/03/20 02:34:57.000    455571.3108   3639410.9652   5200658.7992   1   7   0.0292   0.0472   0.0796  -0.0180   0.0460  -0.0013  27.00   17.0
2021/03/20 02:34:59.000    455571.3129   3639410.9645   5200658.8003   1   7   0.0313   0.0505   0.0852  -0.0194   0.0492  -0.0017  29.00   16.9
2021/03/20 02:35:05.000    455571.3084   3639410.9582   5200658.8017   1   7   0.0081   0.0135   0.0209  -0.0031   0.0125   0.0021   5.00   17.1
2021/03/20 02:35:06.000    455571.3102   3639410.9583   5200658.8010   1   7   0.0088   0.0147   0.0230  -0.0037   0.0137   0.0022   6.00   16.9
2021/03/20 02:35:08.000    455571.3084   3639410.9557   5200658.7964   1   7   0.0105   0.0173   0.0277  -0.0051   0.0164   0.0022   8.00   16.5
2021/03/20 02:35:10.000    455571.3089   3639410.9581   5200658.7986   1   7   0.0122   0.0202   0.0326  -0.0065   0.0192   0.0021  10.00   16.0
2021/03/20 02:35:15.000    455571.3081   3639410.9558   5200658.7948   1   7   0.0170   0.0278   0.0459  -0.0100   0.0267   0.0019  15.00   15.8
2021/03/20 02:35:17.000    455571.3069   3639410.9534   5200658.7876   1   7   0.0190   0.0309   0.0513  -0.0113   0.0298   0.0017  17.00   15.4
2021/03/20 02:35:19.000    455571.3067   3639410.9552   5200658.7912   1   7   0.0211   0.0341   0.0568  -0.0127   0.0329   0.0015  19.00   15.1
2021/03/20 02:35:22.000    455571.3052   3639410.9548   5200658.7863   1   7   0.0241   0.0389   0.0651  -0.0147   0.0377   0.0009  22.00   14.9
2021/03/20 02:35:26.000    455571.3079   3639410.9526   5200658.7878   1   7   0.0283   0.0455   0.0763  -0.0175   0.0440  -0.0012  26.00   14.7
2021/03/20 02:35:29.000    455571.3083   3639410.9544   5200658.7856   1   7   0.0314   0.0504   0.0846  -0.0195   0.0488  -0.0018  29.00   14.5
2021/03/20 02:35:31.000    455571.3136   3639410.9558   5200658.8082   1   7   0.0060   0.0103   0.0150   0.0011   0.0092   0.0017   1.00   14.6
2021/03/20 02:35:33.000    455571.3113   3639410.9544   5200658.8062   1   7   0.0069   0.0115   0.0172  -0.0015   0.0104   0.0019   3.00   14.3
2021/03/20 02:35:37.000    455571.3119   3639410.9503   5200658.7972   1   7   0.0096   0.0160   0.0251  -0.0045   0.0149   0.0021   7.00   14.0
2021/03/20 02:35:40.000    455571.3120   3639410.9517   5200658.7985   1   7   0.0123   0.0201   0.0324  -0.0066   0.0190   0.0021  10.00   13.7
2021/03/20 02:35:42.000    455571.3137   3639410.9552   5200658.7991   1   7   0.0141   0.0231   0.0376  -0.0080   0.0220   0.0021  12.00   13.5
2021/03/20 02:35:49.000    455571.3173   3639410.9570   5200658.7976   1   7   0.0211   0.0340   0.0564  -0.0128   0.0327   0.0014  19.00   13.4
2021/03/20 02:35:51.000    455571.3188   3639410.9593   5200658.7956   1   7   0.0232   0.0373   0.0619  -0.0142   0.0358   0.0010  21.00   13.3
2021/03/20 02:35:53.000    455571.3205   3639410.9627   5200658.7992   1   7   0.0252   0.0405   0.0675  -0.0155   0.0390   0.0002  23.00   13.2
2021/03/20 02:35:54.000    455571.3213   3639410.9634   5200658.8015   1   7   0.0262   0.0421   0.0702  -0.0162   0.0405  -0.0007  24.00   13.1
2021/03/20 02:35:56.000    455571.3212   3639410.9632   5200658.7985   1   7   0.0283   0.0454   0.0758  -0.0176   0.0437  -0.0013  26.00   13.1
2021/03/20 02:35:58.000    455571.3226   3639410.9652   5200658.7944   1   7   0.0304   0.0487   0.0813  -0.0190   0.0469  -0.0017  28.00   13.1
2021/03/20 02:36:01.000    455571.3160   3639410.9549   5200658.8000   1   7   0.0061   0.0103   0.0150   0.0010   0.0092   0.0017   1.00   13.3
2021/03/20 02:36:03.000    455571.3148   3639410.9563   5200658.8015   1   7   0.0068   0.0115   0.0171  -0.0013   0.0104   0.0020   3.00   13.4
2021/03/20 02:36:05.000    455571.3137   3639410.9559   5200658.7986   1   7   0.0081   0.0135   0.0207  -0.0032   0.0124   0.0021   5.00   13.5
2021/03/20 02:36:06.000    455571.3151   3639410.9565   5200658.7984   1   7   0.0088   0.0147   0.0228  -0.0038   0.0135   0.0021   6.00   13.6
2021/03/20 02:36:11.000    455571.3138   3639410.9584   5200658.7943   1   7   0.0132   0.0216   0.0348  -0.0073   0.0203   0.0021  11.00   13.6
2021/03/20 02:36:13.000    455571.3126   3639410.9566   5200658.7896   1   7   0.0151   0.0246   0.0400  -0.0087   0.0233   0.0020  13.00   13.6
2021/03/20 02:36:15.000    455571.3132   3639410.9578   5200658.7892   1   7   0.0171   0.0277   0.0453  -0.0101   0.0263   0.0018  15.00   13.7
2021/03/20 02:36:17.000    455571.3150   3639410.9602   5200658.7895   1   7   0.0191   0.0308   0.0506  -0.0115   0.0294   0.0016  17.00   13.7
2021/03/20 02:36:20.000    455571.3161   3639410.9550   5200658.7837   1   7   0.0222   0.0356   0.0588  -0.0136   0.0340   0.0011  20.00   13.8
2021/03/20 02:36:23.000    455571.3162   3639410.9562   5200658.7821   1   7   0.0253   0.0404   0.0670  -0.0157   0.0387  -0.0004  23.00   13.7
2021/03/20 02:36:25.000    455571.3160   3639410.9552   5200658.7841   1   7   0.0273   0.0437   0.0725  -0.0170   0.0418  -0.0011  25.00   13.7
2021/03/20 02:36:27.000    455571.3158   3639410.9495   5200658.7813   1   7   0.0294   0.0470   0.0780  -0.0184   0.0450  -0.0015  27.00   13.8
2021/03/20 02:36:29.000    455571.3162   3639410.9497   5200658.7812   1   7   0.0315   0.0502   0.0835  -0.0198   0.0481  -0.0019  29.00   13.9
2021/03/20 02:36:32.000    455571.3112   3639410.9552   5200658.8061   1   7   0.0065   0.0108   0.0158  -0.0007   0.0096   0.0020   2.00   13.7
2021/03/20 02:36:35.000    455571.3125   3639410.9536   5200658.8044   1   7   0.0081   0.0135   0.0206  -0.0031   0.0123   0.0020   5.00   13.7
2021/03/20 02:36:38.000    455571.3123   3639410.9537   5200658.8001   1   7   0.0105   0.0173   0.0272  -0.0053   0.0160   0.0021   8.00   13.8
2021/03/20 02:36:40.000    455571.3139   3639410.9506   5200658.7939   1   7   0.0123   0.0201   0.0321  -0.0067   0.0188   0.0021  10.00   13.8
2021/03/20 02:36:42.000    455571.3137   3639410.9509   5200658.7943   1   7   0.0142   0.0230   0.0371  -0.0081   0.0217   0.0020  12.00   13.7
2021/03/20 02:36:44.000    455571.3132   3639410.9518   5200658.7919   1   7   0.0161   0.0261   0.0423  -0.0095   0.0246   0.0019  14.00   13.7
2021/03/20 02:36:48.000    455571.3137   3639410.9512   5200658.7919   1   7   0.0202   0.0323   0.0530  -0.0123   0.0307   0.0014  18.00   13.6
2021/03/20 02:36:50.000    455571.3139   3639410.9492   5200658.7896   1   7   0.0222   0.0355   0.0584  -0.0137   0.0337   0.0011  20.00   13.6
2021/03/20 02:36:52.000    455571.3149   3639410.9499   5200658.7877   1   7   0.0243   0.0388   0.0638  -0.0151   0.0368   0.0005  22.00   13.5
2021/03/20 02:36:54.000    455571.3152   3639410.9518   5200658.7891   1   7   0.0263   0.0420   0.0693  -0.0165   0.0399  -0.0009  24.00   13.4
2021/03/20 02:36:56.000    455571.3149   3639410.9539   5200658.7906   1   7   0.0284   0.0453   0.0747  -0.0179   0.0431  -0.0014  26.00   13.3
2021/03/20 02:37:00.000    455571.3125   3639410.9528   5200658.8045   1   7   0.0059   0.0101   0.0146   0.0010   0.0090   0.0017   0.00   13.6
2021/03/20 02:37:02.000    455571.3127   3639410.9496   5200658.8059   1   7   0.0065   0.0108   0.0157   0.0005   0.0096   0.0018   2.00   13.6
2021/03/20 02:37:04.000    455571.3127   3639410.9487   5200658.8033   1   7   0.0074   0.0124   0.0186  -0.0025   0.0112   0.0020   4.00   13.3
2021/03/20 02:37:06.000    455571.3125   3639410.9462   5200658.7981   1   7   0.0088   0.0146   0.0225  -0.0039   0.0134   0.0020   6.00   12.9
2021/03/20 02:37:08.000    455571.3101   3639410.9490   5200658.7962   1   7   0.0105   0.0173   0.0270  -0.0053   0.0159   0.0021   8.00   12.5
2021/03/20 02:37:12.000    455571.3085   3639410.9503   5200658.7939   1   7   0.0142   0.0230   0.0369  -0.0081   0.0215   0.0020  12.00   12.3
2021/03/20 02:37:14.000    455571.3097   3639410.9502   5200658.7916   1   7   0.0162   0.0261   0.0421  -0.0096   0.0244   0.0018  14.00   12.0
2021/03/20 02:37:16.000    455571.3081   3639410.9515   5200658.7879   1   7   0.0182   0.0292   0.0473  -0.0110   0.0274   0.0016  16.00   11.7
2021/03/20 02:37:18.000    455571.3063   3639410.9501   5200658.7857   1   7   0.0202   0.0323   0.0526  -0.0124   0.0304   0.0014  18.00   11.4
2021/03/20 02:37:20.000    455571.3050   3639410.9517   5200658.7834   1   7   0.0223   0.0355   0.0580  -0.0138   0.0335   0.0010  20.00   11.2
2021/03/20 02:37:24.000    455571.3052   3639410.9533   5200658.7814   1   7   0.0264   0.0419   0.0688  -0.0166   0.0396  -0.0010  24.00   11.0
2021/03/20 02:37:26.000    455571.3041   3639410.9513   5200658.7760   1   7   0.0285   0.0452   0.0742  -0.0180   0.0427  -0.0014  26.00   10.8
2021/03/20 02:37:28.000    455571.3044   3639410.9516   5200658.7817   1   7   0.0306   0.0484   0.0796  -0.0194   0.0458  -0.0018  28.00   10.6
2021/03/20 02:37:32.000    455571.3137   3639410.9520   5200658.8123   1   7   0.0064   0.0107   0.0157  -0.0007   0.0095   0.0018   2.00   10.5
2021/03/20 02:37:35.000    455571.3159   3639410.9482   5200658.8074   1   7   0.0081   0.0135   0.0204  -0.0032   0.0122   0.0020   5.00   10.3
2021/03/20 02:37:37.000    455571.3154   3639410.9541   5200658.8064   1   7   0.0097   0.0159   0.0246  -0.0046   0.0145   0.0021   7.00   10.0
2021/03/20 02:37:39.000    455571.3164   3639410.9518   5200658.8026   1   7   0.0114   0.0186   0.0292  -0.0061   0.0171   0.0021   9.00    9.8
2021/03/20 02:37:40.000    455571.3150   3639410.9520   5200658.8047   1   7   0.0124   0.0200   0.0317  -0.0068   0.0185   0.0020  10.00    9.6
2021/03/20 02:37:43.000    455571.3145   3639410.9477   5200658.7977   1   7   0.0152   0.0245   0.0392  -0.0089   0.0228   0.0018  13.00    9.5
2021/03/20 02:37:46.000    455571.3119   3639410.9460   5200658.7917   1   7   0.0182   0.0291   0.0470  -0.0111   0.0272   0.0016  16.00    9.4
2021/03/20 02:37:48.000    455571.3110   3639410.9482   5200658.7886   1   7   0.0202   0.0323   0.0523  -0.0125   0.0302   0.0013  18.00    9.2
2021/03/20 02:37:50.000    455571.3091   3639410.9469   5200658.7888   1   7   0.0223   0.0354   0.0576  -0.0139   0.0332   0.0009  20.00    9.1
2021/03/20 02:37:52.000    455571.3086   3639410.9468   5200658.7843   1   7   0.0244   0.0386   0.0630  -0.0153   0.0363  -0.0002  22.00    9.0
2021/03/20 02:37:54.000    455571.3085   3639410.9452   5200658.7822   1   7   0.0264   0.0419   0.0683  -0.0167   0.0393  -0.0010  24.00    9.0
2021/03/20 02:37:58.000    455571.3057   3639410.9485   5200658.7815   1   7   0.0306   0.0484   0.0791  -0.0195   0.0455  -0.0019  28.00    8.9
2021/03/20 02:38:00.000    455571.3147   3639410.9518   5200658.8034   1   7   0.0060   0.0101   0.0146   0.0011   0.0089   0.0016   0.00    9.0
2021/03/20 02:38:02.000    455571.3139   3639410.9500   5200658.7994   1   7   0.0064   0.0108   0.0157  -0.0008   0.0095   0.0020   2.00    9.2
2021/03/20 02:38:04.000    455571.3151   3639410.9535   5200658.8012   1   7   0.0074   0.0124   0.0185  -0.0026   0.0110   0.0020   4.00    9.3
2021/03/20 02:38:06.000    455571.3156   3639410.9557   5200658.7976   1   7   0.0089   0.0146   0.0223  -0.0040   0.0132   0.0020   6.00    9.3
2021/03/20 02:38:10.000    455571.3157   3639410.9578   5200658.7941   1   7   0.0124   0.0200   0.0315  -0.0069   0.0184   0.0020  10.00    9.3
2021/03/20 02:38:18.000    455571.3135   3639410.9560   5200658.7874   1   7   0.0203   0.0322   0.0519  -0.0126   0.0300   0.0013  18.00    9.2
2021/03/20 02:38:21.000    455571.3125   3639410.9556   5200658.7851   1   7   0.0234   0.0370   0.0599  -0.0147   0.0345   0.0006  21.00    9.2
2021/03/20 02:38:22.000    455571.3118   3639410.9580   5200658.7827   1   7   0.0244   0.0386   0.0625  -0.0154   0.0360  -0.0004  22.00    9.1
2021/03/20 02:38:23.000    455571.3120   3639410.9524   5200658.7833   1   7   0.0254   0.0402   0.0652  -0.0161   0.0375  -0.0008  23.00    9.0
2021/03/20 02:38:26.000    455571.3123   3639410.9471   5200658.7770   1   7   0.0286   0.0450   0.0732  -0.0182   0.0421  -0.0015  26.00    9.0
2021/03/20 02:38:29.000    455571.3110   3639410.9446   5200658.7703   1   7   0.0317   0.0499   0.0812  -0.0203   0.0467  -0.0020  29.00    8.9
2021/03/20 02:38:31.000    455571.3138   3639410.9481   5200658.8043   1   7   0.0061   0.0103   0.0148   0.0004   0.0090   0.0019   1.00    9.0
2021/03/20 02:38:33.000    455571.3127   3639410.9427   5200658.7995   1   7   0.0069   0.0115   0.0168  -0.0018   0.0101   0.0018   3.00    8.9
2021/03/20 02:38:34.000    455571.3121   3639410.9413   5200658.7984   1   7   0.0074   0.0124   0.0184  -0.0026   0.0110   0.0020   4.00    8.7
2021/03/20 02:38:36.000    455571.3116   3639410.9373   5200658.7936   1   7   0.0089   0.0146   0.0222  -0.0040   0.0131   0.0021   6.00    8.6
2021/03/20 02:38:39.000    455571.3117   3639410.9366   5200658.7916   1   7   0.0115   0.0186   0.0289  -0.0062   0.0169   0.0020   9.00    8.4
2021/03/20 02:38:41.000    455571.3094   3639410.9345   5200658.7872   1   7   0.0133   0.0214   0.0337  -0.0076   0.0196   0.0019  11.00    8.3
2021/03/20 02:38:44.000    455571.3071   3639410.9311   5200658.7815   1   7   0.0163   0.0259   0.0412  -0.0098   0.0239   0.0017  14.00    8.1
2021/03/20 02:38:46.000    455571.3061   3639410.9306   5200658.7807   1   7   0.0183   0.0290   0.0464  -0.0112   0.0268   0.0015  16.00    8.0
2021/03/20 02:38:48.000    455571.3066   3639410.9273   5200658.7786   1   7   0.0203   0.0322   0.0516  -0.0127   0.0298   0.0012  18.00    8.0
2021/03/20 02:38:51.000    455571.3063   3639410.9300   5200658.7712   1   7   0.0234   0.0369   0.0595  -0.0148   0.0342   0.0005  21.00    7.9
2021/03/20 02:38:53.000    455571.3024   3639410.9276   5200658.7684   1   7   0.0255   0.0401   0.0647  -0.0162   0.0372  -0.0009  23.00    7.8
2021/03/20 02:38:55.000    455571.3044   3639410.9299   5200658.7681   1   7   0.0276   0.0434   0.0700  -0.0176   0.0403  -0.0013  25.00    7.7
2021/03/20 02:38:57.000    455571.3006   3639410.9275   5200658.7626   1   7   0.0297   0.0466   0.0753  -0.0191   0.0433  -0.0017  27.00    7.6
2021/03/20 02:39:00.000    455571.3143   3639410.9534   5200658.8054   1   7   0.0061   0.0101   0.0145   0.0009   0.0088   0.0018   0.00    7.8
2021/03/20 02:39:03.000    455571.3131   3639410.9522   5200658.7988   1   7   0.0069   0.0115   0.0168  -0.0017   0.0100   0.0018   3.00    7.9
2021/03/20 02:39:05.000    455571.3096   3639410.9544   5200658.8005   1   7   0.0082   0.0134   0.0201  -0.0033   0.0119   0.0020   5.00    7.9
2021/03/20 02:39:07.000    455571.3110   3639410.9500   5200658.7958   1   7   0.0097   0.0159   0.0242  -0.0048   0.0142   0.0021   7.00    7.9
2021/03/20 02:39:09.000    455571.3094   3639410.9492   5200658.7935   1   7   0.0115   0.0186   0.0287  -0.0062   0.0168   0.0020   9.00    7.9
2021/03/20 02:39:11.000    455571.3107   3639410.9493   5200658.7894   1   7   0.0134   0.0214   0.0335  -0.0077   0.0195   0.0019  11.00    7.9
2021/03/20 02:39:14.000    455571.3098   3639410.9503   5200658.7911   1   7   0.0163   0.0259   0.0410  -0.0099   0.0237   0.0017  14.00    7.9
2021/03/20 02:39:16.000    455571.3086   3639410.9510   5200658.7892   1   7   0.0183   0.0290   0.0461  -0.0113   0.0266   0.0015  16.00    7.8
2021/03/20 02:39:19.000    455571.3095   3639410.9467   5200658.7832   1   7   0.0214   0.0337   0.0538  -0.0135   0.0310   0.0010  19.00    7.9
2021/03/20 02:39:21.000    455571.3075   3639410.9414   5200658.7789   1   7   0.0235   0.0369   0.0590  -0.0149   0.0340   0.0003  21.00    7.9
2021/03/20 02:39:23.000    455571.3080   3639410.9474   5200658.7827   1   7   0.0255   0.0401   0.0643  -0.0163   0.0370  -0.0009  23.00    7.9
2021/03/20 02:39:26.000    455571.3090   3639410.9453   5200658.7783   1   7   0.0287   0.0449   0.0722  -0.0185   0.0415  -0.0016  26.00    7.9
2021/03/20 02:39:28.000    455571.3101   3639410.9484   5200658.7819   1   7   0.0308   0.0481   0.0774  -0.0199   0.0445  -0.0019  28.00    7.9
2021/03/20 02:39:31.000    455571.3113   3639410.9518   5200658.8051   1   7   0.0062   0.0103   0.0147  -0.0004   0.0089   0.0019   1.00    8.1
2021/03/20 02:39:33.000    455571.3103   3639410.9540   5200658.8062   1   7   0.0068   0.0114   0.0167  -0.0019   0.0100   0.0019   3.00    8.3
2021/03/20 02:39:35.000    455571.3114   3639410.9506   5200658.8023   1   7   0.0082   0.0134   0.0200  -0.0034   0.0119   0.0020   5.00    8.4
2021/03/20 02:39:38.000    455571.3123   3639410.9508   5200658.8031   1   7   0.0106   0.0172   0.0263  -0.0056   0.0154   0.0020   8.00    8.5
2021/03/20 02:39:40.000    455571.3137   3639410.9486   5200658.7970   1   7   0.0124   0.0200   0.0309  -0.0070   0.0180   0.0020  10.00    8.6
2021/03/20 02:39:42.000    455571.3137   3639410.9497   5200658.7976   1   7   0.0144   0.0229   0.0357  -0.0085   0.0207   0.0018  12.00    8.6
2021/03/20 02:39:44.000    455571.3137   3639410.9496   5200658.7967   1   7   0.0163   0.0259   0.0407  -0.0099   0.0235   0.0016  14.00    8.6
2021/03/20 02:39:47.000    455571.3140   3639410.9521   5200658.7968   1   7   0.0194   0.0305   0.0483  -0.0121   0.0279   0.0013  17.00    8.7
2021/03/20 02:39:50.000    455571.3144   3639410.9508   5200658.7980   1   7   0.0225   0.0352   0.0561  -0.0143   0.0323   0.0007  20.00    8.7
2021/03/20 02:39:52.000    455571.3138   3639410.9520   5200658.7944   1   7   0.0246   0.0384   0.0612  -0.0157   0.0352  -0.0006  22.00    8.7
2021/03/20 02:39:54.000    455571.3154   3639410.9529   5200658.7966   1   7   0.0266   0.0416   0.0664  -0.0171   0.0382  -0.0012  24.00    8.7
2021/03/20 02:39:56.000    455571.3156   3639410.9523   5200658.7931   1   7   0.0287   0.0448   0.0717  -0.0186   0.0411  -0.0016  26.00    8.7
2021/03/20 02:39:59.000    455571.3141   3639410.9530   5200658.7928   1   7   0.0319   0.0497   0.0795  -0.0207   0.0456  -0.0021  29.00    8.7
2021/03/20 02:40:01.000    455571.3117   3639410.9518   5200658.8113   1   7   0.0061   0.0102   0.0147   0.0006   0.0089   0.0017   1.00    9.0
2021/03/20 02:40:03.000    455571.3113   3639410.9503   5200658.8051   1   7   0.0069   0.0114   0.0166  -0.0017   0.0100   0.0020   3.00    9.0
2021/03/20 02:40:06.000    455571.3113   3639410.9508   5200658.8069   1   7   0.0090   0.0146   0.0219  -0.0042   0.0129   0.0020   6.00    9.1
2021/03/20 02:40:08.000    455571.3110   3639410.9486   5200658.8004   1   7   0.0106   0.0172   0.0261  -0.0056   0.0153   0.0020   8.00    9.1
2021/03/20 02:40:11.000    455571.3115   3639410.9481   5200658.7954   1   7   0.0134   0.0214   0.0331  -0.0078   0.0192   0.0019  11.00    9.0
2021/03/20 02:40:13.000    455571.3113   3639410.9505   5200658.8001   1   7   0.0154   0.0243   0.0380  -0.0093   0.0220   0.0017  13.00    9.0
2021/03/20 02:40:15.000    455571.3103   3639410.9512   5200658.8004   1   7   0.0174   0.0274   0.0429  -0.0107   0.0248   0.0016  15.00    8.9
2021/03/20 02:40:25.000    455571.3096   3639410.9469   5200658.7930   1   7   0.0278   0.0432   0.0686  -0.0180   0.0393  -0.0014  25.00    8.8
2021/03/20 02:40:27.000    455571.3107   3639410.9468   5200658.7908   1   7   0.0299   0.0464   0.0738  -0.0194   0.0423  -0.0018  27.00    8.8
2021/03/20 02:40:28.000    455571.3119   3639410.9469   5200658.7912   1   7   0.0309   0.0480   0.0764  -0.0202   0.0438  -0.0019  28.00    8.7
2021/03/20 02:40:30.000    455571.3111   3639410.9498   5200658.8077   1   7   0.0061   0.0101   0.0144   0.0004   0.0087   0.0019   0.00    9.0
2021/03/20 02:40:32.000    455571.3116   3639410.9507   5200658.8036   1   7   0.0065   0.0107   0.0154  -0.0006   0.0093   0.0019   2.00    9.3
2021/03/20 02:40:35.000    455571.3114   3639410.9512   5200658.8017   1   7   0.0082   0.0134   0.0198  -0.0034   0.0117   0.0020   5.00    9.4
2021/03/20 02:40:37.000    455571.3103   3639410.9518   5200658.7995   1   7   0.0098   0.0158   0.0238  -0.0049   0.0140   0.0020   7.00    9.5
2021/03/20 02:40:38.000    455571.3092   3639410.9527   5200658.7989   1   7   0.0107   0.0171   0.0260  -0.0057   0.0152   0.0019   8.00    9.5
2021/03/20 02:40:40.000    455571.3091   3639410.9516   5200658.8009   1   7   0.0125   0.0199   0.0305  -0.0071   0.0177   0.0019  10.00    9.6
2021/03/20 02:40:43.000    455571.3083   3639410.9548   5200658.7963   1   7   0.0154   0.0243   0.0377  -0.0093   0.0218   0.0017  13.00    9.7
2021/03/20 02:40:45.000    455571.3072   3639410.9548   5200658.7933   1   7   0.0174   0.0273   0.0427  -0.0108   0.0246   0.0015  15.00    9.7
2021/03/20 02:40:47.000    455571.3055   3639410.9534   5200658.7917   1   7   0.0195   0.0304   0.0477  -0.0123   0.0274   0.0013  17.00    9.7
2021/03/20 02:40:50.000    455571.3051   3639410.9555   5200658.7901   1   7   0.0226   0.0351   0.0553  -0.0145   0.0318   0.0007  20.00    9.7
2021/03/20 02:40:52.000    455571.3046   3639410.9542   5200658.7883   1   7   0.0246   0.0383   0.0604  -0.0159   0.0347  -0.0007  22.00    9.7
2021/03/20 02:40:54.000    455571.3045   3639410.9505   5200658.7838   1   7   0.0268   0.0415   0.0655  -0.0174   0.0376  -0.0012  24.00    9.8
2021/03/20 02:40:57.000    455571.3011   3639410.9541   5200658.7849   1   7   0.0299   0.0463   0.0733  -0.0195   0.0420  -0.0018  27.00    9.8
2021/03/20 02:40:59.000    455571.3006   3639410.9547   5200658.7844   1   7   0.0320   0.0496   0.0784  -0.0210   0.0449  -0.0021  29.00    9.8
2021/03/20 02:41:01.000    455571.3113   3639410.9476   5200658.8029   1   7   0.0062   0.0103   0.0146   0.0008   0.0088   0.0019   1.00   10.1
2021/03/20 02:41:03.000    455571.3105   3639410.9431   5200658.7999   1   7   0.0069   0.0114   0.0165  -0.0020   0.0098   0.0018   3.00   10.2
2021/03/20 02:41:06.000    455571.3114   3639410.9402   5200658.7958   1   7   0.0090   0.0146   0.0216  -0.0042   0.0127   0.0019   6.00   10.3
2021/03/20 02:41:09.000    455571.3113   3639410.9395   5200658.7902   1   7   0.0116   0.0185   0.0280  -0.0065   0.0163   0.0019   9.00   10.3
2021/03/20 02:41:11.000    455571.3104   3639410.9346   5200658.7869   1   7   0.0135   0.0213   0.0327  -0.0079   0.0189   0.0018  11.00   10.2
2021/03/20 02:41:13.000    455571.3103   3639410.9307   5200658.7832   1   7   0.0154   0.0243   0.0375  -0.0094   0.0216   0.0017  13.00   10.2
2021/03/20 02:41:15.000    455571.3122   3639410.9293   5200658.7859   1   7   0.0174   0.0273   0.0424  -0.0109   0.0244   0.0015  15.00   10.2
2021/03/20 02:41:18.000    455571.3110   3639410.9247   5200658.7820   1   7   0.0205   0.0320   0.0499  -0.0131   0.0287   0.0010  18.00   10.1
2021/03/20 02:41:25.000    455571.3096   3639410.9121   5200658.7689   1   7   0.0279   0.0431   0.0676  -0.0182   0.0387  -0.0014  25.00   10.0
2021/03/20 02:41:27.000    455571.3103   3639410.9100   5200658.7678   1   7   0.0300   0.0463   0.0727  -0.0197   0.0417  -0.0018  27.00    9.9
2021/03/20 02:41:30.000    455571.3106   3639410.9487   5200658.8007   1   7   0.0061   0.0101   0.0143   0.0009   0.0086   0.0016   0.00   10.5
2021/03/20 02:41:31.000    455571.3109   3639410.9433   5200658.8017   1   7   0.0062   0.0103   0.0146  -0.0005   0.0087   0.0019   1.00   10.9
2021/03/20 02:41:34.000    455571.3122   3639410.9329   5200658.8001   1   7   0.0076   0.0124   0.0179  -0.0027   0.0106   0.0020   4.00   10.8
2021/03/20 02:41:36.000    455571.3119   3639410.9305   5200658.7986   1   7   0.0090   0.0146   0.0215  -0.0043   0.0126   0.0019   6.00   10.6
2021/03/20 02:41:38.000    455571.3102   3639410.9268   5200658.7958   1   7   0.0107   0.0171   0.0257  -0.0058   0.0150   0.0019   8.00   10.5
2021/03/20 02:41:41.000    455571.3137   3639410.9224   5200658.7908   1   7   0.0135   0.0213   0.0325  -0.0080   0.0188   0.0018  11.00   10.3
2021/03/20 02:41:46.000    455571.3110   3639410.9188   5200658.7849   1   7   0.0185   0.0288   0.0446  -0.0117   0.0256   0.0013  16.00   10.3
2021/03/20 02:41:49.000    455571.3085   3639410.9214   5200658.7829   1   7   0.0216   0.0335   0.0520  -0.0139   0.0299   0.0009  19.00   10.2
2021/03/20 02:41:52.000    455571.3052   3639410.9203   5200658.7775   1   7   0.0247   0.0382   0.0596  -0.0161   0.0341  -0.0007  22.00   10.2
2021/03/20 02:41:53.000    455571.3055   3639410.9226   5200658.7769   1   7   0.0258   0.0398   0.0621  -0.0168   0.0356  -0.0010  23.00   10.1
2021/03/20 02:41:54.000    455571.3045   3639410.9214   5200658.7790   1   7   0.0269   0.0414   0.0646  -0.0176   0.0370  -0.0012  24.00   10.1
2021/03/20 02:41:56.000    455571.3058   3639410.9214   5200658.7803   1   7   0.0290   0.0446   0.0697  -0.0191   0.0399  -0.0016  26.00   10.1
2021/03/20 02:41:58.000    455571.3033   3639410.9218   5200658.7747   1   7   0.0311   0.0478   0.0748  -0.0205   0.0428  -0.0019  28.00   10.1
2021/03/20 02:42:01.000    455571.3110   3639410.9551   5200658.8038   1   7   0.0062   0.0103   0.0145   0.0007   0.0087   0.0018   1.00   10.4
2021/03/20 02:42:04.000    455571.3092   3639410.9511   5200658.8029   1   7   0.0075   0.0123   0.0179  -0.0028   0.0106   0.0018   4.00   10.5
2021/03/20 02:42:07.000    455571.3086   3639410.9509   5200658.7995   1   7   0.0098   0.0158   0.0234  -0.0051   0.0137   0.0019   7.00   10.6
2021/03/20 02:42:10.000    455571.3053   3639410.9511   5200658.7963   1   7   0.0126   0.0199   0.0300  -0.0073   0.0174   0.0018  10.00   10.6
2021/03/20 02:42:13.000    455571.3052   3639410.9441   5200658.7869   1   7   0.0155   0.0242   0.0370  -0.0096   0.0213   0.0017  13.00   10.7
2021/03/20 02:42:15.000    455571.3043   3639410.9439   5200658.7853   1   7   0.0175   0.0273   0.0418  -0.0110   0.0241   0.0015  15.00   10.7
2021/03/20 02:42:16.000    455571.3054   3639410.9409   5200658.7822   1   7   0.0185   0.0288   0.0443  -0.0118   0.0254   0.0013  16.00   10.7
2021/03/20 02:42:18.000    455571.3040   3639410.9353   5200658.7824   1   7   0.0206   0.0319   0.0492  -0.0133   0.0282   0.0010  18.00   10.6
2021/03/20 02:42:21.000    455571.3028   3639410.9373   5200658.7835   1   7   0.0237   0.0366   0.0567  -0.0155   0.0325  -0.0004  21.00   10.6
2021/03/20 02:42:23.000    455571.3019   3639410.9364   5200658.7809   1   7   0.0259   0.0398   0.0617  -0.0170   0.0353  -0.0010  23.00   10.6
2021/03/20 02:42:26.000    455571.3009   3639410.9350   5200658.7759   1   7   0.0290   0.0445   0.0692  -0.0192   0.0396  -0.0016  26.00   10.6
2021/03/20 02:42:28.000    455571.3005   3639410.9340   5200658.7770   1   7   0.0312   0.0477   0.0743  -0.0206   0.0425  -0.0019  28.00   10.6
2021/03/20 02:42:30.000    455571.3089   3639410.9566   5200658.8102   1   7   0.0062   0.0101   0.0143   0.0006   0.0085   0.0018   0.00   11.1
