% program   : rnx2rtkp ver.2.4.3 b33
% inp file  : /home/danisimo/post/R1_193.2020-111.2021/R00109718.21o
% inp file  : /home/danisimo/post/NSK1_193.2020-111.2021/NSK10970.21o
% inp file  : /home/danisimo/post/NSK1_193.2020-111.2021/NSK10970.21N
% obs start : 2021/04/07 01:29:47.5 GPST (week2152 264587.5s)
% obs end   : 2021/04/07 11:47:19.0 GPST (week2152 301639.0s)
% ref pos   :   447670.3040   3638117.3850   5202281.5640
%
% (x/y/z-ecef=WGS84,Q=1:fix,2:float,3:sbas,4:dgps,5:single,6:ppp,ns=# of satellites)
%  GPST                      x-ecef(m)      y-ecef(m)      z-ecef(m)   Q  ns   sdx(m)   sdy(m)   sdz(m)  sdxy(m)  sdyz(m)  sdzx(m) age(s)  ratio
2021/04/07 01:29:47.496    455571.9123   3639410.3309   5200659.2790   2   7   0.6044   1.0035   1.4057  -0.0564   0.8419   0.1262  17.50    0.0
2021/04/07 01:29:47.996    455571.9873   3639410.3051   5200659.0645   2   7   0.4301   0.7150   0.9997  -0.0213   0.5992   0.0909  18.00    0.0
2021/04/07 01:29:49.496    455572.0198   3639410.5678   5200659.2889   2   7   0.3522   0.5855   0.8181  -0.0112   0.4904   0.0746  19.50    0.0
2021/04/07 01:29:52.996    455572.0296   3639410.7088   5200659.2220   2   7   0.3057   0.5082   0.7095  -0.0121   0.4253   0.0646  23.00    0.0
2021/04/07 01:29:55.496    455571.9928   3639410.7344   5200659.1300   2   7   0.2741   0.4555   0.6357  -0.0142   0.3810   0.0578  25.50    0.0
2021/04/07 01:29:57.496    455571.9699   3639410.7942   5200659.1406   2   7   0.2508   0.4167   0.5814  -0.0163   0.3484   0.0527  27.50    0.0
2021/04/07 01:29:57.996    455571.9685   3639410.8024   5200659.1481   2   7   0.2327   0.3864   0.5393  -0.0169   0.3231   0.0488  28.00    0.0
2021/04/07 01:30:01.000    455571.7626   3639410.2892   5200658.5519   2   7   0.6046   1.0031   1.4037  -0.0578   0.8399   0.1255   1.00    1.1
2021/04/07 01:30:03.000    455571.7224   3639410.4986   5200658.5445   2   7   0.4301   0.7143   0.9972  -0.0222   0.5971   0.0902   3.00    1.5
2021/04/07 01:30:12.000    455571.7023   3639410.6846   5200658.8747   2   7   0.3521   0.5846   0.8131  -0.0162   0.4872   0.0728  12.00    1.9
2021/04/07 01:30:16.000    455571.7010   3639410.8100   5200659.0216   2   7   0.3055   0.5071   0.7042  -0.0138   0.4221   0.0627  16.00    2.1
2021/04/07 01:30:17.000    455571.6725   3639410.9090   5200659.1326   2   7   0.2737   0.4541   0.6303  -0.0119   0.3779   0.0559  17.00    2.2
2021/04/07 01:30:23.000    455571.6710   3639410.9360   5200659.2953   2   7   0.2505   0.4155   0.5760  -0.0166   0.3453   0.0508  23.00    1.9
2021/04/07 01:30:27.000    455571.6663   3639411.0198   5200659.3204   2   7   0.2327   0.3856   0.5343  -0.0195   0.3203   0.0468  27.00    1.9
2021/04/07 01:30:30.000    455571.6964   3639411.0482   5200659.3083   2   7   0.2163   0.3572   0.4846  -0.0118   0.2931   0.0387   0.00    1.8
2021/04/07 01:30:33.000    455571.7085   3639411.0410   5200659.3250   2   7   0.2040   0.3362   0.4527  -0.0108   0.2747   0.0341   3.00    1.5
2021/04/07 01:30:37.000    455571.7181   3639411.0435   5200659.3622   2   7   0.1936   0.3191   0.4286  -0.0109   0.2603   0.0315   7.00    1.4
2021/04/07 01:30:40.000    455571.7382   3639411.0230   5200659.3442   2   7   0.1848   0.3045   0.4089  -0.0115   0.2484   0.0297  10.00    1.3
2021/04/07 01:30:43.000    455571.7437   3639411.0353   5200659.3555   2   7   0.1772   0.2919   0.3922  -0.0127   0.2381   0.0284  13.00    1.3
2021/04/07 01:30:44.000    455571.7437   3639411.0595   5200659.3971   2   7   0.1704   0.2807   0.3775  -0.0128   0.2291   0.0274  14.00    1.2
2021/04/07 01:30:47.000    455571.7438   3639411.0772   5200659.4212   2   7   0.1646   0.2711   0.3649  -0.0146   0.2213   0.0265  17.00    1.2
2021/04/07 01:30:52.000    455571.7369   3639411.0761   5200659.4417   2   7   0.1598   0.2630   0.3543  -0.0180   0.2147   0.0256  22.00    1.2
2021/04/07 01:30:55.000    455571.7392   3639411.0299   5200659.4368   2   7   0.1554   0.2556   0.3448  -0.0200   0.2087   0.0249  25.00    1.2
2021/04/07 01:30:58.000    455571.7408   3639411.0085   5200659.4676   2   7   0.1515   0.2490   0.3364  -0.0220   0.2034   0.0242  28.00    1.2
2021/04/07 01:31:01.000    455571.7493   3639410.9657   5200659.3963   2   7   0.1445   0.2369   0.3119  -0.0115   0.1908   0.0194   1.00    1.3
2021/04/07 01:31:06.000    455571.7374   3639410.9431   5200659.3576   2   7   0.1407   0.2304   0.3008  -0.0115   0.1847   0.0163   6.00    1.4
2021/04/07 01:31:09.000    455571.7314   3639410.8992   5200659.3047   2   7   0.1373   0.2246   0.2926  -0.0120   0.1799   0.0147   9.00    1.5
2021/04/07 01:31:12.000    455571.7332   3639410.8673   5200659.2433   2   7   0.1343   0.2196   0.2858  -0.0130   0.1758   0.0137  12.00    1.6
2021/04/07 01:31:14.000    455571.7342   3639410.8458   5200659.1936   2   7   0.1315   0.2149   0.2798  -0.0139   0.1721   0.0131  14.00    1.7
2021/04/07 01:31:16.000    455571.7473   3639410.8166   5200659.1606   2   7   0.1289   0.2106   0.2744  -0.0148   0.1687   0.0127  16.00    1.7
2021/04/07 01:31:19.000    455571.7395   3639410.8045   5200659.1506   2   7   0.1268   0.2070   0.2700  -0.0166   0.1658   0.0124  19.00    1.7
2021/04/07 01:31:22.000    455571.7276   3639410.7938   5200659.1287   2   7   0.1248   0.2037   0.2662  -0.0186   0.1633   0.0122  22.00    1.8
2021/04/07 01:31:27.000    455571.7220   3639410.8064   5200659.1157   2   7   0.1237   0.2015   0.2641  -0.0220   0.1617   0.0120  27.00    1.9
2021/04/07 01:31:29.000    455571.7105   3639410.8222   5200659.1228   2   7   0.1220   0.1987   0.2610  -0.0233   0.1596   0.0119  29.00    2.0
2021/04/07 01:31:32.000    455571.6900   3639410.7948   5200659.1033   2   7   0.1159   0.1885   0.2396  -0.0113   0.1488   0.0049   2.00    2.4
2021/04/07 01:31:35.000    455571.6667   3639410.7720   5200659.0392   2   7   0.1140   0.1848   0.2322  -0.0108   0.1451  -0.0071   5.00    2.7
2021/04/07 01:31:38.000    455571.3091   3639410.9544   5200658.8016   1   7   0.0109   0.0172   0.0246  -0.0061   0.0144   0.0014   8.00    3.1
2021/04/07 01:31:40.000    455571.3054   3639410.9574   5200658.8007   1   7   0.0128   0.0199   0.0288  -0.0077   0.0167   0.0011  10.00    3.5
2021/04/07 01:31:42.000    455571.3077   3639410.9575   5200658.8024   1   7   0.0147   0.0228   0.0332  -0.0092   0.0192   0.0007  12.00    3.7
2021/04/07 01:31:45.000    455571.3120   3639410.9593   5200658.8040   1   7   0.0178   0.0272   0.0400  -0.0115   0.0231  -0.0007  15.00    3.8
2021/04/07 01:31:48.000    455571.3143   3639410.9621   5200658.8066   1   7   0.0209   0.0318   0.0470  -0.0138   0.0271  -0.0013  18.00    3.9
2021/04/07 01:31:53.000    455571.3188   3639410.9654   5200658.8098   1   7   0.0263   0.0397   0.0589  -0.0176   0.0338  -0.0021  23.00    3.9
2021/04/07 01:31:55.000    455571.3195   3639410.9630   5200658.8038   1   7   0.0284   0.0428   0.0637  -0.0192   0.0366  -0.0023  25.00    3.9
2021/04/07 01:31:58.000    455571.3210   3639410.9639   5200658.8035   1   7   0.0317   0.0476   0.0709  -0.0215   0.0407  -0.0027  28.00    3.9
2021/04/07 01:32:01.000    455571.3106   3639410.9569   5200658.8048   1   7   0.0063   0.0104   0.0143  -0.0009   0.0085   0.0014   1.00    4.1
2021/04/07 01:32:04.000    455571.3102   3639410.9543   5200658.8053   1   7   0.0076   0.0124   0.0174  -0.0030   0.0102   0.0013   4.00    4.2
2021/04/07 01:32:08.000    455571.3094   3639410.9513   5200658.7988   1   7   0.0110   0.0172   0.0245  -0.0062   0.0143   0.0013   8.00    4.2
2021/04/07 01:32:11.000    455571.3102   3639410.9500   5200658.7962   1   7   0.0138   0.0213   0.0308  -0.0085   0.0178   0.0009  11.00    4.2
2021/04/07 01:32:14.000    455571.3096   3639410.9480   5200658.7959   1   7   0.0168   0.0257   0.0375  -0.0108   0.0216   0.0003  14.00    4.2
2021/04/07 01:32:21.000    455571.3071   3639410.9448   5200658.7873   1   7   0.0242   0.0365   0.0537  -0.0162   0.0309  -0.0017  21.00    4.2
2021/04/07 01:32:24.000    455571.3070   3639410.9464   5200658.7854   1   7   0.0274   0.0412   0.0608  -0.0185   0.0349  -0.0021  24.00    4.3
2021/04/07 01:32:27.000    455571.3059   3639410.9435   5200658.7770   1   7   0.0306   0.0460   0.0680  -0.0208   0.0390  -0.0025  27.00    4.3
2021/04/07 01:32:30.000    455571.3119   3639410.9564   5200658.8013   1   7   0.0062   0.0102   0.0141  -0.0007   0.0083   0.0011   0.00    4.5
2021/04/07 01:32:32.000    455571.3114   3639410.9547   5200658.7982   1   7   0.0066   0.0108   0.0150  -0.0016   0.0088   0.0012   2.00    4.7
2021/04/07 01:32:34.000    455571.3099   3639410.9516   5200658.7955   1   7   0.0076   0.0124   0.0173  -0.0031   0.0102   0.0014   4.00    4.9
2021/04/07 01:32:37.000    455571.3099   3639410.9487   5200658.7911   1   7   0.0100   0.0159   0.0224  -0.0055   0.0131   0.0012   7.00    5.0
2021/04/07 01:32:40.000    455571.3083   3639410.9486   5200658.7890   1   7   0.0128   0.0199   0.0285  -0.0078   0.0165   0.0010  10.00    5.0
2021/04/07 01:32:43.000    455571.3075   3639410.9465   5200658.7850   1   7   0.0158   0.0242   0.0350  -0.0101   0.0202   0.0005  13.00    5.0
2021/04/07 01:32:45.000    455571.3081   3639410.9478   5200658.7846   1   7   0.0179   0.0272   0.0395  -0.0117   0.0228  -0.0006  15.00    5.0
2021/04/07 01:32:47.000    455571.3091   3639410.9417   5200658.7793   1   7   0.0200   0.0302   0.0441  -0.0132   0.0254  -0.0010  17.00    5.0
2021/04/07 01:32:50.000    455571.3068   3639410.9414   5200658.7781   1   7   0.0232   0.0349   0.0510  -0.0155   0.0293  -0.0015  20.00    4.9
2021/04/07 01:32:53.000    455571.3042   3639410.9381   5200658.7728   1   7   0.0264   0.0396   0.0581  -0.0178   0.0333  -0.0019  23.00    4.8
2021/04/07 01:32:56.000    455571.3014   3639410.9366   5200658.7683   1   7   0.0296   0.0443   0.0651  -0.0201   0.0373  -0.0023  26.00    4.8
2021/04/07 01:32:58.000    455571.3013   3639410.9353   5200658.7649   1   7   0.0318   0.0475   0.0699  -0.0217   0.0400  -0.0026  28.00    4.7
2021/04/07 01:33:00.000    455571.3103   3639410.9515   5200658.7985   1   7   0.0062   0.0102   0.0141  -0.0007   0.0083   0.0012   0.00    4.7
2021/04/07 01:33:03.000    455571.3061   3639410.9519   5200658.7960   1   7   0.0071   0.0115   0.0160  -0.0023   0.0094   0.0015   3.00    4.7
2021/04/07 01:33:06.000    455571.3059   3639410.9500   5200658.7925   1   7   0.0092   0.0146   0.0205  -0.0047   0.0119   0.0012   6.00    4.7
2021/04/07 01:33:09.000    455571.3029   3639410.9504   5200658.7901   1   7   0.0119   0.0185   0.0262  -0.0071   0.0152   0.0012   9.00    4.7
2021/04/07 01:33:11.000    455571.3014   3639410.9499   5200658.7905   1   7   0.0138   0.0213   0.0304  -0.0086   0.0176   0.0009  11.00    4.7
2021/04/07 01:33:16.000    455571.2994   3639410.9496   5200658.7855   1   7   0.0190   0.0287   0.0415  -0.0125   0.0239  -0.0007  16.00    4.7
2021/04/07 01:33:22.000    455571.2994   3639410.9503   5200658.7774   1   7   0.0253   0.0380   0.0554  -0.0172   0.0317  -0.0017  22.00    4.7
2021/04/07 01:33:24.000    455571.2973   3639410.9514   5200658.7755   1   7   0.0275   0.0411   0.0600  -0.0187   0.0344  -0.0020  24.00    4.6
2021/04/07 01:33:29.000    455571.2957   3639410.9553   5200658.7737   1   7   0.0329   0.0490   0.0717  -0.0226   0.0410  -0.0026  29.00    4.6
2021/04/07 01:33:32.000    455571.3095   3639410.9511   5200658.7993   1   7   0.0066   0.0108   0.0149  -0.0017   0.0088   0.0014   2.00    4.7
2021/04/07 01:33:35.000    455571.3105   3639410.9427   5200658.7973   1   7   0.0084   0.0135   0.0187  -0.0040   0.0109   0.0013   5.00    4.7
2021/04/07 01:33:37.000    455571.3109   3639410.9375   5200658.7938   1   7   0.0101   0.0159   0.0222  -0.0055   0.0129   0.0013   7.00    4.6
2021/04/07 01:33:42.000    455571.3140   3639410.9261   5200658.7856   1   7   0.0149   0.0227   0.0324  -0.0095   0.0187   0.0008  12.00    4.5
2021/04/07 01:33:45.000    455571.3143   3639410.9217   5200658.7829   1   7   0.0180   0.0271   0.0390  -0.0118   0.0224  -0.0004  15.00    4.4
2021/04/07 01:33:48.000    455571.3144   3639410.9151   5200658.7797   1   7   0.0211   0.0317   0.0458  -0.0141   0.0263  -0.0011  18.00    4.4
2021/04/07 01:33:50.000    455571.3165   3639410.9216   5200658.7834   1   7   0.0233   0.0348   0.0504  -0.0157   0.0289  -0.0014  20.00    4.3
2021/04/07 01:33:52.000    455571.3173   3639410.9279   5200658.7828   1   7   0.0254   0.0379   0.0550  -0.0172   0.0315  -0.0017  22.00    4.3
2021/04/07 01:33:55.000    455571.3186   3639410.9322   5200658.7831   1   7   0.0287   0.0426   0.0619  -0.0196   0.0354  -0.0021  25.00    4.3
2021/04/07 01:34:01.000    455571.3116   3639410.9550   5200658.7989   1   7   0.0064   0.0104   0.0142  -0.0011   0.0084   0.0011   1.00    4.5
2021/04/07 01:34:03.000    455571.3099   3639410.9525   5200658.7961   1   7   0.0071   0.0115   0.0159  -0.0024   0.0093   0.0014   3.00    4.7
2021/04/07 01:34:08.000    455571.3111   3639410.9513   5200658.7917   1   7   0.0110   0.0171   0.0240  -0.0064   0.0139   0.0013   8.00    4.8
2021/04/07 01:34:11.000    455571.3113   3639410.9495   5200658.7853   1   7   0.0139   0.0213   0.0301  -0.0087   0.0173   0.0010  11.00    4.9
2021/04/07 01:34:16.000    455571.3112   3639410.9409   5200658.7765   1   7   0.0190   0.0286   0.0410  -0.0126   0.0235  -0.0006  16.00    5.0
2021/04/07 01:34:21.000    455571.3090   3639410.9392   5200658.7680   1   7   0.0244   0.0363   0.0523  -0.0166   0.0299  -0.0015  21.00    5.1
2021/04/07 01:34:24.000    455571.3069   3639410.9390   5200658.7645   1   7   0.0276   0.0410   0.0592  -0.0189   0.0338  -0.0018  24.00    5.3
2021/04/07 01:34:27.000    455571.3048   3639410.9390   5200658.7591   1   7   0.0309   0.0457   0.0661  -0.0212   0.0378  -0.0022  27.00    5.4
2021/04/07 01:34:29.000    455571.3029   3639410.9362   5200658.7572   1   7   0.0331   0.0489   0.0708  -0.0228   0.0404  -0.0024  29.00    5.5
2021/04/07 01:34:31.000    455571.3112   3639410.9549   5200658.7946   1   7   0.0063   0.0104   0.0142  -0.0006   0.0084   0.0012   1.00    5.9
2021/04/07 01:34:34.000    455571.3096   3639410.9531   5200658.7931   1   7   0.0078   0.0125   0.0171  -0.0032   0.0100   0.0014   4.00    6.1
2021/04/07 01:34:37.000    455571.3063   3639410.9531   5200658.7863   1   7   0.0101   0.0159   0.0220  -0.0056   0.0127   0.0012   7.00    6.2
2021/04/07 01:34:40.000    455571.3045   3639410.9555   5200658.7847   1   7   0.0129   0.0198   0.0278  -0.0080   0.0160   0.0011  10.00    6.3
2021/04/07 01:34:42.000    455571.3051   3639410.9550   5200658.7833   1   7   0.0149   0.0227   0.0320  -0.0096   0.0184   0.0008  12.00    6.4
2021/04/07 01:34:44.000    455571.3054   3639410.9531   5200658.7835   1   7   0.0170   0.0256   0.0363  -0.0111   0.0208   0.0005  14.00    6.5
2021/04/07 01:34:47.000    455571.3047   3639410.9558   5200658.7851   1   7   0.0201   0.0301   0.0430  -0.0135   0.0246  -0.0008  17.00    6.5
2021/04/07 01:34:50.000    455571.3038   3639410.9572   5200658.7817   1   7   0.0234   0.0347   0.0497  -0.0159   0.0284  -0.0012  20.00    6.6
2021/04/07 01:34:53.000    455571.3043   3639410.9553   5200658.7816   1   7   0.0266   0.0394   0.0565  -0.0182   0.0323  -0.0016  23.00    6.7
2021/04/07 01:34:55.000    455571.3033   3639410.9568   5200658.7793   1   7   0.0288   0.0425   0.0611  -0.0198   0.0349  -0.0019  25.00    6.8
2021/04/07 01:34:57.000    455571.3045   3639410.9540   5200658.7794   1   7   0.0310   0.0457   0.0657  -0.0214   0.0375  -0.0021  27.00    6.8
2021/04/07 01:35:00.000    455571.3126   3639410.9535   5200658.7961   1   7   0.0062   0.0102   0.0140  -0.0006   0.0082   0.0015   0.00    7.2
2021/04/07 01:35:03.000    455571.3120   3639410.9486   5200658.7937   1   7   0.0072   0.0116   0.0158  -0.0025   0.0092   0.0014   3.00    7.5
2021/04/07 01:35:08.000    455571.3125   3639410.9484   5200658.7895   1   7   0.0111   0.0171   0.0237  -0.0064   0.0137   0.0013   8.00    7.7
2021/04/07 01:35:10.000    455571.3120   3639410.9468   5200658.7857   1   7   0.0130   0.0198   0.0277  -0.0080   0.0159   0.0012  10.00    7.7
2021/04/07 01:35:13.000    455571.3107   3639410.9410   5200658.7824   1   7   0.0160   0.0241   0.0340  -0.0104   0.0195   0.0008  13.00    7.7
2021/04/07 01:35:19.000    455571.3112   3639410.9379   5200658.7777   1   7   0.0223   0.0332   0.0471  -0.0152   0.0269  -0.0010  19.00    7.7
2021/04/07 01:35:21.000    455571.3120   3639410.9381   5200658.7788   1   7   0.0245   0.0362   0.0516  -0.0167   0.0295  -0.0013  21.00    7.7
2021/04/07 01:35:23.000    455571.3120   3639410.9370   5200658.7772   1   7   0.0267   0.0394   0.0562  -0.0183   0.0320  -0.0015  23.00    7.7
2021/04/07 01:35:26.000    455571.3111   3639410.9381   5200658.7722   1   7   0.0299   0.0441   0.0630  -0.0207   0.0359  -0.0019  26.00    7.6
2021/04/07 01:35:29.000    455571.3115   3639410.9352   5200658.7686   1   7   0.0332   0.0488   0.0698  -0.0230   0.0398  -0.0022  29.00    7.5
2021/04/07 01:35:32.000    455571.3095   3639410.9510   5200658.7914   1   7   0.0067   0.0108   0.0148  -0.0018   0.0086   0.0013   2.00    7.4
2021/04/07 01:35:34.000    455571.3108   3639410.9474   5200658.7905   1   7   0.0078   0.0125   0.0170  -0.0033   0.0099   0.0014   4.00    7.4
2021/04/07 01:35:36.000    455571.3098   3639410.9477   5200658.7914   1   7   0.0094   0.0146   0.0201  -0.0049   0.0116   0.0013   6.00    7.3
2021/04/07 01:35:39.000    455571.3092   3639410.9437   5200658.7858   1   7   0.0120   0.0185   0.0255  -0.0073   0.0147   0.0012   9.00    7.0
2021/04/07 01:35:47.000    455571.3082   3639410.9388   5200658.7823   1   7   0.0202   0.0301   0.0424  -0.0136   0.0242  -0.0005  17.00    6.8
2021/04/07 01:35:49.000    455571.3061   3639410.9387   5200658.7809   1   7   0.0224   0.0331   0.0468  -0.0152   0.0267  -0.0009  19.00    6.6
2021/04/07 01:35:52.000    455571.3055   3639410.9412   5200658.7786   1   7   0.0256   0.0378   0.0535  -0.0176   0.0305  -0.0013  22.00    6.5
2021/04/07 01:35:55.000    455571.3041   3639410.9427   5200658.7774   1   7   0.0289   0.0425   0.0603  -0.0200   0.0343  -0.0017  25.00    6.3
2021/04/07 01:35:58.000    455571.3038   3639410.9443   5200658.7752   1   7   0.0322   0.0472   0.0671  -0.0224   0.0382  -0.0020  28.00    6.0
2021/04/07 01:36:00.000    455571.3116   3639410.9493   5200658.7969   1   7   0.0062   0.0103   0.0140  -0.0011   0.0081   0.0010   0.00    6.0
2021/04/07 01:36:02.000    455571.3099   3639410.9465   5200658.7949   1   7   0.0067   0.0109   0.0148  -0.0020   0.0086   0.0009   2.00    6.0
2021/04/07 01:36:05.000    455571.3110   3639410.9452   5200658.7904   1   7   0.0086   0.0135   0.0184  -0.0041   0.0106   0.0013   5.00    6.0
2021/04/07 01:36:08.000    455571.3084   3639410.9428   5200658.7878   1   7   0.0111   0.0171   0.0235  -0.0065   0.0135   0.0012   8.00    5.9
2021/04/07 01:36:11.000    455571.3089   3639410.9362   5200658.7839   1   7   0.0140   0.0212   0.0294  -0.0089   0.0168   0.0010  11.00    5.8
2021/04/07 01:36:13.000    455571.3092   3639410.9335   5200658.7819   1   7   0.0161   0.0241   0.0335  -0.0105   0.0192   0.0008  13.00    5.7
2021/04/07 01:36:15.000    455571.3088   3639410.9302   5200658.7775   1   7   0.0182   0.0270   0.0378  -0.0121   0.0216   0.0006  15.00    5.6
2021/04/07 01:36:18.000    455571.3074   3639410.9309   5200658.7776   1   7   0.0213   0.0316   0.0443  -0.0145   0.0253  -0.0005  18.00    5.4
2021/04/07 01:36:24.000    455571.3078   3639410.9377   5200658.7757   1   7   0.0279   0.0408   0.0577  -0.0193   0.0328  -0.0014  24.00    5.4
2021/04/07 01:36:26.000    455571.3085   3639410.9421   5200658.7775   1   7   0.0301   0.0440   0.0621  -0.0209   0.0353  -0.0016  26.00    5.2
2021/04/07 01:36:28.000    455571.3081   3639410.9489   5200658.7773   1   7   0.0323   0.0471   0.0666  -0.0225   0.0379  -0.0018  28.00    5.1
2021/04/07 01:36:31.000    455571.3134   3639410.9560   5200658.8026   1   7   0.0064   0.0104   0.0142  -0.0013   0.0082   0.0012   1.00    5.2
2021/04/07 01:36:34.000    455571.3137   3639410.9572   5200658.7973   1   7   0.0078   0.0125   0.0169  -0.0034   0.0098   0.0012   4.00    5.2
2021/04/07 01:36:39.000    455571.3113   3639410.9635   5200658.7976   1   7   0.0121   0.0185   0.0253  -0.0074   0.0145   0.0011   9.00    5.1
2021/04/07 01:36:44.000    455571.3112   3639410.9672   5200658.7985   1   7   0.0172   0.0256   0.0355  -0.0114   0.0202   0.0008  14.00    5.0
2021/04/07 01:36:47.000    455571.3117   3639410.9661   5200658.7949   1   7   0.0203   0.0300   0.0419  -0.0138   0.0239   0.0003  17.00    4.9
2021/04/07 01:36:50.000    455571.3120   3639410.9693   5200658.7951   1   7   0.0236   0.0346   0.0484  -0.0162   0.0276  -0.0008  20.00    4.9
2021/04/07 01:36:52.000    455571.3105   3639410.9680   5200658.7929   1   7   0.0257   0.0377   0.0528  -0.0178   0.0300  -0.0011  22.00    4.8
2021/04/07 01:36:54.000    455571.3114   3639410.9677   5200658.7896   1   7   0.0279   0.0408   0.0573  -0.0194   0.0326  -0.0013  24.00    4.8
2021/04/07 01:36:57.000    455571.3089   3639410.9688   5200658.7878   1   7   0.0312   0.0455   0.0640  -0.0218   0.0363  -0.0016  27.00    4.8
2021/04/07 01:37:00.000    455571.3136   3639410.9515   5200658.7972   1   7   0.0063   0.0103   0.0140  -0.0009   0.0081   0.0011   0.00    4.8
2021/04/07 01:37:03.000    455571.3134   3639410.9476   5200658.7950   1   7   0.0072   0.0116   0.0157  -0.0026   0.0091   0.0012   3.00    4.8
2021/04/07 01:37:05.000    455571.3127   3639410.9477   5200658.7951   1   7   0.0086   0.0135   0.0183  -0.0042   0.0105   0.0013   5.00    4.9
2021/04/07 01:37:10.000    455571.3137   3639410.9394   5200658.7844   1   7   0.0131   0.0198   0.0271  -0.0082   0.0155   0.0011  10.00    4.9
2021/04/07 01:37:13.000    455571.3124   3639410.9397   5200658.7837   1   7   0.0162   0.0241   0.0332  -0.0107   0.0189   0.0009  13.00    5.0
2021/04/07 01:37:23.000    455571.3117   3639410.9361   5200658.7770   1   7   0.0269   0.0392   0.0547  -0.0187   0.0311  -0.0010  23.00    5.0
2021/04/07 01:37:27.000    455571.3100   3639410.9350   5200658.7770   1   7   0.0313   0.0455   0.0635  -0.0219   0.0360  -0.0014  27.00    4.9
2021/04/07 01:37:32.000    455571.3123   3639410.9515   5200658.8019   1   7   0.0068   0.0109   0.0147  -0.0018   0.0085   0.0011   2.00    4.9
2021/04/07 01:37:38.000    455571.3148   3639410.9467   5200658.7986   1   7   0.0112   0.0172   0.0232  -0.0067   0.0133   0.0013   8.00    4.9
2021/04/07 01:37:39.000    455571.3139   3639410.9457   5200658.7986   1   7   0.0122   0.0185   0.0250  -0.0075   0.0143   0.0013   9.00    4.9
2021/04/07 01:37:41.000    455571.3148   3639410.9424   5200658.7962   1   7   0.0141   0.0212   0.0289  -0.0091   0.0165   0.0011  11.00    4.8
2021/04/07 01:37:44.000    455571.3139   3639410.9406   5200658.7976   1   7   0.0172   0.0255   0.0350  -0.0115   0.0199   0.0010  14.00    4.8
2021/04/07 01:37:52.000    455571.3118   3639410.9386   5200658.7891   1   7   0.0258   0.0376   0.0522  -0.0180   0.0296  -0.0006  22.00    4.8
2021/04/07 01:37:54.000    455571.3105   3639410.9344   5200658.7868   1   7   0.0280   0.0407   0.0565  -0.0196   0.0321  -0.0009  24.00    4.7
2021/04/07 01:37:57.000    455571.3100   3639410.9334   5200658.7845   1   7   0.0313   0.0454   0.0631  -0.0220   0.0358  -0.0012  27.00    4.6
2021/04/07 01:38:05.000    455571.3111   3639410.9473   5200658.7888   1   7   0.0086   0.0135   0.0181  -0.0042   0.0104   0.0012   5.00    4.6
2021/04/07 01:38:07.000    455571.3101   3639410.9445   5200658.7834   1   7   0.0103   0.0159   0.0213  -0.0059   0.0122   0.0013   7.00    4.5
2021/04/07 01:38:10.000    455571.3075   3639410.9400   5200658.7845   1   7   0.0132   0.0198   0.0268  -0.0083   0.0153   0.0012  10.00    4.5
2021/04/07 01:38:12.000    455571.3073   3639410.9399   5200658.7822   1   7   0.0152   0.0226   0.0308  -0.0100   0.0175   0.0011  12.00    4.4
2021/04/07 01:38:15.000    455571.3054   3639410.9382   5200658.7780   1   7   0.0183   0.0270   0.0369  -0.0124   0.0210   0.0010  15.00    4.4
2021/04/07 01:38:18.000    455571.3031   3639410.9381   5200658.7746   1   7   0.0215   0.0315   0.0432  -0.0148   0.0245   0.0007  18.00    4.4
2021/04/07 01:38:20.000    455571.3015   3639410.9334   5200658.7697   1   7   0.0237   0.0345   0.0475  -0.0164   0.0269   0.0004  20.00    4.3
2021/04/07 01:38:23.000    455571.3028   3639410.9278   5200658.7641   1   7   0.0270   0.0392   0.0540  -0.0189   0.0306  -0.0005  23.00    4.3
2021/04/07 01:38:25.000    455571.3018   3639410.9286   5200658.7645   1   7   0.0292   0.0423   0.0583  -0.0205   0.0330  -0.0007  25.00    4.3
2021/04/07 01:38:28.000    455571.3025   3639410.9190   5200658.7577   1   7   0.0325   0.0469   0.0649  -0.0229   0.0367  -0.0010  28.00    4.3
2021/04/07 01:38:31.000    455571.3128   3639410.9506   5200658.7950   1   7   0.0065   0.0105   0.0141  -0.0014   0.0081   0.0013   1.00    4.4
2021/04/07 01:38:33.000    455571.3124   3639410.9472   5200658.7909   1   7   0.0072   0.0116   0.0156  -0.0026   0.0089   0.0010   3.00    4.5
2021/04/07 01:38:36.000    455571.3118   3639410.9400   5200658.7839   1   7   0.0095   0.0147   0.0196  -0.0051   0.0112   0.0014   6.00    4.5
2021/04/07 01:38:38.000    455571.3100   3639410.9360   5200658.7800   1   7   0.0113   0.0172   0.0230  -0.0068   0.0131   0.0013   8.00    4.4
2021/04/07 01:38:41.000    455571.3077   3639410.9337   5200658.7775   1   7   0.0142   0.0212   0.0286  -0.0092   0.0162   0.0012  11.00    4.4
2021/04/07 01:38:44.000    455571.3053   3639410.9309   5200658.7717   1   7   0.0173   0.0255   0.0346  -0.0116   0.0196   0.0011  14.00    4.4
2021/04/07 01:38:49.000    455571.3025   3639410.9242   5200658.7651   1   7   0.0227   0.0330   0.0451  -0.0157   0.0255   0.0008  19.00    4.4
2021/04/07 01:38:51.000    455571.3009   3639410.9213   5200658.7584   1   7   0.0249   0.0360   0.0494  -0.0173   0.0279   0.0006  21.00    4.4
2021/04/07 01:38:59.000    455571.2975   3639410.9112   5200658.7489   1   7   0.0337   0.0485   0.0666  -0.0238   0.0377  -0.0008  29.00    4.3
2021/04/07 01:39:02.000    455571.3140   3639410.9502   5200658.7878   1   7   0.0068   0.0109   0.0147  -0.0020   0.0084   0.0012   2.00    4.5
2021/04/07 01:39:04.000    455571.3123   3639410.9498   5200658.7858   1   7   0.0080   0.0126   0.0167  -0.0035   0.0095   0.0014   4.00    4.6
2021/04/07 01:39:07.000    455571.3126   3639410.9487   5200658.7852   1   7   0.0104   0.0159   0.0212  -0.0060   0.0120   0.0014   7.00    4.7
2021/04/07 01:39:12.000    455571.3099   3639410.9468   5200658.7750   1   7   0.0153   0.0226   0.0304  -0.0101   0.0172   0.0012  12.00    4.8
2021/04/07 01:39:15.000    455571.3076   3639410.9465   5200658.7733   1   7   0.0184   0.0270   0.0365  -0.0125   0.0206   0.0011  15.00    4.8
2021/04/07 01:39:17.000    455571.3089   3639410.9466   5200658.7745   1   7   0.0206   0.0299   0.0406  -0.0141   0.0230   0.0010  17.00    4.9
2021/04/07 01:39:20.000    455571.3095   3639410.9461   5200658.7752   1   7   0.0238   0.0345   0.0469  -0.0166   0.0265   0.0009  20.00    4.9
2021/04/07 01:39:23.000    455571.3134   3639410.9466   5200658.7778   1   7   0.0271   0.0391   0.0533  -0.0190   0.0301   0.0008  23.00    4.9
2021/04/07 01:39:28.000    455571.3198   3639410.9520   5200658.7834   1   7   0.0327   0.0469   0.0641  -0.0231   0.0362   0.0004  28.00    4.9
2021/04/07 01:39:30.000    455571.3139   3639410.9509   5200658.7971   1   7   0.0063   0.0103   0.0139  -0.0012   0.0080   0.0008   0.00    5.0
2021/04/07 01:39:33.000    455571.3137   3639410.9555   5200658.7964   1   7   0.0073   0.0117   0.0156  -0.0027   0.0089   0.0010   3.00    5.1
2021/04/07 01:39:36.000    455571.3176   3639410.9568   5200658.7978   1   7   0.0096   0.0147   0.0195  -0.0052   0.0111   0.0013   6.00    5.3
2021/04/07 01:39:38.000    455571.3190   3639410.9566   5200658.7984   1   7   0.0113   0.0172   0.0228  -0.0069   0.0129   0.0013   8.00    5.3
2021/04/07 01:39:41.000    455571.3213   3639410.9584   5200658.8019   1   7   0.0143   0.0212   0.0283  -0.0093   0.0160   0.0013  11.00    5.4
2021/04/07 01:39:46.000    455571.3293   3639410.9495   5200658.7998   1   7   0.0195   0.0284   0.0383  -0.0134   0.0216   0.0012  16.00    5.4
2021/04/07 01:39:49.000    455571.3336   3639410.9427   5200658.7992   1   7   0.0228   0.0329   0.0445  -0.0158   0.0251   0.0012  19.00    5.4
2021/04/07 01:39:51.000    455571.3383   3639410.9392   5200658.7966   1   7   0.0250   0.0360   0.0487  -0.0175   0.0275   0.0011  21.00    5.5
2021/04/07 01:39:56.000    455571.3420   3639410.9370   5200658.7942   1   7   0.0305   0.0437   0.0594  -0.0216   0.0335   0.0009  26.00    5.5
2021/04/07 01:39:59.000    455571.3437   3639410.9331   5200658.7910   1   7   0.0338   0.0484   0.0658  -0.0240   0.0371   0.0009  29.00    5.6
2021/04/07 01:40:04.000    455571.3151   3639410.9442   5200658.7884   1   7   0.0080   0.0126   0.0166  -0.0036   0.0095   0.0011   4.00    5.7
2021/04/07 01:40:05.000    455571.3160   3639410.9432   5200658.7872   1   7   0.0087   0.0136   0.0179  -0.0044   0.0102   0.0012   5.00    5.9
2021/04/07 01:40:07.000    455571.3151   3639410.9387   5200658.7829   1   7   0.0104   0.0159   0.0210  -0.0061   0.0119   0.0013   7.00    6.0
2021/04/07 01:40:10.000    455571.3161   3639410.9390   5200658.7820   1   7   0.0133   0.0198   0.0263  -0.0086   0.0149   0.0013  10.00    6.1
2021/04/07 01:40:11.000    455571.3168   3639410.9371   5200658.7774   1   7   0.0143   0.0212   0.0282  -0.0094   0.0159   0.0013  11.00    6.2
2021/04/07 01:40:16.000    455571.3168   3639410.9343   5200658.7754   1   7   0.0196   0.0284   0.0381  -0.0135   0.0215   0.0013  16.00    6.3
2021/04/07 01:40:21.000    455571.3176   3639410.9295   5200658.7648   1   7   0.0250   0.0360   0.0484  -0.0176   0.0273   0.0012  21.00    6.3
2021/04/07 01:40:24.000    455571.3164   3639410.9266   5200658.7576   1   7   0.0283   0.0406   0.0548  -0.0200   0.0309   0.0012  24.00    6.3
2021/04/07 01:40:25.000    455571.3152   3639410.9214   5200658.7564   1   7   0.0294   0.0421   0.0569  -0.0208   0.0320   0.0012  25.00    6.4
2021/04/07 01:40:27.000    455571.3144   3639410.9201   5200658.7553   1   7   0.0317   0.0452   0.0611  -0.0225   0.0344   0.0012  27.00    6.4
2021/04/07 01:40:28.000    455571.3142   3639410.9152   5200658.7502   1   7   0.0328   0.0468   0.0632  -0.0233   0.0356   0.0012  28.00    6.5
2021/04/07 01:40:31.000    455571.3144   3639410.9509   5200658.7896   1   7   0.0065   0.0105   0.0141  -0.0014   0.0080   0.0008   1.00    6.5
2021/04/07 01:40:33.000    455571.3126   3639410.9454   5200658.7849   1   7   0.0074   0.0117   0.0155  -0.0028   0.0088   0.0012   3.00    6.5
2021/04/07 01:40:36.000    455571.3130   3639410.9453   5200658.7822   1   7   0.0096   0.0147   0.0193  -0.0053   0.0109   0.0012   6.00    6.6
2021/04/07 01:40:41.000    455571.3061   3639410.9417   5200658.7764   1   7   0.0144   0.0212   0.0280  -0.0094   0.0158   0.0014  11.00    6.5
2021/04/07 01:40:46.000    455571.3069   3639410.9397   5200658.7704   1   7   0.0196   0.0284   0.0379  -0.0135   0.0213   0.0014  16.00    6.6
2021/04/07 01:40:49.000    455571.3043   3639410.9349   5200658.7658   1   7   0.0229   0.0329   0.0440  -0.0160   0.0248   0.0014  19.00    6.5
2021/04/07 01:40:52.000    455571.3032   3639410.9328   5200658.7640   1   7   0.0262   0.0375   0.0502  -0.0185   0.0283   0.0014  22.00    6.5
2021/04/07 01:40:53.000    455571.3021   3639410.9328   5200658.7637   1   7   0.0273   0.0390   0.0523  -0.0193   0.0294   0.0014  23.00    6.5
2021/04/07 01:40:56.000    455571.3003   3639410.9318   5200658.7589   1   7   0.0306   0.0436   0.0586  -0.0218   0.0330   0.0014  26.00    6.5
2021/04/07 01:40:58.000    455571.3010   3639410.9298   5200658.7589   1   7   0.0329   0.0467   0.0629  -0.0234   0.0353   0.0015  28.00    6.5
2021/04/07 01:41:01.000    455571.3150   3639410.9528   5200658.7936   1   7   0.0065   0.0106   0.0141  -0.0017   0.0080   0.0009   1.00    6.6
2021/04/07 01:41:03.000    455571.3149   3639410.9529   5200658.7911   1   7   0.0074   0.0117   0.0155  -0.0027   0.0088   0.0012   3.00    6.6
2021/04/07 01:41:06.000    455571.3149   3639410.9533   5200658.7938   1   7   0.0096   0.0148   0.0193  -0.0053   0.0109   0.0013   6.00    6.6
2021/04/07 01:41:08.000    455571.3149   3639410.9532   5200658.7948   1   7   0.0114   0.0172   0.0225  -0.0070   0.0127   0.0013   8.00    6.6
2021/04/07 01:41:13.000    455571.3144   3639410.9482   5200658.7882   1   7   0.0165   0.0240   0.0317  -0.0111   0.0178   0.0014  13.00    6.6
2021/04/07 01:41:15.000    455571.3156   3639410.9453   5200658.7864   1   7   0.0186   0.0269   0.0357  -0.0128   0.0201   0.0014  15.00    6.6
2021/04/07 01:41:18.000    455571.3101   3639410.9444   5200658.7806   1   7   0.0218   0.0314   0.0417  -0.0152   0.0234   0.0015  18.00    6.6
2021/04/07 01:41:21.000    455571.3106   3639410.9446   5200658.7798   1   7   0.0251   0.0359   0.0479  -0.0177   0.0269   0.0015  21.00    6.7
2021/04/07 01:41:22.000    455571.3112   3639410.9458   5200658.7794   1   7   0.0262   0.0374   0.0499  -0.0185   0.0281   0.0015  22.00    6.7
2021/04/07 01:41:24.000    455571.3101   3639410.9450   5200658.7783   1   7   0.0285   0.0405   0.0541  -0.0202   0.0304   0.0016  24.00    6.8
2021/04/07 01:41:26.000    455571.3116   3639410.9420   5200658.7755   1   7   0.0307   0.0436   0.0583  -0.0218   0.0327   0.0016  26.00    6.8
2021/04/07 01:41:29.000    455571.3106   3639410.9364   5200658.7711   1   7   0.0341   0.0483   0.0646  -0.0243   0.0363   0.0017  29.00    6.9
2021/04/07 01:41:37.000    455571.3097   3639410.9457   5200658.7953   1   7   0.0105   0.0160   0.0208  -0.0062   0.0117   0.0013   7.00    7.0
2021/04/07 01:41:39.000    455571.3088   3639410.9483   5200658.7943   1   7   0.0124   0.0185   0.0241  -0.0078   0.0136   0.0014   9.00    7.1
2021/04/07 01:41:44.000    455571.3035   3639410.9489   5200658.7912   1   7   0.0176   0.0255   0.0335  -0.0120   0.0188   0.0015  14.00    7.2
2021/04/07 01:41:47.000    455571.3027   3639410.9492   5200658.7865   1   7   0.0208   0.0299   0.0394  -0.0145   0.0221   0.0016  17.00    7.4
2021/04/07 01:41:49.000    455571.3001   3639410.9504   5200658.7854   1   7   0.0230   0.0329   0.0435  -0.0161   0.0244   0.0016  19.00    7.5
2021/04/07 01:41:51.000    455571.2986   3639410.9516   5200658.7851   1   7   0.0252   0.0359   0.0476  -0.0178   0.0267   0.0017  21.00    7.6
2021/04/07 01:41:53.000    455571.2971   3639410.9555   5200658.7843   1   7   0.0274   0.0389   0.0517  -0.0195   0.0290   0.0017  23.00    7.6
2021/04/07 01:41:56.000    455571.2940   3639410.9625   5200658.7820   1   7   0.0308   0.0436   0.0579  -0.0219   0.0325   0.0018  26.00    7.7
2021/04/07 01:41:59.000    455571.2920   3639410.9655   5200658.7807   1   7   0.0341   0.0482   0.0642  -0.0244   0.0360   0.0019  29.00    7.8
2021/04/07 01:42:01.000    455571.3147   3639410.9544   5200658.7957   1   7   0.0066   0.0106   0.0141  -0.0014   0.0080   0.0012   1.00    8.0
2021/04/07 01:42:03.000    455571.3135   3639410.9520   5200658.7941   1   7   0.0074   0.0118   0.0155  -0.0029   0.0087   0.0009   3.00    8.3
2021/04/07 01:42:08.000    455571.3129   3639410.9547   5200658.7902   1   7   0.0115   0.0172   0.0223  -0.0071   0.0125   0.0014   8.00    8.5
2021/04/07 01:42:11.000    455571.3117   3639410.9587   5200658.7858   1   7   0.0145   0.0212   0.0276  -0.0096   0.0155   0.0015  11.00    8.8
2021/04/07 01:42:13.000    455571.3094   3639410.9575   5200658.7838   1   7   0.0166   0.0240   0.0314  -0.0112   0.0176   0.0016  13.00    9.0
2021/04/07 01:42:15.000    455571.3078   3639410.9586   5200658.7812   1   7   0.0187   0.0269   0.0353  -0.0129   0.0198   0.0016  15.00    9.2
2021/04/07 01:42:16.000    455571.3081   3639410.9601   5200658.7830   1   7   0.0198   0.0284   0.0372  -0.0137   0.0209   0.0016  16.00    9.4
2021/04/07 01:42:19.000    455571.3065   3639410.9594   5200658.7779   1   7   0.0230   0.0329   0.0432  -0.0162   0.0242   0.0017  19.00    9.5
2021/04/07 01:42:25.000    455571.3021   3639410.9614   5200658.7683   1   7   0.0297   0.0420   0.0555  -0.0212   0.0311   0.0019  25.00    9.7
2021/04/07 01:42:28.000    455571.3011   3639410.9544   5200658.7612   1   7   0.0331   0.0466   0.0617  -0.0237   0.0346   0.0021  28.00    9.9
2021/04/07 01:42:31.000    455571.3124   3639410.9519   5200658.8024   1   7   0.0067   0.0107   0.0142  -0.0014   0.0079   0.0011   1.00   10.1
2021/04/07 01:42:32.000    455571.3119   3639410.9493   5200658.7989   1   7   0.0071   0.0111   0.0147  -0.0021   0.0082   0.0012   2.00   10.4
2021/04/07 01:42:37.000    455571.3075   3639410.9396   5200658.7957   1   7   0.0106   0.0160   0.0206  -0.0062   0.0116   0.0014   7.00   10.6
2021/04/07 01:42:40.000    455571.3061   3639410.9353   5200658.7908   1   7   0.0135   0.0199   0.0257  -0.0088   0.0144   0.0015  10.00   10.8
2021/04/07 01:42:42.000    455571.3043   3639410.9308   5200658.7848   1   7   0.0155   0.0226   0.0293  -0.0105   0.0164   0.0015  12.00   10.9
2021/04/07 01:42:43.000    455571.3034   3639410.9329   5200658.7849   1   7   0.0166   0.0240   0.0312  -0.0113   0.0175   0.0016  13.00   11.1
2021/04/07 01:42:44.000    455571.3037   3639410.9349   5200658.7858   1   7   0.0177   0.0255   0.0331  -0.0121   0.0185   0.0017  14.00   11.2
2021/04/07 01:42:49.000    455571.2997   3639410.9282   5200658.7766   1   7   0.0231   0.0328   0.0430  -0.0163   0.0241   0.0018  19.00   11.4
2021/04/07 01:42:51.000    455571.2976   3639410.9267   5200658.7729   1   7   0.0253   0.0359   0.0470  -0.0180   0.0263   0.0019  21.00   11.4
2021/04/07 01:42:54.000    455571.2955   3639410.9235   5200658.7674   1   7   0.0286   0.0404   0.0531  -0.0205   0.0297   0.0020  24.00   11.6
2021/04/07 01:42:56.000    455571.2939   3639410.9231   5200658.7666   1   7   0.0309   0.0435   0.0572  -0.0221   0.0320   0.0021  26.00   11.7
2021/04/07 01:43:01.000    455571.3115   3639410.9508   5200658.8021   1   7   0.0066   0.0107   0.0142  -0.0014   0.0079   0.0010   1.00   11.8
2021/04/07 01:43:04.000    455571.3083   3639410.9484   5200658.7986   1   7   0.0081   0.0127   0.0165  -0.0036   0.0092   0.0012   4.00   11.7
2021/04/07 01:43:06.000    455571.3064   3639410.9441   5200658.7946   1   7   0.0098   0.0148   0.0191  -0.0054   0.0107   0.0014   6.00   11.6
2021/04/07 01:43:08.000    455571.3069   3639410.9353   5200658.7902   1   7   0.0116   0.0173   0.0222  -0.0071   0.0124   0.0015   8.00   11.7
2021/04/07 01:43:09.000    455571.3067   3639410.9365   5200658.7852   1   7   0.0125   0.0185   0.0238  -0.0080   0.0133   0.0014   9.00   11.8
2021/04/07 01:43:12.000    455571.3058   3639410.9283   5200658.7824   1   7   0.0156   0.0226   0.0292  -0.0105   0.0163   0.0016  12.00   11.9
2021/04/07 01:43:15.000    455571.3073   3639410.9262   5200658.7816   1   7   0.0188   0.0269   0.0349  -0.0130   0.0195   0.0017  15.00   12.1
2021/04/07 01:43:17.000    455571.3069   3639410.9238   5200658.7769   1   7   0.0209   0.0298   0.0388  -0.0147   0.0217   0.0018  17.00   12.2
2021/04/07 01:43:19.000    455571.3071   3639410.9212   5200658.7741   1   7   0.0231   0.0328   0.0427  -0.0164   0.0239   0.0019  19.00   12.3
2021/04/07 01:43:21.000    455571.3077   3639410.9195   5200658.7715   1   7   0.0254   0.0358   0.0467  -0.0180   0.0261   0.0020  21.00   12.4
2021/04/07 01:43:27.000    455571.3047   3639410.9207   5200658.7699   1   7   0.0321   0.0450   0.0589  -0.0230   0.0329   0.0024  27.00   12.4
2021/04/07 01:43:29.000    455571.3042   3639410.9240   5200658.7684   1   7   0.0343   0.0481   0.0630  -0.0247   0.0352   0.0025  29.00   12.5
2021/04/07 01:43:31.000    455571.3969   3639411.0137   5200658.8420   2   8   0.0352   0.0380   0.0290   0.0131   0.0244  -0.0095   1.00    2.7
2021/04/07 01:43:33.000    455571.3117   3639410.9529   5200658.7988   1   8   0.0070   0.0111   0.0141   0.0018   0.0069   0.0043   3.00    4.3
2021/04/07 01:43:34.000    455571.3117   3639410.9537   5200658.8015   1   8   0.0076   0.0118   0.0150   0.0005   0.0072   0.0048   4.00    5.7
2021/04/07 01:43:37.000    455571.3097   3639410.9541   5200658.7953   1   8   0.0095   0.0146   0.0187  -0.0028   0.0086   0.0065   7.00    6.8
2021/04/07 01:43:39.000    455571.3097   3639410.9559   5200658.7941   1   8   0.0110   0.0167   0.0216  -0.0039   0.0098   0.0079   9.00    7.6
2021/04/07 01:43:41.000    455571.3078   3639410.9588   5200658.7982   1   8   0.0126   0.0189   0.0248  -0.0048   0.0111   0.0093  11.00    8.3
2021/04/07 01:43:43.000    455571.3082   3639410.9598   5200658.7944   1   8   0.0142   0.0213   0.0282  -0.0056   0.0124   0.0107  13.00    8.9
2021/04/07 01:43:45.000    455571.3058   3639410.9601   5200658.7926   1   8   0.0158   0.0237   0.0316  -0.0065   0.0139   0.0122  15.00    9.4
2021/04/07 01:43:47.000    455571.3041   3639410.9628   5200658.7922   1   8   0.0175   0.0262   0.0351  -0.0073   0.0153   0.0137  17.00    9.9
2021/04/07 01:43:50.000    455571.3026   3639410.9614   5200658.7906   1   8   0.0201   0.0300   0.0405  -0.0085   0.0176   0.0160  20.00   10.2
2021/04/07 01:43:56.000    455571.2975   3639410.9601   5200658.7870   1   8   0.0254   0.0378   0.0515  -0.0109   0.0222   0.0205  26.00   10.5
2021/04/07 01:43:58.000    455571.2973   3639410.9589   5200658.7863   1   8   0.0272   0.0405   0.0551  -0.0117   0.0238   0.0220  28.00   10.8
2021/04/07 01:44:00.000    455571.3132   3639410.9555   5200658.8012   1   8   0.0062   0.0099   0.0128   0.0023   0.0064   0.0036   0.00   12.3
2021/04/07 01:44:02.000    455571.3104   3639410.9513   5200658.8005   1   8   0.0065   0.0105   0.0134   0.0020   0.0066   0.0040   2.00   13.4
2021/04/07 01:44:06.000    455571.3110   3639410.9462   5200658.7966   1   8   0.0089   0.0136   0.0173  -0.0020   0.0081   0.0059   6.00   13.6
2021/04/07 01:44:08.000    455571.3084   3639410.9459   5200658.7957   1   8   0.0103   0.0156   0.0201  -0.0034   0.0091   0.0072   8.00   13.5
2021/04/07 01:44:10.000    455571.3090   3639410.9424   5200658.7941   1   8   0.0118   0.0178   0.0232  -0.0044   0.0104   0.0086  10.00   13.4
2021/04/07 01:44:12.000    455571.3083   3639410.9440   5200658.7915   1   8   0.0134   0.0201   0.0264  -0.0052   0.0117   0.0100  12.00   13.3
2021/04/07 01:44:15.000    455571.3087   3639410.9410   5200658.7903   1   8   0.0158   0.0237   0.0315  -0.0065   0.0138   0.0122  15.00   13.3
2021/04/07 01:44:17.000    455571.3065   3639410.9445   5200658.7915   1   8   0.0175   0.0262   0.0350  -0.0073   0.0153   0.0137  17.00   13.2
2021/04/07 01:44:19.000    455571.3037   3639410.9427   5200658.7911   1   8   0.0193   0.0287   0.0386  -0.0081   0.0168   0.0152  19.00   13.2
2021/04/07 01:44:21.000    455571.3044   3639410.9395   5200658.7854   1   8   0.0210   0.0313   0.0422  -0.0089   0.0183   0.0166  21.00   13.2
2021/04/07 01:44:23.000    455571.3026   3639410.9396   5200658.7831   1   8   0.0228   0.0339   0.0458  -0.0098   0.0198   0.0182  23.00   13.2
2021/04/07 01:44:25.000    455571.3025   3639410.9376   5200658.7802   1   8   0.0245   0.0365   0.0495  -0.0106   0.0214   0.0197  25.00   13.2
2021/04/07 01:44:27.000    455571.3055   3639410.9375   5200658.7844   1   8   0.0263   0.0392   0.0531  -0.0114   0.0229   0.0212  27.00   13.2
2021/04/07 01:44:29.000    455571.3080   3639410.9382   5200658.7858   1   8   0.0281   0.0418   0.0568  -0.0122   0.0245   0.0227  29.00   13.2
2021/04/07 01:44:31.000    455571.3161   3639410.9542   5200658.8082   1   8   0.0063   0.0101   0.0129   0.0023   0.0063   0.0037   1.00   13.5
2021/04/07 01:44:33.000    455571.3166   3639410.9541   5200658.8036   1   8   0.0070   0.0111   0.0141   0.0017   0.0068   0.0043   3.00   13.8
2021/04/07 01:44:35.000    455571.3184   3639410.9534   5200658.8025   1   8   0.0082   0.0127   0.0161  -0.0014   0.0075   0.0054   5.00   14.0
2021/04/07 01:44:37.000    455571.3186   3639410.9512   5200658.8051   1   8   0.0095   0.0146   0.0186  -0.0028   0.0085   0.0066   7.00   14.2
2021/04/07 01:44:40.000    455571.3191   3639410.9522   5200658.8053   1   8   0.0118   0.0178   0.0231  -0.0044   0.0103   0.0086  10.00   14.5
2021/04/07 01:44:42.000    455571.3197   3639410.9505   5200658.8068   1   8   0.0134   0.0201   0.0263  -0.0053   0.0116   0.0100  12.00   14.7
2021/04/07 01:44:44.000    455571.3219   3639410.9484   5200658.8051   1   8   0.0150   0.0225   0.0297  -0.0061   0.0130   0.0114  14.00   14.8
2021/04/07 01:44:46.000    455571.3208   3639410.9476   5200658.8037   1   8   0.0167   0.0250   0.0332  -0.0070   0.0144   0.0129  16.00   15.0
2021/04/07 01:44:48.000    455571.3194   3639410.9455   5200658.7983   1   8   0.0184   0.0275   0.0367  -0.0078   0.0159   0.0143  18.00   15.1
2021/04/07 01:44:52.000    455571.3196   3639410.9422   5200658.7966   1   8   0.0219   0.0326   0.0438  -0.0094   0.0190   0.0173  22.00   15.2
2021/04/07 01:44:54.000    455571.3193   3639410.9421   5200658.7932   1   8   0.0236   0.0352   0.0475  -0.0102   0.0205   0.0188  24.00   15.3
2021/04/07 01:44:56.000    455571.3175   3639410.9413   5200658.7938   1   8   0.0254   0.0378   0.0511  -0.0111   0.0221   0.0203  26.00   15.4
2021/04/07 01:44:58.000    455571.3162   3639410.9374   5200658.7946   1   8   0.0272   0.0405   0.0548  -0.0119   0.0236   0.0218  28.00   15.4
2021/04/07 01:45:03.000    455571.3130   3639410.9479   5200658.7951   1   8   0.0071   0.0111   0.0141   0.0017   0.0067   0.0043   3.00   15.4
2021/04/07 01:45:05.000    455571.3133   3639410.9462   5200658.7915   1   8   0.0082   0.0127   0.0161  -0.0012   0.0075   0.0054   5.00   15.3
2021/04/07 01:45:07.000    455571.3130   3639410.9452   5200658.7930   1   8   0.0095   0.0146   0.0186  -0.0028   0.0084   0.0066   7.00   15.2
2021/04/07 01:45:09.000    455571.3125   3639410.9426   5200658.7937   1   8   0.0110   0.0167   0.0215  -0.0039   0.0096   0.0079   9.00   15.1
2021/04/07 01:45:11.000    455571.3097   3639410.9396   5200658.7866   1   8   0.0126   0.0190   0.0246  -0.0048   0.0109   0.0092  11.00   15.0
2021/04/07 01:45:15.000    455571.3091   3639410.9358   5200658.7752   1   8   0.0158   0.0237   0.0313  -0.0066   0.0136   0.0121  15.00   14.8
2021/04/07 01:45:17.000    455571.3099   3639410.9311   5200658.7709   1   8   0.0175   0.0262   0.0348  -0.0074   0.0151   0.0136  17.00   14.6
2021/04/07 01:45:19.000    455571.3106   3639410.9302   5200658.7663   1   8   0.0193   0.0287   0.0383  -0.0083   0.0166   0.0150  19.00   14.4
2021/04/07 01:45:21.000    455571.3136   3639410.9272   5200658.7639   1   8   0.0210   0.0313   0.0419  -0.0091   0.0181   0.0165  21.00   14.2
2021/04/07 01:45:23.000    455571.3129   3639410.9265   5200658.7626   1   8   0.0227   0.0339   0.0455  -0.0099   0.0197   0.0180  23.00   14.1
2021/04/07 01:45:26.000    455571.3135   3639410.9262   5200658.7606   1   8   0.0254   0.0378   0.0510  -0.0112   0.0220   0.0202  26.00   13.9
2021/04/07 01:45:28.000    455571.3161   3639410.9239   5200658.7555   1   8   0.0272   0.0405   0.0546  -0.0120   0.0235   0.0217  28.00   13.8
2021/04/07 01:45:30.000    455571.3152   3639410.9518   5200658.7993   1   8   0.0062   0.0100   0.0128   0.0024   0.0062   0.0036   0.00   13.8
2021/04/07 01:45:40.000    455571.3092   3639410.9492   5200658.7919   1   8   0.0118   0.0178   0.0230  -0.0044   0.0102   0.0086  10.00   13.6
2021/04/07 01:45:42.000    455571.3061   3639410.9488   5200658.7891   1   8   0.0134   0.0201   0.0262  -0.0053   0.0115   0.0099  12.00   13.5
2021/04/07 01:45:49.000    455571.3011   3639410.9463   5200658.7828   1   8   0.0192   0.0287   0.0382  -0.0083   0.0165   0.0150  19.00   13.5
2021/04/07 01:45:51.000    455571.2997   3639410.9471   5200658.7794   1   8   0.0210   0.0313   0.0418  -0.0092   0.0180   0.0164  21.00   13.5
2021/04/07 01:45:53.000    455571.2979   3639410.9472   5200658.7819   1   8   0.0227   0.0339   0.0454  -0.0100   0.0196   0.0179  23.00   13.4
2021/04/07 01:45:55.000    455571.2963   3639410.9472   5200658.7792   1   8   0.0245   0.0365   0.0490  -0.0108   0.0211   0.0194  25.00   13.3
2021/04/07 01:46:01.000    455571.3146   3639410.9526   5200658.8017   1   8   0.0063   0.0101   0.0130   0.0023   0.0063   0.0038   1.00   13.2
2021/04/07 01:46:03.000    455571.3134   3639410.9548   5200658.7982   1   8   0.0071   0.0111   0.0141   0.0020   0.0066   0.0044   3.00   13.1
2021/04/07 01:46:07.000    455571.3115   3639410.9568   5200658.7959   1   8   0.0096   0.0146   0.0185  -0.0028   0.0083   0.0066   7.00   13.1
2021/04/07 01:46:12.000    455571.3128   3639410.9649   5200658.7971   1   8   0.0134   0.0201   0.0261  -0.0053   0.0114   0.0099  12.00   13.2
2021/04/07 01:46:14.000    455571.3132   3639410.9657   5200658.7985   1   8   0.0150   0.0225   0.0295  -0.0062   0.0128   0.0113  14.00   13.2
2021/04/07 01:46:16.000    455571.3107   3639410.9656   5200658.7920   1   8   0.0167   0.0250   0.0329  -0.0071   0.0142   0.0127  16.00   13.2
2021/04/07 01:46:18.000    455571.3130   3639410.9670   5200658.7933   1   8   0.0184   0.0275   0.0363  -0.0080   0.0157   0.0142  18.00   13.2
2021/04/07 01:46:20.000    455571.3117   3639410.9717   5200658.7922   1   8   0.0201   0.0300   0.0399  -0.0088   0.0172   0.0156  20.00   13.2
2021/04/07 01:46:24.000    455571.3103   3639410.9768   5200658.7925   1   8   0.0236   0.0352   0.0470  -0.0105   0.0203   0.0185  24.00   13.2
2021/04/07 01:46:26.000    455571.3096   3639410.9779   5200658.7888   1   8   0.0254   0.0378   0.0506  -0.0114   0.0218   0.0200  26.00   13.1
2021/04/07 01:46:28.000    455571.3106   3639410.9796   5200658.7883   1   8   0.0272   0.0405   0.0543  -0.0122   0.0234   0.0215  28.00   13.1
2021/04/07 01:46:30.000    455571.3143   3639410.9558   5200658.7972   1   8   0.0062   0.0100   0.0128   0.0024   0.0062   0.0037   0.00   13.2
2021/04/07 01:46:32.000    455571.3162   3639410.9529   5200658.7953   1   8   0.0067   0.0105   0.0134   0.0022   0.0064   0.0041   2.00   13.4
2021/04/07 01:46:35.000    455571.3184   3639410.9545   5200658.7931   1   8   0.0082   0.0127   0.0160  -0.0013   0.0073   0.0054   5.00   13.4
2021/04/07 01:46:37.000    455571.3194   3639410.9571   5200658.7857   1   8   0.0095   0.0147   0.0185  -0.0028   0.0082   0.0066   7.00   13.3
2021/04/07 01:46:39.000    455571.3202   3639410.9644   5200658.7868   1   8   0.0110   0.0168   0.0214  -0.0039   0.0094   0.0079   9.00   13.1
2021/04/07 01:46:43.000    455571.3218   3639410.9693   5200658.7758   1   8   0.0142   0.0213   0.0277  -0.0058   0.0120   0.0106  13.00   12.9
2021/04/07 01:46:49.000    455571.3180   3639410.9741   5200658.7668   1   8   0.0192   0.0287   0.0380  -0.0085   0.0164   0.0148  19.00   12.7
2021/04/07 01:46:51.000    455571.3174   3639410.9766   5200658.7693   1   8   0.0210   0.0313   0.0415  -0.0093   0.0179   0.0163  21.00   12.6
2021/04/07 01:46:53.000    455571.3164   3639410.9801   5200658.7651   1   8   0.0227   0.0339   0.0451  -0.0102   0.0194   0.0177  23.00   12.5
2021/04/07 01:46:55.000    455571.3154   3639410.9849   5200658.7650   1   8   0.0245   0.0365   0.0487  -0.0110   0.0210   0.0192  25.00   12.4
2021/04/07 01:46:58.000    455571.3153   3639410.9847   5200658.7624   1   8   0.0272   0.0405   0.0541  -0.0123   0.0233   0.0213  28.00   12.3
2021/04/07 01:47:02.000    455571.3140   3639410.9530   5200658.7931   1   8   0.0066   0.0105   0.0134   0.0024   0.0063   0.0041   2.00   12.2
2021/04/07 01:47:04.000    455571.3114   3639410.9537   5200658.7914   1   8   0.0075   0.0119   0.0150   0.0010   0.0069   0.0050   4.00   12.2
2021/04/07 01:47:06.000    455571.3113   3639410.9542   5200658.7887   1   8   0.0089   0.0137   0.0172  -0.0021   0.0077   0.0061   6.00   12.1
2021/04/07 01:47:10.000    455571.3077   3639410.9535   5200658.7888   1   8   0.0118   0.0179   0.0228  -0.0044   0.0099   0.0086  10.00   12.1
2021/04/07 01:47:12.000    455571.3063   3639410.9548   5200658.7899   1   8   0.0134   0.0202   0.0260  -0.0054   0.0113   0.0099  12.00   12.2
2021/04/07 01:47:14.000    455571.3045   3639410.9548   5200658.7835   1   8   0.0150   0.0225   0.0293  -0.0063   0.0127   0.0113  14.00   12.2
2021/04/07 01:47:16.000    455571.3025   3639410.9576   5200658.7835   1   8   0.0167   0.0250   0.0327  -0.0072   0.0141   0.0127  16.00   12.2
2021/04/07 01:47:18.000    455571.2997   3639410.9594   5200658.7836   1   8   0.0184   0.0275   0.0361  -0.0081   0.0156   0.0141  18.00   12.2
2021/04/07 01:47:22.000    455571.2960   3639410.9669   5200658.7824   1   8   0.0219   0.0326   0.0432  -0.0098   0.0186   0.0169  22.00   12.2
2021/04/07 01:47:24.000    455571.2944   3639410.9678   5200658.7832   1   8   0.0236   0.0352   0.0467  -0.0107   0.0201   0.0183  24.00   12.2
2021/04/07 01:47:26.000    455571.2927   3639410.9675   5200658.7833   1   8   0.0254   0.0378   0.0503  -0.0116   0.0217   0.0198  26.00   12.2
2021/04/07 01:47:28.000    455571.2906   3639410.9650   5200658.7818   1   8   0.0272   0.0405   0.0539  -0.0124   0.0232   0.0212  28.00   12.2
2021/04/07 01:47:30.000    455571.3143   3639410.9547   5200658.7961   1   8   0.0062   0.0100   0.0129   0.0025   0.0061   0.0038   0.00   12.5
2021/04/07 01:47:35.000    455571.3078   3639410.9496   5200658.7921   1   8   0.0082   0.0128   0.0160  -0.0011   0.0072   0.0055   5.00   12.7
2021/04/07 01:47:40.000    455571.2999   3639410.9466   5200658.7876   1   8   0.0118   0.0179   0.0228  -0.0045   0.0099   0.0085  10.00   12.8
2021/04/07 01:47:42.000    455571.2972   3639410.9436   5200658.7873   1   8   0.0134   0.0202   0.0259  -0.0054   0.0112   0.0099  12.00   13.0
2021/04/07 01:47:44.000    455571.2957   3639410.9410   5200658.7841   1   8   0.0150   0.0225   0.0292  -0.0063   0.0126   0.0112  14.00   13.1
2021/04/07 01:47:46.000    455571.2962   3639410.9426   5200658.7854   1   8   0.0167   0.0250   0.0326  -0.0072   0.0140   0.0126  16.00   13.1
2021/04/07 01:47:48.000    455571.2918   3639410.9405   5200658.7824   1   8   0.0184   0.0275   0.0360  -0.0081   0.0155   0.0140  18.00   13.2
2021/04/07 01:47:52.000    455571.2903   3639410.9402   5200658.7822   1   8   0.0219   0.0326   0.0430  -0.0099   0.0185   0.0168  22.00   13.3
2021/04/07 01:47:56.000    455571.2911   3639410.9397   5200658.7791   1   8   0.0254   0.0378   0.0502  -0.0116   0.0216   0.0197  26.00   13.3
2021/04/07 01:47:58.000    455571.2923   3639410.9428   5200658.7811   1   8   0.0272   0.0405   0.0537  -0.0125   0.0231   0.0211  28.00   13.4
2021/04/07 01:48:00.000    455571.3158   3639410.9577   5200658.8009   1   8   0.0064   0.0100   0.0129   0.0024   0.0061   0.0038   0.00   13.6
2021/04/07 01:48:02.000    455571.3154   3639410.9581   5200658.8010   1   8   0.0067   0.0106   0.0135   0.0022   0.0063   0.0042   2.00   13.7
2021/04/07 01:48:04.000    455571.3134   3639410.9567   5200658.7995   1   8   0.0077   0.0120   0.0150   0.0012   0.0068   0.0050   4.00   13.7
2021/04/07 01:48:12.000    455571.3061   3639410.9654   5200658.7973   1   8   0.0134   0.0202   0.0259  -0.0055   0.0111   0.0099  12.00   13.8
2021/04/07 01:48:14.000    455571.3036   3639410.9663   5200658.7958   1   8   0.0150   0.0225   0.0292  -0.0064   0.0125   0.0112  14.00   13.8
2021/04/07 01:48:16.000    455571.3007   3639410.9720   5200658.7935   1   8   0.0167   0.0250   0.0325  -0.0073   0.0140   0.0126  16.00   13.9
2021/04/07 01:48:18.000    455571.3000   3639410.9709   5200658.7938   1   8   0.0184   0.0275   0.0359  -0.0082   0.0154   0.0139  18.00   13.9
2021/04/07 01:48:19.000    455571.2984   3639410.9718   5200658.7946   1   8   0.0192   0.0288   0.0377  -0.0086   0.0162   0.0146  19.00   13.9
2021/04/07 01:48:21.000    455571.2955   3639410.9762   5200658.7916   1   8   0.0210   0.0313   0.0411  -0.0095   0.0177   0.0160  21.00   13.9
2021/04/07 01:48:23.000    455571.2946   3639410.9793   5200658.7926   1   8   0.0227   0.0339   0.0447  -0.0104   0.0192   0.0174  23.00   14.0
2021/04/07 01:48:25.000    455571.2932   3639410.9774   5200658.7863   1   8   0.0245   0.0365   0.0482  -0.0113   0.0207   0.0188  25.00   14.0
2021/04/07 01:48:28.000    455571.2909   3639410.9794   5200658.7872   1   8   0.0272   0.0405   0.0536  -0.0126   0.0231   0.0210  28.00   14.0
2021/04/07 01:48:33.000    455571.3102   3639410.9613   5200658.8018   1   8   0.0071   0.0112   0.0141   0.0020   0.0064   0.0046   3.00   14.2
2021/04/07 01:48:35.000    455571.3069   3639410.9595   5200658.8012   1   8   0.0082   0.0128   0.0160  -0.0012   0.0071   0.0056   5.00   14.3
2021/04/07 01:48:43.000    455571.3003   3639410.9636   5200658.7941   1   8   0.0142   0.0214   0.0274  -0.0060   0.0118   0.0105  13.00   14.4
2021/04/07 01:48:45.000    455571.2971   3639410.9657   5200658.7949   1   8   0.0159   0.0238   0.0307  -0.0069   0.0132   0.0118  15.00   14.5
2021/04/07 01:48:47.000    455571.2967   3639410.9651   5200658.7922   1   8   0.0175   0.0262   0.0341  -0.0078   0.0146   0.0132  17.00   14.6
2021/04/07 01:48:49.000    455571.2942   3639410.9670   5200658.7933   1   8   0.0192   0.0288   0.0376  -0.0087   0.0161   0.0146  19.00   14.6
2021/04/07 01:48:51.000    455571.2919   3639410.9657   5200658.7929   1   8   0.0210   0.0313   0.0410  -0.0096   0.0176   0.0160  21.00   14.7
2021/04/07 01:48:56.000    455571.2886   3639410.9683   5200658.7907   1   8   0.0254   0.0378   0.0498  -0.0118   0.0214   0.0194  26.00   14.7
2021/04/07 01:48:57.000    455571.2886   3639410.9677   5200658.7895   1   8   0.0263   0.0391   0.0516  -0.0123   0.0222   0.0201  27.00   14.7
2021/04/07 01:49:00.000    455571.3130   3639410.9550   5200658.7963   1   8   0.0063   0.0101   0.0129   0.0024   0.0060   0.0039   0.00   14.9
2021/04/07 01:49:03.000    455571.3117   3639410.9545   5200658.7950   1   8   0.0071   0.0112   0.0141   0.0018   0.0064   0.0046   3.00   15.2
2021/04/07 01:49:06.000    455571.3099   3639410.9537   5200658.7908   1   8   0.0089   0.0138   0.0172  -0.0019   0.0075   0.0061   6.00   15.4
2021/04/07 01:49:12.000    455571.3120   3639410.9491   5200658.7766   1   8   0.0134   0.0202   0.0258  -0.0055   0.0110   0.0098  12.00   15.3
2021/04/07 01:49:15.000    455571.3128   3639410.9466   5200658.7729   1   8   0.0159   0.0238   0.0307  -0.0069   0.0131   0.0118  15.00   15.3
2021/04/07 01:49:18.000    455571.3114   3639410.9461   5200658.7673   1   8   0.0184   0.0275   0.0357  -0.0083   0.0153   0.0138  18.00   15.3
2021/04/07 01:49:21.000    455571.3097   3639410.9450   5200658.7660   1   8   0.0210   0.0313   0.0409  -0.0097   0.0175   0.0159  21.00   15.2
2021/04/07 01:49:24.000    455571.3072   3639410.9450   5200658.7613   1   8   0.0236   0.0352   0.0462  -0.0110   0.0198   0.0179  24.00   15.2
2021/04/07 01:49:27.000    455571.3053   3639410.9458   5200658.7570   1   8   0.0263   0.0391   0.0514  -0.0124   0.0221   0.0200  27.00   15.2
2021/04/07 01:49:28.000    455571.3063   3639410.9469   5200658.7579   1   8   0.0272   0.0404   0.0532  -0.0128   0.0229   0.0207  28.00   15.2
2021/04/07 01:49:30.000    455571.3146   3639410.9533   5200658.7989   1   8   0.0062   0.0101   0.0129   0.0024   0.0060   0.0040   0.00   15.5
2021/04/07 01:49:33.000    455571.3119   3639410.9521   5200658.7977   1   8   0.0071   0.0113   0.0141   0.0020   0.0064   0.0046   3.00   15.5
2021/04/07 01:49:36.000    455571.3088   3639410.9511   5200658.7927   1   8   0.0089   0.0138   0.0171  -0.0020   0.0074   0.0061   6.00   15.6
2021/04/07 01:49:39.000    455571.3073   3639410.9468   5200658.7880   1   8   0.0111   0.0168   0.0212  -0.0040   0.0090   0.0079   9.00   15.7
2021/04/07 01:49:41.000    455571.3056   3639410.9447   5200658.7888   1   8   0.0126   0.0191   0.0242  -0.0050   0.0103   0.0092  11.00   15.7
2021/04/07 01:49:44.000    455571.3036   3639410.9440   5200658.7832   1   8   0.0150   0.0226   0.0289  -0.0065   0.0123   0.0111  14.00   15.8
2021/04/07 01:49:47.000    455571.3012   3639410.9439   5200658.7848   1   8   0.0175   0.0263   0.0339  -0.0079   0.0145   0.0131  17.00   15.8
