% program   : rnx2rtkp ver.2.4.3 b33
% inp file  : /home/danisimo/post/R1_193.2020-111.2021/R00110518.21o
% inp file  : /home/danisimo/post/NSK1_193.2020-111.2021/NSK11050.21o
% inp file  : /home/danisimo/post/NSK1_193.2020-111.2021/NSK11050.21N
% obs start : 2021/04/15 01:26:38.0 GPST (week2153 350798.0s)
% obs end   : 2021/04/15 11:48:05.0 GPST (week2153 388085.0s)
% ref pos   :   447670.3040   3638117.3850   5202281.5640
%
% (x/y/z-ecef=WGS84,Q=1:fix,2:float,3:sbas,4:dgps,5:single,6:ppp,ns=# of satellites)
%  GPST                      x-ecef(m)      y-ecef(m)      z-ecef(m)   Q  ns   sdx(m)   sdy(m)   sdz(m)  sdxy(m)  sdyz(m)  sdzx(m) age(s)  ratio
2021/04/15 01:26:37.996    455570.5742   3639409.8688   5200660.4394   2   6   0.8150   1.5373   1.5995   0.7793   1.0515   0.7984   8.00    0.0
2021/04/15 01:26:38.496    455570.6689   3639409.9743   5200660.4408   2   6   0.5784   1.0918   1.1420   0.5525   0.7474   0.5669   8.50    0.0
2021/04/15 01:26:38.996    455570.7540   3639410.0735   5200660.5072   2   6   0.4729   0.8929   0.9356   0.4515   0.6114   0.4636   9.00    0.0
2021/04/15 01:26:39.496    455570.7882   3639410.2197   5200660.4782   2   6   0.4099   0.7740   0.8117   0.3913   0.5300   0.4018   9.50    0.0
2021/04/15 01:26:39.996    455570.8310   3639410.3490   5200660.5273   2   6   0.3669   0.6928   0.7269   0.3501   0.4744   0.3597  10.00    0.0
2021/04/15 01:26:40.996    455570.8295   3639410.3608   5200660.5309   2   6   0.3351   0.6328   0.6641   0.3198   0.4334   0.3285  11.00    0.0
2021/04/15 01:26:44.996    455570.8764   3639410.3979   5200660.5930   2   6   0.3106   0.5867   0.6154   0.2962   0.4018   0.3044  15.00    0.0
2021/04/15 01:26:46.996    455570.9062   3639410.4263   5200660.6435   2   6   0.2910   0.5496   0.5762   0.2775   0.3763   0.2851  17.00    0.0
2021/04/15 01:26:48.496    455570.8635   3639410.5716   5200661.0838   2   6   0.8138   1.5364   1.5575   0.7775   1.0531   0.7918  18.50    1.1
2021/04/15 01:26:59.000    455570.8952   3639410.6624   5200660.9505   2   6   0.5780   1.0921   1.1297   0.5502   0.7465   0.5652  29.00    1.4
2021/04/15 01:27:00.000    455571.0667   3639411.0619   5200660.7074   2   6   0.4720   0.8920   0.9281   0.4490   0.6101   0.4618   0.00    1.1
2021/04/15 01:27:01.000    455571.1068   3639411.1510   5200660.4971   2   6   0.4088   0.7727   0.8070   0.3887   0.5284   0.4003   1.00    1.4
2021/04/15 01:27:02.000    455571.0505   3639411.1272   5200660.3036   2   6   0.3656   0.6912   0.7235   0.3475   0.4726   0.3582   2.00    1.4
2021/04/15 01:27:11.000    455571.0707   3639411.3032   5200660.2161   2   6   0.3337   0.6313   0.6609   0.3166   0.4315   0.3267  11.00    1.1
2021/04/15 01:27:14.000    455571.1325   3639411.5103   5200660.1748   2   6   0.3092   0.5850   0.6125   0.2933   0.3998   0.3027  14.00    1.1
2021/04/15 01:27:17.000    455571.1870   3639411.7158   5200660.2019   2   6   0.2897   0.5481   0.5736   0.2748   0.3745   0.2835  17.00    1.2
2021/04/15 01:27:20.000    455571.2228   3639411.8368   5200660.1674   2   6   0.2737   0.5179   0.5416   0.2596   0.3539   0.2678  20.00    1.3
2021/04/15 01:27:23.000    455571.2492   3639411.9028   5200660.1354   2   6   0.2605   0.4928   0.5148   0.2472   0.3367   0.2548  23.00    1.4
2021/04/15 01:27:26.000    455571.2445   3639411.8934   5200660.0555   2   6   0.2494   0.4717   0.4920   0.2368   0.3222   0.2440  26.00    1.5
2021/04/15 01:27:29.000    455571.2710   3639411.9396   5200659.9976   2   6   0.2400   0.4539   0.4723   0.2280   0.3100   0.2347  29.00    1.6
2021/04/15 01:27:34.000    455571.3146   3639411.9915   5200659.9430   2   6   0.2256   0.4283   0.4434   0.2134   0.2925   0.2189   4.00    1.7
2021/04/15 01:27:37.000    455571.3465   3639412.1021   5200659.9262   2   6   0.2174   0.4130   0.4249   0.2058   0.2822   0.2101   7.00    1.6
2021/04/15 01:27:40.000    455571.4003   3639412.2301   5200659.9307   2   6   0.2102   0.3995   0.4097   0.1990   0.2730   0.2028  10.00    1.5
2021/04/15 01:27:43.000    455571.4522   3639412.3553   5200659.9480   2   6   0.2039   0.3876   0.3967   0.1931   0.2649   0.1966  13.00    1.4
2021/04/15 01:27:45.000    455571.4953   3639412.4405   5200659.9525   2   6   0.1982   0.3768   0.3851   0.1878   0.2575   0.1910  15.00    1.2
2021/04/15 01:27:52.000    455571.5214   3639412.5306   5200659.9188   2   6   0.1944   0.3694   0.3761   0.1844   0.2524   0.1873  22.00    1.0
2021/04/15 01:27:57.000    455571.5264   3639412.5718   5200659.8909   2   6   0.1912   0.3629   0.3681   0.1815   0.2479   0.1842  27.00    1.1
2021/04/15 01:27:58.000    455571.5445   3639412.6133   5200659.8787   2   6   0.1871   0.3549   0.3597   0.1778   0.2424   0.1803  28.00    1.3
2021/04/15 01:28:02.000    455571.5335   3639412.6149   5200659.8767   2   6   0.1760   0.3362   0.3361   0.1664   0.2298   0.1670   2.00    1.3
2021/04/15 01:28:05.000    455571.5204   3639412.5748   5200659.8328   2   6   0.1719   0.3287   0.3246   0.1627   0.2250   0.1618   5.00    1.2
2021/04/15 01:28:09.000    455571.5013   3639412.5261   5200659.7825   2   6   0.1684   0.3222   0.3165   0.1595   0.2206   0.1581   9.00    1.2
2021/04/15 01:28:12.000    455571.4984   3639412.5011   5200659.7556   2   6   0.1653   0.3163   0.3099   0.1566   0.2166   0.1551  12.00    1.2
2021/04/15 01:28:16.000    455571.4917   3639412.4699   5200659.7266   2   6   0.1629   0.3116   0.3046   0.1545   0.2134   0.1528  16.00    1.2
2021/04/15 01:28:19.000    455571.4798   3639412.4423   5200659.6962   2   6   0.1607   0.3073   0.2998   0.1525   0.2104   0.1509  19.00    1.1
2021/04/15 01:28:22.000    455571.4613   3639412.3907   5200659.6628   2   6   0.1589   0.3036   0.2957   0.1510   0.2078   0.1493  22.00    1.1
2021/04/15 01:28:23.000    455571.4464   3639412.3603   5200659.6276   2   6   0.1567   0.2991   0.2913   0.1489   0.2047   0.1473  23.00    1.1
2021/04/15 01:28:25.000    455571.4237   3639412.3210   5200659.5913   2   6   0.1550   0.2958   0.2876   0.1475   0.2023   0.1459  25.00    1.1
2021/04/15 01:28:28.000    455571.4118   3639412.3184   5200659.5758   2   6   0.1541   0.2937   0.2848   0.1469   0.2008   0.1452  28.00    1.1
2021/04/15 01:28:29.000    455571.4025   3639412.3001   5200659.5617   2   6   0.1524   0.2903   0.2813   0.1454   0.1985   0.1437  29.00    1.1
2021/04/15 01:28:31.000    455571.3781   3639412.3107   5200659.5867   2   6   0.1414   0.2717   0.2612   0.1336   0.1860   0.1308   1.00    1.1
2021/04/15 01:28:34.000    455571.3530   3639412.2685   5200659.5455   2   6   0.1391   0.2678   0.2536   0.1317   0.1836   0.1276   4.00    1.2
2021/04/15 01:28:39.000    455571.3311   3639412.2214   5200659.5012   2   6   0.1376   0.2649   0.2493   0.1303   0.1817   0.1258   9.00    1.3
2021/04/15 01:28:42.000    455571.3094   3639412.1668   5200659.4593   2   6   0.1362   0.2622   0.2461   0.1291   0.1799   0.1245  12.00    1.3
2021/04/15 01:28:44.000    455571.2915   3639412.1203   5200659.4350   2   6   0.1349   0.2596   0.2431   0.1279   0.1781   0.1233  14.00    1.4
2021/04/15 01:28:46.000    455571.2771   3639412.0879   5200659.4152   2   6   0.1338   0.2572   0.2406   0.1269   0.1764   0.1223  16.00    1.4
2021/04/15 01:28:49.000    455571.2679   3639412.0571   5200659.4003   2   6   0.1332   0.2559   0.2388   0.1266   0.1754   0.1220  19.00    1.5
2021/04/15 01:28:52.000    455571.2576   3639412.0398   5200659.3981   2   6   0.1329   0.2550   0.2375   0.1265   0.1748   0.1219  22.00    1.5
2021/04/15 01:28:57.000    455571.2418   3639412.0297   5200659.3988   2   6   0.1340   0.2566   0.2377   0.1279   0.1757   0.1232  27.00    1.6
2021/04/15 01:28:59.000    455571.2252   3639412.0092   5200659.4025   2   6   0.1338   0.2559   0.2366   0.1279   0.1752   0.1232  29.00    1.8
2021/04/15 01:29:02.000    455571.2161   3639411.9850   5200659.3978   2   6   0.1224   0.2366   0.2184   0.1155   0.1623   0.1104   2.00    1.7
2021/04/15 01:29:05.000    455571.2069   3639411.9367   5200659.3496   2   6   0.1210   0.2342   0.2133   0.1144   0.1609   0.1083   5.00    1.6
2021/04/15 01:29:06.000    455571.2022   3639411.8889   5200659.3011   2   6   0.1197   0.2318   0.2093   0.1132   0.1594   0.1066   6.00    1.5
2021/04/15 01:29:11.000    455571.1995   3639411.8533   5200659.2745   2   6   0.1193   0.2309   0.2075   0.1130   0.1588   0.1061  11.00    1.3
2021/04/15 01:29:13.000    455571.1965   3639411.8074   5200659.2474   2   6   0.1186   0.2295   0.2057   0.1124   0.1578   0.1055  13.00    1.2
2021/04/15 01:29:16.000    455571.1908   3639411.7635   5200659.2158   2   6   0.1184   0.2289   0.2047   0.1124   0.1573   0.1055  16.00    1.0
2021/04/15 01:29:19.000    455571.1873   3639411.7179   5200659.1943   2   6   0.1185   0.2288   0.2041   0.1126   0.1571   0.1058  19.00    1.1
2021/04/15 01:29:21.000    455571.1815   3639411.6793   5200659.1643   2   6   0.1183   0.2283   0.2034   0.1127   0.1567   0.1059  21.00    1.2
2021/04/15 01:29:24.000    455571.1770   3639411.6374   5200659.1365   2   6   0.1189   0.2290   0.2035   0.1135   0.1571   0.1067  24.00    1.3
2021/04/15 01:29:29.000    455571.1656   3639411.6091   5200659.1090   2   6   0.1210   0.2325   0.2054   0.1160   0.1593   0.1091  29.00    1.4
2021/04/15 01:29:32.000    455571.1663   3639411.5591   5200659.1165   2   6   0.1091   0.2121   0.1875   0.1028   0.1459   0.0957   2.00    1.2
2021/04/15 01:29:34.000    455571.1590   3639411.5306   5200659.0963   2   6   0.1081   0.2104   0.1831   0.1020   0.1449   0.0940   4.00    1.1
2021/04/15 01:29:37.000    455571.1598   3639411.5138   5200659.0855   2   6   0.1074   0.2092   0.1806   0.1015   0.1442   0.0931   7.00    1.0
2021/04/15 01:29:40.000    455571.1584   3639411.5006   5200659.0724   2   6   0.1071   0.2084   0.1792   0.1013   0.1437   0.0927  10.00    1.1
2021/04/15 01:29:42.000    455571.1558   3639411.4793   5200659.0516   2   6   0.1067   0.2076   0.1780   0.1010   0.1431   0.0925  12.00    1.2
2021/04/15 01:29:45.000    455571.1542   3639411.4628   5200659.0320   2   6   0.1069   0.2077   0.1777   0.1013   0.1431   0.0928  15.00    1.2
2021/04/15 01:29:47.000    455571.1569   3639411.4516   5200659.0188   2   6   0.1068   0.2075   0.1772   0.1015   0.1428   0.0930  17.00    1.4
2021/04/15 01:29:50.000    455571.1661   3639411.4515   5200659.0043   2   6   0.1075   0.2084   0.1776   0.1023   0.1433   0.0938  20.00    1.5
2021/04/15 01:29:56.000    455571.1712   3639411.4540   5200658.9909   2   6   0.1103   0.2131   0.1806   0.1055   0.1463   0.0970  26.00    1.7
2021/04/15 01:29:58.000    455571.1784   3639411.4375   5200658.9816   2   6   0.1109   0.2140   0.1811   0.1063   0.1468   0.0979  28.00    1.8
2021/04/15 01:30:03.000    455571.1963   3639411.3664   5200658.9926   2   6   0.0992   0.1939   0.1646   0.0932   0.1336   0.0848   3.00    2.1
2021/04/15 01:30:06.000    455571.2014   3639411.3463   5200658.9967   2   6   0.0987   0.1930   0.1620   0.0929   0.1331   0.0839   6.00    2.4
2021/04/15 01:30:09.000    455571.2041   3639411.3251   5200658.9992   2   6   0.0985   0.1926   0.1607   0.0929   0.1329   0.0837   9.00    2.7
2021/04/15 01:30:11.000    455571.2039   3639411.3028   5200659.0014   2   6   0.0983   0.1922   0.1597   0.0928   0.1326   0.0835  11.00    2.9
2021/04/15 01:30:12.000    455571.3158   3639410.9834   5200658.8146   1   6   0.0224   0.0413   0.0334   0.0226   0.0270   0.0218  12.00    3.1
2021/04/15 01:30:15.000    455571.3151   3639410.9886   5200658.8147   1   6   0.0272   0.0502   0.0397   0.0277   0.0331   0.0265  15.00    3.4
2021/04/15 01:30:17.000    455571.3143   3639410.9947   5200658.8156   1   6   0.0305   0.0562   0.0440   0.0312   0.0372   0.0296  17.00    3.6
2021/04/15 01:30:20.000    455571.3100   3639410.9921   5200658.8110   1   6   0.0355   0.0653   0.0505   0.0364   0.0434   0.0344  20.00    3.8
2021/04/15 01:30:22.000    455571.3108   3639410.9989   5200658.8153   1   6   0.0389   0.0714   0.0550   0.0399   0.0475   0.0376  22.00    4.1
2021/04/15 01:30:28.000    455571.3098   3639410.9972   5200658.8087   1   6   0.0489   0.0899   0.0685   0.0504   0.0600   0.0473  28.00    4.4
2021/04/15 01:30:33.000    455571.3192   3639410.9748   5200658.8144   1   6   0.0095   0.0181   0.0184   0.0089   0.0117   0.0095   3.00    4.8
2021/04/15 01:30:35.000    455571.3185   3639410.9749   5200658.8153   1   6   0.0118   0.0222   0.0209   0.0113   0.0142   0.0117   5.00    5.1
2021/04/15 01:30:38.000    455571.3184   3639410.9811   5200658.8142   1   6   0.0160   0.0299   0.0257   0.0157   0.0192   0.0157   8.00    5.2
2021/04/15 01:30:43.000    455571.3156   3639410.9944   5200658.8125   1   6   0.0238   0.0441   0.0354   0.0240   0.0288   0.0232  13.00    5.2
2021/04/15 01:30:46.000    455571.3141   3639410.9967   5200658.8153   1   6   0.0287   0.0530   0.0417   0.0292   0.0349   0.0278  16.00    5.3
2021/04/15 01:30:48.000    455571.3118   3639411.0029   5200658.8097   1   6   0.0320   0.0590   0.0460   0.0326   0.0390   0.0310  18.00    5.3
2021/04/15 01:30:51.000    455571.3115   3639411.0029   5200658.8133   1   6   0.0370   0.0682   0.0526   0.0378   0.0451   0.0357  21.00    5.2
2021/04/15 01:30:54.000    455571.3089   3639411.0040   5200658.8078   1   6   0.0420   0.0773   0.0592   0.0430   0.0513   0.0405  24.00    5.2
2021/04/15 01:30:56.000    455571.3098   3639411.0037   5200658.8097   1   6   0.0453   0.0835   0.0637   0.0465   0.0555   0.0437  26.00    5.1
2021/04/15 01:30:59.000    455571.3112   3639411.0068   5200658.8081   1   6   0.0503   0.0927   0.0705   0.0516   0.0617   0.0485  29.00    5.0
2021/04/15 01:31:01.000    455571.3205   3639410.9680   5200658.8054   1   6   0.0081   0.0155   0.0171   0.0074   0.0103   0.0081   1.00    5.4
2021/04/15 01:31:04.000    455571.3184   3639410.9678   5200658.8086   1   6   0.0105   0.0199   0.0196   0.0099   0.0128   0.0105   4.00    5.6
2021/04/15 01:31:12.000    455571.3192   3639410.9672   5200658.8003   1   6   0.0221   0.0410   0.0333   0.0221   0.0267   0.0215  12.00    5.6
2021/04/15 01:31:14.000    455571.3201   3639410.9618   5200658.8038   1   6   0.0253   0.0469   0.0374   0.0255   0.0306   0.0245  14.00    5.8
2021/04/15 01:31:17.000    455571.3198   3639410.9627   5200658.8021   1   6   0.0302   0.0559   0.0437   0.0306   0.0367   0.0292  17.00    5.8
2021/04/15 01:31:20.000    455571.3177   3639410.9605   5200658.7987   1   6   0.0351   0.0649   0.0502   0.0357   0.0428   0.0339  20.00    5.9
2021/04/15 01:31:22.000    455571.3185   3639410.9646   5200658.7974   1   6   0.0384   0.0710   0.0546   0.0391   0.0469   0.0370  22.00    6.1
2021/04/15 01:31:25.000    455571.1438   3639410.7998   5200658.7693   2   5   0.0929   0.1794   0.1773   0.0854   0.1141   0.0878  25.00    1.7
2021/04/15 01:31:30.000    455571.1473   3639410.7597   5200658.7932   2   5   0.0807   0.1595   0.1272   0.0750   0.1109   0.0654   0.00    1.8
2021/04/15 01:31:38.000    455571.1390   3639410.7383   5200658.7669   2   5   0.0814   0.1606   0.1321   0.0754   0.1104   0.0673   8.00    1.8
2021/04/15 01:31:43.000    455571.1365   3639410.7223   5200658.7652   2   5   0.0830   0.1630   0.1408   0.0766   0.1102   0.0709  13.00    1.8
2021/04/15 01:31:46.000    455571.1272   3639410.6967   5200658.7417   2   5   0.0842   0.1649   0.1475   0.0775   0.1100   0.0738  16.00    1.8
2021/04/15 01:31:51.000    455571.1200   3639410.6811   5200658.7229   2   5   0.0872   0.1697   0.1615   0.0799   0.1103   0.0799  21.00    1.8
2021/04/15 01:31:56.000    455571.1178   3639410.6723   5200658.7186   2   5   0.0911   0.1758   0.1777   0.0830   0.1107   0.0871  26.00    1.9
2021/04/15 01:32:04.000    455571.1352   3639410.6475   5200658.7345   2   5   0.0780   0.1546   0.1244   0.0719   0.1071   0.0630   4.00    2.0
2021/04/15 01:32:09.000    455571.1385   3639410.6352   5200658.7231   2   5   0.0789   0.1558   0.1298   0.0725   0.1068   0.0652   9.00    2.0
2021/04/15 01:32:12.000    455571.1465   3639410.6237   5200658.7130   2   5   0.0797   0.1571   0.1350   0.0731   0.1066   0.0674  12.00    2.1
2021/04/15 01:32:14.000    455571.1539   3639410.6171   5200658.7066   2   5   0.0804   0.1580   0.1391   0.0736   0.1063   0.0691  14.00    2.1
2021/04/15 01:32:17.000    455571.1598   3639410.6024   5200658.7041   2   5   0.0818   0.1602   0.1466   0.0747   0.1062   0.0724  17.00    2.1
2021/04/15 01:32:19.000    455571.1634   3639410.5922   5200658.6857   2   5   0.0829   0.1617   0.1521   0.0755   0.1061   0.0748  19.00    2.1
2021/04/15 01:32:25.000    455571.1734   3639410.5735   5200658.6929   2   5   0.0874   0.1691   0.1717   0.0791   0.1067   0.0835  25.00    2.2
2021/04/15 01:32:27.000    455571.1789   3639410.5659   5200658.6932   2   5   0.0890   0.1715   0.1787   0.0803   0.1067   0.0866  27.00    2.2
2021/04/15 01:32:30.000    455571.1802   3639410.5648   5200658.6532   2   5   0.0743   0.1477   0.1165   0.0682   0.1031   0.0588   0.00    2.2
2021/04/15 01:32:32.000    455571.1859   3639410.5575   5200658.6518   2   5   0.0739   0.1470   0.1148   0.0680   0.1029   0.0581   2.00    2.2
2021/04/15 01:32:35.000    455571.1926   3639410.5547   5200658.6497   2   5   0.0740   0.1470   0.1160   0.0680   0.1026   0.0585   5.00    2.2
2021/04/15 01:32:38.000    455571.1995   3639410.5397   5200658.6499   2   5   0.0744   0.1477   0.1194   0.0683   0.1023   0.0599   8.00    2.2
2021/04/15 01:32:43.000    455571.2082   3639410.5357   5200658.6608   2   5   0.0763   0.1505   0.1293   0.0696   0.1023   0.0642  13.00    2.3
2021/04/15 01:32:45.000    455571.2189   3639410.5402   5200658.6655   2   5   0.0771   0.1517   0.1342   0.0702   0.1021   0.0663  15.00    2.3
2021/04/15 01:32:48.000    455571.2257   3639410.5375   5200658.6738   2   5   0.0788   0.1543   0.1428   0.0715   0.1021   0.0700  18.00    2.3
2021/04/15 01:32:51.000    455571.2306   3639410.5336   5200658.6776   2   5   0.0808   0.1575   0.1523   0.0731   0.1022   0.0743  21.00    2.3
2021/04/15 01:32:56.000    455571.2392   3639410.5360   5200658.6898   2   5   0.0850   0.1642   0.1701   0.0764   0.1029   0.0822  26.00    2.3
2021/04/15 01:33:01.000    455571.2322   3639410.5400   5200658.6181   2   5   0.0709   0.1413   0.1088   0.0647   0.0993   0.0547   1.00    2.3
2021/04/15 01:33:04.000    455571.2424   3639410.5439   5200658.6153   2   5   0.0708   0.1412   0.1093   0.0647   0.0991   0.0550   4.00    2.4
2021/04/15 01:33:06.000    455571.2519   3639410.5455   5200658.6030   2   5   0.0709   0.1412   0.1108   0.0647   0.0988   0.0556   6.00    2.4
2021/04/15 01:33:09.000    455571.2565   3639410.5455   5200658.5823   2   5   0.0716   0.1422   0.1153   0.0652   0.0986   0.0574   9.00    2.5
2021/04/15 01:33:11.000    455571.2606   3639410.5450   5200658.5753   2   5   0.0722   0.1430   0.1191   0.0656   0.0984   0.0591  11.00    2.5
2021/04/15 01:33:14.000    455571.2635   3639410.5517   5200658.5669   2   5   0.0735   0.1450   0.1265   0.0666   0.0983   0.0623  14.00    2.5
2021/04/15 01:33:17.000    455571.2660   3639410.5494   5200658.5434   2   5   0.0752   0.1476   0.1351   0.0679   0.0984   0.0660  17.00    2.5
2021/04/15 01:33:19.000    455571.2665   3639410.5460   5200658.5299   2   5   0.0764   0.1495   0.1415   0.0688   0.0983   0.0688  19.00    2.5
2021/04/15 01:33:22.000    455571.2659   3639410.5430   5200658.5249   2   5   0.0787   0.1530   0.1518   0.0705   0.0985   0.0734  22.00    2.5
2021/04/15 01:33:24.000    455571.2659   3639410.5363   5200658.5149   2   5   0.0803   0.1555   0.1591   0.0717   0.0986   0.0767  24.00    2.5
2021/04/15 01:33:27.000    455571.2702   3639410.5323   5200658.5126   2   5   0.0830   0.1598   0.1706   0.0739   0.0990   0.0819  27.00    2.4
2021/04/15 01:33:30.000    455571.2665   3639410.5467   5200658.6024   2   5   0.0673   0.1345   0.1021   0.0612   0.0951   0.0511   0.00    2.4
2021/04/15 01:33:35.000    455571.2672   3639410.5258   5200658.5841   2   5   0.0675   0.1349   0.1043   0.0613   0.0948   0.0520   5.00    2.4
2021/04/15 01:33:37.000    455571.2627   3639410.5092   5200658.5722   2   5   0.0678   0.1352   0.1066   0.0614   0.0946   0.0530   7.00    2.4
2021/04/15 01:33:40.000    455571.2607   3639410.4986   5200658.5599   2   5   0.0687   0.1365   0.1122   0.0621   0.0945   0.0554  10.00    2.3
2021/04/15 01:33:43.000    455571.2535   3639410.4875   5200658.5560   2   5   0.0700   0.1385   0.1195   0.0630   0.0945   0.0585  13.00    2.3
2021/04/15 01:33:45.000    455571.2481   3639410.4761   5200658.5519   2   5   0.0710   0.1400   0.1251   0.0638   0.0944   0.0610  15.00    2.3
2021/04/15 01:33:48.000    455571.2426   3639410.4708   5200658.5525   2   5   0.0730   0.1430   0.1346   0.0652   0.0945   0.0652  18.00    2.2
2021/04/15 01:33:50.000    455571.2357   3639410.4633   5200658.5492   2   5   0.0744   0.1451   0.1415   0.0663   0.0946   0.0682  20.00    2.2
2021/04/15 01:33:53.000    455571.2284   3639410.4607   5200658.5511   2   5   0.0768   0.1490   0.1525   0.0682   0.0949   0.0732  23.00    2.2
2021/04/15 01:33:56.000    455571.2177   3639410.4538   5200658.5552   2   5   0.0796   0.1533   0.1643   0.0703   0.0953   0.0784  26.00    2.2
2021/04/15 01:33:58.000    455571.2072   3639410.4489   5200658.5539   2   5   0.0815   0.1563   0.1724   0.0718   0.0956   0.0821  28.00    2.1
2021/04/15 01:34:01.000    455571.1946   3639410.4748   5200658.5328   2   5   0.0642   0.1287   0.0969   0.0579   0.0912   0.0482   1.00    2.1
2021/04/15 01:34:03.000    455571.1887   3639410.4734   5200658.5317   2   5   0.0641   0.1285   0.0969   0.0579   0.0910   0.0482   3.00    2.1
2021/04/15 01:34:06.000    455571.1819   3639410.4694   5200658.5333   2   5   0.0645   0.1290   0.0999   0.0581   0.0908   0.0495   6.00    2.1
2021/04/15 01:34:09.000    455571.1768   3639410.4628   5200658.5347   2   5   0.0654   0.1302   0.1052   0.0587   0.0907   0.0517   9.00    2.1
2021/04/15 01:34:14.000    455571.1702   3639410.4647   5200658.5241   2   5   0.0678   0.1341   0.1183   0.0605   0.0910   0.0575  14.00    2.1
2021/04/15 01:34:16.000    455571.1649   3639410.4585   5200658.5254   2   5   0.0690   0.1358   0.1245   0.0614   0.0910   0.0602  16.00    2.1
2021/04/15 01:34:19.000    455571.1602   3639410.4554   5200658.5231   2   5   0.0712   0.1391   0.1349   0.0630   0.0912   0.0648  19.00    2.1
2021/04/15 01:34:22.000    455571.1536   3639410.4525   5200658.5208   2   5   0.0736   0.1430   0.1461   0.0649   0.0916   0.0698  22.00    2.1
2021/04/15 01:34:27.000    455571.1460   3639410.4511   5200658.5190   2   5   0.0785   0.1508   0.1665   0.0686   0.0926   0.0790  27.00    2.0
2021/04/15 01:34:32.000    455571.1571   3639410.4393   5200658.5285   2   5   0.0619   0.1244   0.0928   0.0555   0.0883   0.0459   2.00    2.0
2021/04/15 01:34:35.000    455571.1592   3639410.4345   5200658.5299   2   5   0.0622   0.1247   0.0952   0.0556   0.0882   0.0469   5.00    2.0
2021/04/15 01:34:40.000    455571.1583   3639410.4399   5200658.5339   2   5   0.0639   0.1272   0.1047   0.0568   0.0882   0.0510  10.00    2.0
2021/04/15 01:34:42.000    455571.1576   3639410.4386   5200658.5334   2   5   0.0647   0.1285   0.1099   0.0574   0.0882   0.0532  12.00    2.0
2021/04/15 01:34:45.000    455571.1598   3639410.4388   5200658.5380   2   5   0.0664   0.1311   0.1190   0.0587   0.0883   0.0572  15.00    1.9
2021/04/15 01:34:48.000    455571.1627   3639410.4386   5200658.5398   2   5   0.0686   0.1344   0.1294   0.0602   0.0886   0.0619  18.00    1.9
2021/04/15 01:34:50.000    455571.1641   3639410.4361   5200658.5347   2   5   0.0701   0.1367   0.1368   0.0614   0.0887   0.0652  20.00    1.9
2021/04/15 01:34:53.000    455571.1682   3639410.4424   5200658.5398   2   5   0.0727   0.1409   0.1487   0.0634   0.0892   0.0705  23.00    1.9
2021/04/15 01:34:55.000    455571.1721   3639410.4429   5200658.5451   2   5   0.0746   0.1438   0.1569   0.0648   0.0895   0.0742  25.00    1.9
2021/04/15 01:34:58.000    455571.1752   3639410.4481   5200658.5460   2   5   0.0777   0.1487   0.1697   0.0672   0.0901   0.0800  28.00    1.9
2021/04/15 01:35:01.000    455571.1729   3639410.3958   5200658.5009   2   5   0.0596   0.1199   0.0886   0.0529   0.0854   0.0435   1.00    1.9
2021/04/15 01:35:03.000    455571.1715   3639410.3943   5200658.5037   2   5   0.0596   0.1198   0.0890   0.0529   0.0853   0.0437   3.00    1.8
2021/04/15 01:35:06.000    455571.1704   3639410.3939   5200658.4973   2   5   0.0601   0.1205   0.0925   0.0532   0.0852   0.0452   6.00    1.8
2021/04/15 01:35:08.000    455571.1709   3639410.3882   5200658.4913   2   5   0.0606   0.1212   0.0962   0.0536   0.0851   0.0468   8.00    1.8
2021/04/15 01:35:11.000    455571.1664   3639410.3823   5200658.4907   2   5   0.0619   0.1231   0.1036   0.0545   0.0851   0.0500  11.00    1.8
2021/04/15 01:35:14.000    455571.1705   3639410.3790   5200658.4980   2   5   0.0635   0.1257   0.1127   0.0557   0.0853   0.0540  14.00    1.7
2021/04/15 01:35:19.000    455571.1700   3639410.3748   5200658.4917   2   5   0.0673   0.1315   0.1308   0.0585   0.0860   0.0621  19.00    1.7
2021/04/15 01:35:21.000    455571.1699   3639410.3749   5200658.4888   2   5   0.0690   0.1341   0.1386   0.0598   0.0862   0.0656  21.00    1.7
2021/04/15 01:35:33.000    455571.1741   3639410.3802   5200658.4802   2   5   0.0580   0.1169   0.0864   0.0511   0.0833   0.0422   3.00    1.7
2021/04/15 01:35:36.000    455571.1749   3639410.3893   5200658.4971   2   5   0.0585   0.1176   0.0901   0.0514   0.0832   0.0437   6.00    1.7
2021/04/15 01:35:37.000    455571.1797   3639410.3980   5200658.5062   2   5   0.0587   0.1178   0.0917   0.0515   0.0831   0.0444   7.00    1.7
2021/04/15 01:35:43.000    455571.1828   3639410.4084   5200658.5473   2   5   0.0616   0.1222   0.1079   0.0536   0.0835   0.0515  13.00    1.6
2021/04/15 01:35:46.000    455571.1864   3639410.4185   5200658.5706   2   5   0.0636   0.1253   0.1183   0.0551   0.0838   0.0561  16.00    1.6
2021/04/15 01:35:48.000    455571.1875   3639410.4288   5200658.5820   2   5   0.0651   0.1276   0.1258   0.0562   0.0839   0.0595  18.00    1.6
2021/04/15 01:35:49.000    455571.1897   3639410.4320   5200658.5941   2   5   0.0658   0.1286   0.1296   0.0567   0.0839   0.0612  19.00    1.6
2021/04/15 01:35:50.000    455571.1914   3639410.4422   5200658.6001   2   5   0.0666   0.1298   0.1336   0.0573   0.0839   0.0629  20.00    1.6
2021/04/15 01:35:53.000    455571.1946   3639410.4526   5200658.6326   2   5   0.0694   0.1342   0.1461   0.0593   0.0845   0.0686  23.00    1.6
2021/04/15 01:35:56.000    455571.1909   3639410.4605   5200658.6465   2   5   0.0725   0.1390   0.1592   0.0616   0.0852   0.0745  26.00    1.6
2021/04/15 01:35:58.000    455571.1883   3639410.4632   5200658.6530   2   5   0.0746   0.1424   0.1682   0.0633   0.0856   0.0785  28.00    1.6
2021/04/15 01:36:03.000    455571.1867   3639410.4308   5200658.5038   2   5   0.0560   0.1129   0.0833   0.0488   0.0805   0.0403   3.00    1.6
2021/04/15 01:36:06.000    455571.1818   3639410.4368   5200658.5163   2   5   0.0565   0.1137   0.0873   0.0492   0.0805   0.0420   6.00    1.6
2021/04/15 01:36:09.000    455571.1804   3639410.4513   5200658.5339   2   5   0.0576   0.1152   0.0939   0.0499   0.0805   0.0449   9.00    1.6
2021/04/15 01:36:11.000    455571.1768   3639410.4576   5200658.5422   2   5   0.0585   0.1166   0.0995   0.0506   0.0806   0.0473  11.00    1.7
2021/04/15 01:36:12.000    455571.1736   3639410.4691   5200658.5419   2   5   0.0589   0.1172   0.1025   0.0509   0.0805   0.0487  12.00    1.7
2021/04/15 01:36:15.000    455571.1692   3639410.4807   5200658.5533   2   5   0.0609   0.1202   0.1128   0.0523   0.0808   0.0532  15.00    1.7
2021/04/15 01:36:20.000    455571.1678   3639410.4967   5200658.5794   2   5   0.0650   0.1266   0.1325   0.0553   0.0817   0.0621  20.00    1.7
2021/04/15 01:36:22.000    455571.1660   3639410.5082   5200658.5876   2   5   0.0669   0.1295   0.1410   0.0567   0.0820   0.0659  22.00    1.7
2021/04/15 01:36:28.000    455571.1632   3639410.5218   5200658.5935   2   5   0.0734   0.1398   0.1680   0.0615   0.0837   0.0781  28.00    1.7
2021/04/15 01:36:34.000    455571.1718   3639410.5092   5200658.5038   2   5   0.0545   0.1101   0.0821   0.0471   0.0784   0.0393   4.00    1.8
2021/04/15 01:36:37.000    455571.1755   3639410.5143   5200658.4983   2   5   0.0553   0.1112   0.0873   0.0476   0.0784   0.0416   7.00    1.8
2021/04/15 01:36:39.000    455571.1760   3639410.5152   5200658.4931   2   5   0.0560   0.1123   0.0920   0.0481   0.0785   0.0437   9.00    1.8
2021/04/15 01:36:44.000    455571.1770   3639410.5144   5200658.4705   2   5   0.0590   0.1167   0.1081   0.0502   0.0790   0.0508  14.00    1.8
2021/04/15 01:36:47.000    455571.1801   3639410.5218   5200658.4721   2   5   0.0612   0.1202   0.1195   0.0518   0.0794   0.0559  17.00    1.8
2021/04/15 01:36:49.000    455571.1788   3639410.5238   5200658.4658   2   5   0.0629   0.1227   0.1276   0.0531   0.0797   0.0595  19.00    1.8
2021/04/15 01:36:53.000    455571.1815   3639410.5286   5200658.4558   2   5   0.0668   0.1288   0.1450   0.0559   0.0806   0.0673  23.00    1.8
2021/04/15 01:36:56.000    455571.1793   3639410.5195   5200658.4336   2   5   0.0700   0.1338   0.1587   0.0583   0.0814   0.0735  26.00    1.8
2021/04/15 01:36:58.000    455571.1820   3639410.5183   5200658.4316   2   5   0.0722   0.1373   0.1680   0.0599   0.0820   0.0777  28.00    1.8
2021/04/15 01:37:05.000    455571.1691   3639410.5447   5200658.5436   2   6   0.0533   0.1076   0.0816   0.0455   0.0764   0.0386   5.00    1.6
2021/04/15 01:37:07.000    455571.1693   3639410.5518   5200658.5485   2   6   0.0534   0.1084   0.0792   0.0458   0.0764   0.0375   7.00    2.1
2021/04/15 01:37:10.000    455571.1649   3639410.5547   5200658.5540   2   6   0.0541   0.1103   0.0795   0.0468   0.0768   0.0373  10.00    2.2
2021/04/15 01:37:14.000    455571.1679   3639410.5558   5200658.5478   2   6   0.0554   0.1140   0.0813   0.0488   0.0779   0.0374  14.00    2.3
2021/04/15 01:37:17.000    455571.1705   3639410.5617   5200658.5579   2   6   0.0567   0.1175   0.0831   0.0507   0.0790   0.0374  17.00    2.3
2021/04/15 01:37:19.000    455571.1685   3639410.5673   5200658.5641   2   6   0.0577   0.1201   0.0844   0.0520   0.0798   0.0374  19.00    2.3
2021/04/15 01:37:20.000    455571.1650   3639410.5734   5200658.5657   2   6   0.0581   0.1213   0.0850   0.0527   0.0801   0.0373  20.00    2.3
2021/04/15 01:37:29.000    455571.1702   3639410.5642   5200658.5645   2   6   0.0642   0.1370   0.0941   0.0608   0.0857   0.0384  29.00    2.3
2021/04/15 01:37:31.000    455571.1538   3639410.5825   5200658.5775   2   6   0.0512   0.1040   0.0725   0.0434   0.0746   0.0345   1.00    2.8
2021/04/15 01:37:38.000    455571.1535   3639410.5895   5200658.5840   2   6   0.0522   0.1065   0.0743   0.0446   0.0752   0.0349   8.00    3.0
2021/04/15 01:37:44.000    455571.3167   3639410.9434   5200658.7935   1   6   0.0199   0.0455   0.0320   0.0212   0.0221   0.0085  14.00    3.0
2021/04/15 01:37:48.000    455571.3183   3639410.9453   5200658.8004   1   6   0.0249   0.0572   0.0388   0.0269   0.0278   0.0100  18.00    3.0
2021/04/15 01:37:49.000    455571.3156   3639410.9432   5200658.8007   1   6   0.0261   0.0602   0.0406   0.0283   0.0292   0.0103  19.00    3.1
2021/04/15 01:37:52.000    455571.3129   3639410.9455   5200658.8040   1   6   0.0299   0.0691   0.0460   0.0326   0.0336   0.0115  22.00    3.1
2021/04/15 01:37:54.000    455571.3130   3639410.9505   5200658.8068   1   6   0.0325   0.0751   0.0497   0.0355   0.0365   0.0123  24.00    3.2
2021/04/15 01:37:56.000    455571.3106   3639410.9481   5200658.8079   1   6   0.0350   0.0810   0.0534   0.0383   0.0394   0.0131  26.00    3.2
2021/04/15 01:37:58.000    455571.3077   3639410.9455   5200658.8103   1   6   0.0376   0.0870   0.0571   0.0412   0.0423   0.0139  28.00    3.2
2021/04/15 01:38:01.000    455571.3165   3639410.9652   5200658.8041   1   6   0.0070   0.0147   0.0163   0.0059   0.0086   0.0047   1.00    3.7
2021/04/15 01:38:05.000    455571.3140   3639410.9674   5200658.8098   1   6   0.0097   0.0211   0.0191   0.0091   0.0110   0.0056   5.00    3.9
2021/04/15 01:38:09.000    455571.3124   3639410.9744   5200658.8117   1   6   0.0139   0.0312   0.0242   0.0141   0.0155   0.0068   9.00    4.1
2021/04/15 01:38:12.000    455571.3130   3639410.9701   5200658.8125   1   6   0.0174   0.0396   0.0288   0.0182   0.0195   0.0078  12.00    4.1
2021/04/15 01:38:18.000    455571.3116   3639410.9784   5200658.8238   1   6   0.0248   0.0570   0.0390   0.0266   0.0279   0.0099  18.00    4.2
2021/04/15 01:38:20.000    455571.3127   3639410.9785   5200658.8250   1   6   0.0273   0.0629   0.0426   0.0294   0.0308   0.0106  20.00    4.2
2021/04/15 01:38:23.000    455571.3116   3639410.9832   5200658.8327   1   6   0.0310   0.0718   0.0481   0.0337   0.0352   0.0118  23.00    4.2
2021/04/15 01:38:25.000    455571.3132   3639410.9833   5200658.8318   1   6   0.0336   0.0777   0.0518   0.0365   0.0381   0.0126  25.00    4.3
2021/04/15 01:38:27.000    455571.3128   3639410.9817   5200658.8288   1   6   0.0361   0.0837   0.0555   0.0393   0.0411   0.0134  27.00    4.3
2021/04/15 01:38:30.000    455571.3158   3639410.9594   5200658.7977   1   6   0.0068   0.0144   0.0161   0.0057   0.0085   0.0046   0.00    4.6
2021/04/15 01:38:33.000    455571.3127   3639410.9611   5200658.8010   1   6   0.0080   0.0171   0.0173   0.0070   0.0094   0.0050   3.00    5.0
2021/04/15 01:38:36.000    455571.3108   3639410.9643   5200658.8083   1   6   0.0106   0.0234   0.0202   0.0101   0.0120   0.0058   6.00    5.2
2021/04/15 01:38:41.000    455571.3080   3639410.9668   5200658.8130   1   6   0.0161   0.0366   0.0273   0.0166   0.0182   0.0074  11.00    5.3
2021/04/15 01:38:43.000    455571.3057   3639410.9700   5200658.8150   1   6   0.0185   0.0423   0.0305   0.0194   0.0210   0.0080  13.00    5.3
2021/04/15 01:38:45.000    455571.3082   3639410.9728   5200658.8170   1   6   0.0209   0.0480   0.0339   0.0221   0.0238   0.0087  15.00    5.2
2021/04/15 01:38:48.000    455571.3067   3639410.9786   5200658.8228   1   6   0.0246   0.0568   0.0392   0.0263   0.0281   0.0098  18.00    5.3
2021/04/15 01:38:54.000    455571.3064   3639410.9794   5200658.8291   1   6   0.0322   0.0745   0.0502   0.0347   0.0369   0.0121  24.00    5.3
2021/04/15 01:38:56.000    455571.3099   3639410.9719   5200658.8270   1   6   0.0347   0.0804   0.0539   0.0375   0.0398   0.0129  26.00    5.3
2021/04/15 01:38:58.000    455571.3126   3639410.9656   5200658.8228   1   6   0.0372   0.0864   0.0577   0.0403   0.0428   0.0137  28.00    5.4
2021/04/15 01:39:01.000    455571.3133   3639410.9551   5200658.7925   1   6   0.0070   0.0147   0.0162   0.0058   0.0086   0.0046   1.00    5.6
2021/04/15 01:39:03.000    455571.3155   3639410.9585   5200658.7925   1   6   0.0079   0.0170   0.0172   0.0070   0.0095   0.0050   3.00    5.7
2021/04/15 01:39:05.000    455571.3160   3639410.9553   5200658.7936   1   6   0.0096   0.0210   0.0191   0.0089   0.0111   0.0055   5.00    5.9
2021/04/15 01:39:08.000    455571.3149   3639410.9575   5200658.7972   1   6   0.0126   0.0283   0.0228   0.0125   0.0144   0.0064   8.00    6.1
2021/04/15 01:39:14.000    455571.3121   3639410.9684   5200658.8079   1   6   0.0196   0.0450   0.0323   0.0205   0.0225   0.0083  14.00    6.2
2021/04/15 01:39:16.000    455571.3127   3639410.9708   5200658.8101   1   6   0.0220   0.0507   0.0358   0.0233   0.0254   0.0090  16.00    6.3
2021/04/15 01:39:18.000    455571.3111   3639410.9770   5200658.8144   1   6   0.0245   0.0565   0.0393   0.0260   0.0283   0.0097  18.00    6.5
2021/04/15 01:39:20.000    455571.3095   3639410.9778   5200658.8151   1   6   0.0270   0.0624   0.0430   0.0288   0.0312   0.0105  20.00    6.7
2021/04/15 01:39:22.000    455571.3083   3639410.9888   5200658.8226   1   6   0.0295   0.0683   0.0467   0.0316   0.0341   0.0112  22.00    6.8
2021/04/15 01:39:24.000    455571.3057   3639410.9855   5200658.8269   1   6   0.0320   0.0742   0.0504   0.0343   0.0371   0.0120  24.00    7.0
2021/04/15 01:39:26.000    455571.3048   3639410.9944   5200658.8312   1   6   0.0345   0.0801   0.0542   0.0371   0.0401   0.0128  26.00    7.2
2021/04/15 01:39:29.000    455571.3022   3639410.9982   5200658.8409   1   6   0.0383   0.0890   0.0599   0.0412   0.0445   0.0140  29.00    7.5
2021/04/15 01:39:32.000    455571.3122   3639410.9572   5200658.7971   1   6   0.0073   0.0156   0.0165   0.0061   0.0090   0.0047   2.00    7.7
2021/04/15 01:39:34.000    455571.3097   3639410.9616   5200658.8081   1   6   0.0087   0.0188   0.0180   0.0077   0.0102   0.0051   4.00    7.8
2021/04/15 01:39:36.000    455571.3081   3639410.9662   5200658.8060   1   6   0.0105   0.0232   0.0202   0.0099   0.0122   0.0057   6.00    7.8
2021/04/15 01:39:38.000    455571.3068   3639410.9746   5200658.8086   1   6   0.0126   0.0282   0.0229   0.0124   0.0145   0.0063   8.00    7.8
2021/04/15 01:39:40.000    455571.3048   3639410.9775   5200658.8150   1   6   0.0148   0.0336   0.0258   0.0149   0.0171   0.0069  10.00    7.9
2021/04/15 01:39:43.000    455571.3025   3639410.9838   5200658.8194   1   6   0.0183   0.0419   0.0307   0.0189   0.0212   0.0079  13.00    8.1
2021/04/15 01:39:45.000    455571.3025   3639410.9897   5200658.8229   1   6   0.0207   0.0477   0.0342   0.0217   0.0241   0.0086  15.00    8.2
2021/04/15 01:39:47.000    455571.3022   3639410.9957   5200658.8254   1   6   0.0232   0.0534   0.0377   0.0244   0.0270   0.0093  17.00    8.3
2021/04/15 01:39:49.000    455571.2998   3639411.0006   5200658.8341   1   6   0.0256   0.0592   0.0413   0.0271   0.0299   0.0100  19.00    8.4
2021/04/15 01:39:52.000    455571.2993   3639411.0073   5200658.8362   1   6   0.0293   0.0680   0.0469   0.0312   0.0343   0.0111  22.00    8.6
2021/04/15 01:39:55.000    455571.2950   3639411.0136   5200658.8462   1   6   0.0331   0.0768   0.0526   0.0353   0.0388   0.0123  25.00    8.7
2021/04/15 01:39:57.000    455571.2971   3639411.0195   5200658.8443   1   6   0.0356   0.0827   0.0564   0.0381   0.0418   0.0131  27.00    8.8
2021/04/15 01:39:59.000    455571.2974   3639411.0235   5200658.8525   1   6   0.0381   0.0886   0.0602   0.0408   0.0448   0.0139  29.00    9.0
2021/04/15 01:40:01.000    455571.3166   3639410.9567   5200658.7887   1   6   0.0068   0.0146   0.0161   0.0057   0.0087   0.0045   1.00    9.3
2021/04/15 01:40:03.000    455571.3164   3639410.9567   5200658.7914   1   6   0.0079   0.0170   0.0172   0.0068   0.0095   0.0049   3.00    9.6
2021/04/15 01:40:06.000    455571.3163   3639410.9600   5200658.7965   1   6   0.0105   0.0232   0.0202   0.0098   0.0122   0.0057   6.00    9.8
2021/04/15 01:40:08.000    455571.3186   3639410.9615   5200658.7980   1   6   0.0125   0.0281   0.0229   0.0122   0.0146   0.0062   8.00    9.9
2021/04/15 01:40:10.000    455571.3184   3639410.9568   5200658.7945   1   6   0.0147   0.0335   0.0259   0.0148   0.0172   0.0068  10.00   10.0
2021/04/15 01:40:12.000    455571.3174   3639410.9544   5200658.7926   1   6   0.0170   0.0390   0.0291   0.0174   0.0199   0.0075  12.00   10.0
2021/04/15 01:40:15.000    455571.3178   3639410.9539   5200658.7950   1   6   0.0206   0.0475   0.0343   0.0214   0.0242   0.0085  15.00   10.1
2021/04/15 01:40:18.000    455571.3179   3639410.9577   5200658.8037   1   6   0.0243   0.0561   0.0397   0.0255   0.0286   0.0096  18.00   10.2
2021/04/15 01:40:20.000    455571.3173   3639410.9532   5200658.8044   1   6   0.0267   0.0619   0.0434   0.0282   0.0316   0.0103  20.00   10.2
2021/04/15 01:40:22.000    455571.3183   3639410.9552   5200658.8041   1   6   0.0292   0.0678   0.0471   0.0309   0.0345   0.0111  22.00   10.3
2021/04/15 01:40:24.000    455571.3187   3639410.9524   5200658.8043   1   6   0.0317   0.0736   0.0509   0.0336   0.0375   0.0118  24.00   10.4
2021/04/15 01:40:26.000    455571.3203   3639410.9582   5200658.8076   1   6   0.0342   0.0795   0.0548   0.0363   0.0405   0.0126  26.00   10.5
2021/04/15 01:40:29.000    455571.3196   3639410.9566   5200658.8100   1   6   0.0379   0.0883   0.0606   0.0403   0.0451   0.0138  29.00   10.6
2021/04/15 01:40:31.000    455571.3169   3639410.9592   5200658.7884   1   6   0.0069   0.0146   0.0160   0.0056   0.0087   0.0044   1.00   10.7
2021/04/15 01:40:33.000    455571.3181   3639410.9611   5200658.7872   1   6   0.0079   0.0169   0.0171   0.0067   0.0096   0.0048   3.00   10.8
2021/04/15 01:40:35.000    455571.3169   3639410.9606   5200658.7882   1   6   0.0094   0.0208   0.0191   0.0086   0.0112   0.0054   5.00   10.8
2021/04/15 01:40:38.000    455571.3155   3639410.9618   5200658.7937   1   6   0.0124   0.0280   0.0229   0.0121   0.0147   0.0062   8.00   10.9
2021/04/15 01:40:41.000    455571.3161   3639410.9642   5200658.7936   1   6   0.0158   0.0361   0.0276   0.0159   0.0187   0.0071  11.00   10.9
2021/04/15 01:40:43.000    455571.3166   3639410.9647   5200658.7968   1   6   0.0181   0.0416   0.0309   0.0185   0.0215   0.0077  13.00   10.9
2021/04/15 01:40:45.000    455571.3162   3639410.9694   5200658.8016   1   6   0.0205   0.0473   0.0344   0.0212   0.0244   0.0084  15.00   10.8
2021/04/15 01:40:47.000    455571.3136   3639410.9681   5200658.8026   1   6   0.0229   0.0530   0.0380   0.0238   0.0273   0.0091  17.00   10.7
2021/04/15 01:40:49.000    455571.3149   3639410.9668   5200658.8043   1   6   0.0254   0.0588   0.0417   0.0265   0.0303   0.0098  19.00   10.7
2021/04/15 01:40:52.000    455571.3125   3639410.9692   5200658.8078   1   6   0.0291   0.0675   0.0474   0.0305   0.0347   0.0110  22.00   10.6
2021/04/15 01:40:54.000    455571.3112   3639410.9717   5200658.8164   1   6   0.0315   0.0733   0.0512   0.0332   0.0378   0.0117  24.00   10.5
2021/04/15 01:40:56.000    455571.3099   3639410.9720   5200658.8160   1   6   0.0340   0.0792   0.0551   0.0359   0.0408   0.0125  26.00   10.5
2021/04/15 01:40:58.000    455571.3098   3639410.9736   5200658.8184   1   6   0.0365   0.0850   0.0590   0.0385   0.0438   0.0133  28.00   10.4
2021/04/15 01:41:01.000    455571.3149   3639410.9644   5200658.7894   1   6   0.0068   0.0145   0.0160   0.0055   0.0087   0.0044   1.00   10.7
2021/04/15 01:41:04.000    455571.3139   3639410.9677   5200658.7968   1   6   0.0086   0.0187   0.0180   0.0075   0.0104   0.0050   4.00   10.8
2021/04/15 01:41:06.000    455571.3137   3639410.9728   5200658.7982   1   6   0.0103   0.0230   0.0202   0.0096   0.0123   0.0055   6.00   10.8
2021/04/15 01:41:08.000    455571.3101   3639410.9779   5200658.8059   1   6   0.0124   0.0279   0.0230   0.0119   0.0148   0.0061   8.00   10.8
2021/04/15 01:41:10.000    455571.3105   3639410.9795   5200658.8062   1   6   0.0146   0.0332   0.0260   0.0144   0.0174   0.0067  10.00   10.8
2021/04/15 01:41:12.000    455571.3079   3639410.9824   5200658.8087   1   6   0.0169   0.0387   0.0293   0.0170   0.0202   0.0073  12.00   10.7
2021/04/15 01:41:15.000    455571.3064   3639410.9823   5200658.8161   1   6   0.0204   0.0471   0.0346   0.0209   0.0245   0.0083  15.00   10.7
2021/04/15 01:41:17.000    455571.3068   3639410.9809   5200658.8147   1   6   0.0228   0.0528   0.0382   0.0236   0.0275   0.0090  17.00   10.7
2021/04/15 01:41:19.000    455571.3078   3639410.9780   5200658.8154   1   6   0.0253   0.0586   0.0419   0.0262   0.0304   0.0097  19.00   10.8
2021/04/15 01:41:21.000    455571.3089   3639410.9841   5200658.8189   1   6   0.0277   0.0644   0.0457   0.0288   0.0334   0.0105  21.00   10.9
2021/04/15 01:41:24.000    455571.3066   3639410.9826   5200658.8219   1   6   0.0314   0.0731   0.0515   0.0328   0.0380   0.0116  24.00   10.9
2021/04/15 01:41:27.000    455571.3059   3639410.9802   5200658.8214   1   6   0.0351   0.0818   0.0573   0.0368   0.0425   0.0128  27.00   11.0
2021/04/15 01:41:29.000    455571.3068   3639410.9836   5200658.8207   1   6   0.0376   0.0876   0.0613   0.0394   0.0456   0.0136  29.00   11.0
2021/04/15 01:41:31.000    455571.3136   3639410.9572   5200658.7887   1   6   0.0068   0.0145   0.0160   0.0055   0.0087   0.0043   1.00   11.3
2021/04/15 01:41:33.000    455571.3133   3639410.9559   5200658.7880   1   6   0.0078   0.0168   0.0171   0.0065   0.0096   0.0047   3.00   11.7
2021/04/15 01:41:35.000    455571.3167   3639410.9478   5200658.7850   1   6   0.0094   0.0207   0.0190   0.0084   0.0113   0.0052   5.00   12.1
2021/04/15 01:41:38.000    455571.3209   3639410.9354   5200658.7785   1   6   0.0123   0.0278   0.0230   0.0118   0.0148   0.0061   8.00   12.7
2021/04/15 01:41:40.000    455571.3245   3639410.9290   5200658.7724   1   6   0.0145   0.0331   0.0261   0.0143   0.0175   0.0066  10.00   13.2
2021/04/15 01:41:42.000    455571.3271   3639410.9261   5200658.7714   1   6   0.0168   0.0386   0.0294   0.0168   0.0203   0.0073  12.00   13.6
2021/04/15 01:41:44.000    455571.3292   3639410.9197   5200658.7666   1   6   0.0191   0.0441   0.0329   0.0194   0.0232   0.0079  14.00   13.8
2021/04/15 01:41:47.000    455571.3306   3639410.9172   5200658.7746   1   6   0.0227   0.0526   0.0384   0.0233   0.0276   0.0089  17.00   14.0
2021/04/15 01:41:50.000    455571.3320   3639410.9117   5200658.7733   1   6   0.0264   0.0612   0.0441   0.0272   0.0321   0.0100  20.00   14.2
2021/04/15 01:41:52.000    455571.3332   3639410.9130   5200658.7753   1   6   0.0288   0.0670   0.0479   0.0298   0.0352   0.0108  22.00   14.4
2021/04/15 01:41:54.000    455571.3339   3639410.9087   5200658.7725   1   6   0.0313   0.0728   0.0518   0.0324   0.0382   0.0115  24.00   14.5
2021/04/15 01:41:56.000    455571.3360   3639410.9130   5200658.7725   1   6   0.0337   0.0786   0.0557   0.0350   0.0413   0.0123  26.00   14.6
2021/04/15 01:41:58.000    455571.3343   3639410.9114   5200658.7717   1   6   0.0362   0.0844   0.0597   0.0376   0.0443   0.0131  28.00   14.7
2021/04/15 01:42:01.000    455571.3128   3639410.9548   5200658.7904   1   6   0.0068   0.0145   0.0159   0.0053   0.0088   0.0044   1.00   15.0
2021/04/15 01:42:03.000    455571.3119   3639410.9556   5200658.7929   1   6   0.0078   0.0168   0.0171   0.0064   0.0097   0.0047   3.00   15.3
2021/04/15 01:42:05.000    455571.3101   3639410.9543   5200658.7931   1   6   0.0093   0.0206   0.0191   0.0083   0.0114   0.0052   5.00   15.6
2021/04/15 01:42:07.000    455571.3138   3639410.9553   5200658.7954   1   6   0.0112   0.0252   0.0216   0.0105   0.0137   0.0057   7.00   15.8
2021/04/15 01:42:10.000    455571.3132   3639410.9535   5200658.7962   1   6   0.0144   0.0330   0.0262   0.0141   0.0176   0.0066  10.00   16.0
2021/04/15 01:42:13.000    455571.3143   3639410.9542   5200658.8015   1   6   0.0179   0.0412   0.0313   0.0179   0.0219   0.0075  13.00   16.0
2021/04/15 01:42:15.000    455571.3144   3639410.9584   5200658.8046   1   6   0.0202   0.0468   0.0349   0.0204   0.0248   0.0082  15.00   16.1
2021/04/15 01:42:17.000    455571.3149   3639410.9620   5200658.8040   1   6   0.0226   0.0524   0.0386   0.0230   0.0278   0.0088  17.00   16.2
2021/04/15 01:42:19.000    455571.3117   3639410.9588   5200658.8052   1   6   0.0250   0.0582   0.0424   0.0256   0.0308   0.0096  19.00   16.3
2021/04/15 01:42:21.000    455571.3134   3639410.9645   5200658.8069   1   6   0.0275   0.0639   0.0462   0.0282   0.0338   0.0103  21.00   16.3
2021/04/15 01:42:24.000    455571.3117   3639410.9612   5200658.8118   1   6   0.0311   0.0725   0.0521   0.0320   0.0384   0.0114  24.00   16.4
2021/04/15 01:42:26.000    455571.3123   3639410.9626   5200658.8118   1   6   0.0336   0.0783   0.0560   0.0346   0.0415   0.0122  26.00   16.4
2021/04/15 01:42:30.000    455571.3119   3639410.9549   5200658.7918   1   6   0.0066   0.0141   0.0157   0.0052   0.0087   0.0041   0.00   16.4
2021/04/15 01:42:33.000    455571.3117   3639410.9592   5200658.7939   1   6   0.0077   0.0167   0.0170   0.0064   0.0097   0.0046   3.00   16.3
2021/04/15 01:42:36.000    455571.3116   3639410.9594   5200658.7994   1   6   0.0102   0.0228   0.0203   0.0093   0.0126   0.0054   6.00   16.2
2021/04/15 01:42:38.000    455571.3114   3639410.9609   5200658.7959   1   6   0.0122   0.0277   0.0231   0.0115   0.0150   0.0059   8.00   16.2
2021/04/15 01:42:41.000    455571.3108   3639410.9653   5200658.8021   1   6   0.0155   0.0356   0.0279   0.0152   0.0191   0.0068  11.00   16.1
2021/04/15 01:42:43.000    455571.3096   3639410.9688   5200658.8084   1   6   0.0178   0.0410   0.0314   0.0177   0.0220   0.0074  13.00   16.1
2021/04/15 01:42:49.000    455571.3074   3639410.9722   5200658.8171   1   6   0.0249   0.0579   0.0426   0.0253   0.0310   0.0095  19.00   16.0
2021/04/15 01:42:52.000    455571.3085   3639410.9732   5200658.8199   1   6   0.0285   0.0665   0.0484   0.0291   0.0356   0.0106  22.00   16.0
2021/04/15 01:42:54.000    455571.3098   3639410.9763   5200658.8246   1   6   0.0310   0.0723   0.0524   0.0317   0.0387   0.0113  24.00   15.9
2021/04/15 01:42:56.000    455571.3069   3639410.9734   5200658.8252   1   6   0.0334   0.0780   0.0564   0.0342   0.0418   0.0120  26.00   15.9
2021/04/15 01:42:58.000    455571.3078   3639410.9763   5200658.8283   1   6   0.0359   0.0838   0.0604   0.0368   0.0449   0.0128  28.00   15.9
2021/04/15 01:43:09.000    455571.3184   3639410.9368   5200658.7612   1   6   0.0132   0.0301   0.0247   0.0126   0.0164   0.0061   9.00   16.1
2021/04/15 01:43:11.000    455571.3216   3639410.9335   5200658.7638   1   6   0.0154   0.0354   0.0280   0.0150   0.0192   0.0067  11.00   16.1
2021/04/15 01:43:13.000    455571.3235   3639410.9315   5200658.7630   1   6   0.0177   0.0409   0.0316   0.0175   0.0221   0.0073  13.00   16.2
2021/04/15 01:43:16.000    455571.3246   3639410.9277   5200658.7649   1   6   0.0212   0.0493   0.0371   0.0212   0.0266   0.0083  16.00   16.2
2021/04/15 01:43:18.000    455571.3251   3639410.9276   5200658.7621   1   6   0.0236   0.0549   0.0409   0.0237   0.0296   0.0090  18.00   16.2
2021/04/15 01:43:22.000    455571.3251   3639410.9288   5200658.7642   1   6   0.0284   0.0663   0.0487   0.0288   0.0358   0.0104  22.00   16.2
2021/04/15 01:43:24.000    455571.3247   3639410.9295   5200658.7660   1   6   0.0308   0.0720   0.0527   0.0313   0.0389   0.0112  24.00   16.2
2021/04/15 01:43:27.000    455571.3249   3639410.9331   5200658.7684   1   6   0.0345   0.0806   0.0587   0.0351   0.0436   0.0123  27.00   16.2
2021/04/15 01:43:29.000    455571.3208   3639410.9296   5200658.7695   1   6   0.0369   0.0864   0.0628   0.0376   0.0467   0.0130  29.00   16.1
2021/04/15 01:43:33.000    455571.3107   3639410.9575   5200658.7881   1   6   0.0076   0.0166   0.0170   0.0063   0.0098   0.0045   3.00   15.9
2021/04/15 01:43:35.000    455571.3112   3639410.9612   5200658.7931   1   6   0.0092   0.0204   0.0191   0.0080   0.0116   0.0050   5.00   15.6
2021/04/15 01:43:38.000    455571.3095   3639410.9640   5200658.7938   1   6   0.0121   0.0275   0.0232   0.0113   0.0152   0.0058   8.00   15.4
2021/04/15 01:43:40.000    455571.3060   3639410.9628   5200658.7926   1   6   0.0143   0.0326   0.0264   0.0136   0.0179   0.0064  10.00   15.2
2021/04/15 01:43:43.000    455571.3058   3639410.9652   5200658.7936   1   6   0.0176   0.0407   0.0317   0.0173   0.0223   0.0073  13.00   15.1
2021/04/15 01:43:46.000    455571.3046   3639410.9645   5200658.7987   1   6   0.0211   0.0491   0.0373   0.0210   0.0268   0.0082  16.00   15.0
2021/04/15 01:43:48.000    455571.3035   3639410.9702   5200658.8031   1   6   0.0235   0.0547   0.0411   0.0234   0.0298   0.0089  18.00   14.9
2021/04/15 01:43:50.000    455571.3015   3639410.9713   5200658.8043   1   6   0.0259   0.0604   0.0450   0.0259   0.0329   0.0096  20.00   14.8
2021/04/15 01:43:54.000    455571.2993   3639410.9792   5200658.8148   1   6   0.0307   0.0718   0.0530   0.0309   0.0391   0.0111  24.00   14.7
2021/04/15 01:43:56.000    455571.2974   3639410.9819   5200658.8133   1   6   0.0331   0.0775   0.0570   0.0334   0.0423   0.0118  26.00   14.7
2021/04/15 01:43:58.000    455571.2966   3639410.9890   5200658.8226   1   6   0.0356   0.0832   0.0611   0.0359   0.0454   0.0125  28.00   14.6
2021/04/15 01:44:00.000    455571.3121   3639410.9568   5200658.7889   1   6   0.0065   0.0140   0.0156   0.0050   0.0087   0.0042   0.00   14.6
2021/04/15 01:44:04.000    455571.3133   3639410.9626   5200658.7948   1   6   0.0083   0.0183   0.0180   0.0070   0.0107   0.0047   4.00   14.6
2021/04/15 01:44:08.000    455571.3075   3639410.9697   5200658.7994   1   6   0.0121   0.0274   0.0233   0.0111   0.0153   0.0057   8.00   14.5
2021/04/15 01:44:10.000    455571.3059   3639410.9700   5200658.8051   1   6   0.0142   0.0325   0.0265   0.0134   0.0180   0.0063  10.00   14.4
2021/04/15 01:44:14.000    455571.3058   3639410.9731   5200658.8117   1   6   0.0187   0.0434   0.0337   0.0183   0.0239   0.0075  14.00   14.3
2021/04/15 01:44:15.000    455571.3061   3639410.9755   5200658.8126   1   6   0.0199   0.0461   0.0356   0.0195   0.0254   0.0078  15.00   14.3
2021/04/15 01:44:19.000    455571.3102   3639410.9682   5200658.8056   1   6   0.0246   0.0573   0.0433   0.0244   0.0316   0.0092  19.00   14.2
2021/04/15 01:44:23.000    455571.3147   3639410.9555   5200658.7983   1   6   0.0294   0.0687   0.0513   0.0293   0.0378   0.0106  23.00   14.2
2021/04/15 01:44:25.000    455571.3164   3639410.9479   5200658.7954   1   6   0.0318   0.0744   0.0553   0.0318   0.0410   0.0113  25.00   14.2
2021/04/15 01:44:26.000    455571.3184   3639410.9494   5200658.7930   1   6   0.0330   0.0772   0.0574   0.0330   0.0425   0.0117  26.00   14.2
2021/04/15 01:44:32.000    455571.3129   3639410.9552   5200658.7919   1   6   0.0071   0.0152   0.0163   0.0055   0.0093   0.0042   2.00   14.2
2021/04/15 01:44:34.000    455571.3146   3639410.9538   5200658.7909   1   6   0.0083   0.0183   0.0180   0.0069   0.0107   0.0047   4.00   14.2
2021/04/15 01:44:36.000    455571.3141   3639410.9545   5200658.7903   1   6   0.0100   0.0225   0.0204   0.0088   0.0128   0.0052   6.00   14.2
2021/04/15 01:44:37.000    455571.3159   3639410.9516   5200658.7933   1   6   0.0110   0.0248   0.0218   0.0099   0.0141   0.0054   7.00   14.2
2021/04/15 01:44:38.000    455571.3137   3639410.9499   5200658.7908   1   6   0.0120   0.0273   0.0233   0.0110   0.0154   0.0057   8.00   14.2
2021/04/15 01:44:41.000    455571.3168   3639410.9495   5200658.7913   1   6   0.0152   0.0351   0.0284   0.0145   0.0196   0.0065  11.00   14.3
2021/04/15 01:44:43.000    455571.3156   3639410.9508   5200658.7922   1   6   0.0175   0.0405   0.0320   0.0168   0.0225   0.0071  13.00   14.3
2021/04/15 01:44:45.000    455571.3164   3639410.9566   5200658.7957   1   6   0.0198   0.0460   0.0357   0.0192   0.0256   0.0077  15.00   14.3
2021/04/15 01:44:47.000    455571.3139   3639410.9584   5200658.8000   1   6   0.0221   0.0515   0.0396   0.0217   0.0286   0.0084  17.00   14.3
2021/04/15 01:44:55.000    455571.3092   3639410.9703   5200658.8152   1   6   0.0317   0.0741   0.0557   0.0314   0.0412   0.0112  25.00   14.4
2021/04/15 01:44:57.000    455571.3088   3639410.9786   5200658.8200   1   6   0.0341   0.0798   0.0598   0.0338   0.0444   0.0119  27.00   14.4
2021/04/15 01:44:59.000    455571.3112   3639410.9719   5200658.8147   1   6   0.0365   0.0855   0.0639   0.0362   0.0476   0.0126  29.00   14.5
2021/04/15 01:45:00.000    455571.3131   3639410.9569   5200658.7935   1   6   0.0065   0.0139   0.0156   0.0049   0.0088   0.0041   0.00   14.4
2021/04/15 01:45:01.000    455571.3124   3639410.9563   5200658.7897   1   6   0.0066   0.0142   0.0158   0.0050   0.0090   0.0040   1.00   14.5
2021/04/15 01:45:04.000    455571.3137   3639410.9519   5200658.7852   1   6   0.0083   0.0182   0.0180   0.0068   0.0108   0.0046   4.00   14.7
2021/04/15 01:45:06.000    455571.3160   3639410.9530   5200658.7875   1   6   0.0100   0.0224   0.0204   0.0087   0.0129   0.0051   6.00   15.0
2021/04/15 01:45:08.000    455571.3143   3639410.9499   5200658.7864   1   6   0.0120   0.0272   0.0234   0.0109   0.0155   0.0056   8.00   15.2
2021/04/15 01:45:10.000    455571.3156   3639410.9508   5200658.7885   1   6   0.0141   0.0323   0.0267   0.0131   0.0183   0.0061  10.00   15.3
2021/04/15 01:45:12.000    455571.3169   3639410.9544   5200658.7922   1   6   0.0163   0.0376   0.0303   0.0155   0.0212   0.0067  12.00   15.4
2021/04/15 01:45:15.000    455571.3190   3639410.9531   5200658.7917   1   6   0.0197   0.0458   0.0359   0.0190   0.0257   0.0076  15.00   15.5
2021/04/15 01:45:17.000    455571.3186   3639410.9542   5200658.7941   1   6   0.0221   0.0514   0.0398   0.0214   0.0288   0.0083  17.00   15.6
2021/04/15 01:45:19.000    455571.3184   3639410.9517   5200658.7959   1   6   0.0244   0.0569   0.0438   0.0238   0.0320   0.0089  19.00   15.7
2021/04/15 01:45:24.000    455571.3175   3639410.9551   5200658.8028   1   6   0.0303   0.0710   0.0540   0.0298   0.0399   0.0107  24.00   15.7
2021/04/15 01:45:27.000    455571.3172   3639410.9551   5200658.8047   1   6   0.0339   0.0795   0.0602   0.0334   0.0447   0.0117  27.00   15.8
2021/04/15 01:45:31.000    455571.3115   3639410.9564   5200658.7893   1   6   0.0066   0.0142   0.0157   0.0049   0.0090   0.0041   1.00   15.6
2021/04/15 01:45:33.000    455571.3102   3639410.9565   5200658.7872   1   6   0.0075   0.0165   0.0170   0.0059   0.0100   0.0043   3.00   15.4
2021/04/15 01:45:35.000    455571.3100   3639410.9548   5200658.7869   1   6   0.0090   0.0202   0.0191   0.0076   0.0118   0.0048   5.00   15.1
2021/04/15 01:45:38.000    455571.3099   3639410.9530   5200658.7885   1   6   0.0119   0.0271   0.0235   0.0107   0.0156   0.0055   8.00   14.8
2021/04/15 01:45:40.000    455571.3099   3639410.9603   5200658.7917   1   6   0.0140   0.0322   0.0268   0.0130   0.0184   0.0061  10.00   14.6
2021/04/15 01:45:42.000    455571.3074   3639410.9555   5200658.7933   1   6   0.0162   0.0375   0.0304   0.0153   0.0213   0.0066  12.00   14.4
2021/04/15 01:45:45.000    455571.3074   3639410.9633   5200658.7998   1   6   0.0196   0.0457   0.0361   0.0188   0.0259   0.0075  15.00   14.3
2021/04/15 01:45:47.000    455571.3063   3639410.9651   5200658.7981   1   6   0.0220   0.0512   0.0401   0.0211   0.0290   0.0082  17.00   14.1
2021/04/15 01:45:52.000    455571.3002   3639410.9739   5200658.8012   1   6   0.0278   0.0652   0.0502   0.0270   0.0369   0.0098  22.00   14.1
2021/04/15 01:45:54.000    455571.2979   3639410.9777   5200658.8082   1   6   0.0302   0.0708   0.0543   0.0294   0.0401   0.0105  24.00   14.0
2021/04/15 01:45:56.000    455571.2984   3639410.9846   5200658.8098   1   6   0.0326   0.0764   0.0585   0.0318   0.0433   0.0112  26.00   13.9
2021/04/15 01:45:58.000    455571.2940   3639410.9866   5200658.8177   1   6   0.0350   0.0821   0.0627   0.0341   0.0466   0.0119  28.00   13.8
2021/04/15 01:46:01.000    455571.3110   3639410.9607   5200658.7999   1   6   0.0066   0.0142   0.0157   0.0049   0.0090   0.0040   1.00   13.6
2021/04/15 01:46:03.000    455571.3096   3639410.9608   5200658.7966   1   6   0.0075   0.0164   0.0170   0.0058   0.0100   0.0043   3.00   13.5
2021/04/15 01:46:08.000    455571.3061   3639410.9688   5200658.8087   1   6   0.0119   0.0270   0.0236   0.0106   0.0157   0.0055   8.00   13.5
2021/04/15 01:46:10.000    455571.3036   3639410.9724   5200658.8113   1   6   0.0140   0.0321   0.0270   0.0128   0.0185   0.0060  10.00   13.4
2021/04/15 01:46:15.000    455571.2982   3639410.9834   5200658.8180   1   6   0.0196   0.0455   0.0363   0.0185   0.0261   0.0074  15.00   13.4
2021/04/15 01:46:17.000    455571.2968   3639410.9837   5200658.8211   1   6   0.0219   0.0510   0.0403   0.0208   0.0292   0.0081  17.00   13.4
2021/04/15 01:46:19.000    455571.2960   3639410.9887   5200658.8255   1   6   0.0242   0.0566   0.0443   0.0232   0.0324   0.0087  19.00   13.4
2021/04/15 01:46:21.000    455571.2956   3639410.9901   5200658.8266   1   6   0.0266   0.0622   0.0484   0.0255   0.0356   0.0094  21.00   13.3
2021/04/15 01:46:24.000    455571.2949   3639410.9943   5200658.8296   1   6   0.0301   0.0706   0.0547   0.0290   0.0404   0.0104  24.00   13.3
