% program   : rnx2rtkp ver.2.4.3 b33
% inp file  : /home/danisimo/post/R1_193.2020-111.2021/R00107518.21o
% inp file  : /home/danisimo/post/NSK1_193.2020-111.2021/NSK10750.21o
% inp file  : /home/danisimo/post/NSK1_193.2020-111.2021/NSK10750.21N
% obs start : 2021/03/16 01:42:27.5 GPST (week2149 178947.5s)
% obs end   : 2021/03/16 11:52:08.0 GPST (week2149 215528.0s)
% ref pos   :   447670.3040   3638117.3850   5202281.5640
%
% (x/y/z-ecef=WGS84,Q=1:fix,2:float,3:sbas,4:dgps,5:single,6:ppp,ns=# of satellites)
%  GPST                      x-ecef(m)      y-ecef(m)      z-ecef(m)   Q  ns   sdx(m)   sdy(m)   sdz(m)  sdxy(m)  sdyz(m)  sdzx(m) age(s)  ratio
2021/03/16 01:42:27.498    455571.4728   3639408.9335   5200656.8456   2   7   0.6170   1.4707   1.7024   0.2656   1.4079   0.2925  27.50    0.0
2021/03/16 01:42:27.998    455571.4666   3639409.4288   5200657.6311   2   7   0.4395   1.0534   1.2166   0.1970   1.0081   0.2147  28.00    0.0
2021/03/16 01:42:28.498    455571.4323   3639409.4558   5200657.6626   2   7   0.3601   0.8643   0.9976   0.1629   0.8271   0.1770  28.50    0.0
2021/03/16 01:42:28.998    455571.4299   3639409.4994   5200657.6810   2   7   0.3127   0.7507   0.8662   0.1415   0.7184   0.1538  29.00    0.0
2021/03/16 01:42:29.498    455571.4357   3639409.5777   5200657.7436   2   7   0.2804   0.6729   0.7764   0.1266   0.6439   0.1376  29.50    0.0
2021/03/16 01:42:29.998    455571.4080   3639410.0018   5200658.1170   2   7   0.2546   0.6133   0.7071   0.1178   0.5868   0.1274   0.00    0.0
2021/03/16 01:42:33.498    455571.4229   3639410.3271   5200658.3396   2   7   0.2357   0.5679   0.6545   0.1090   0.5432   0.1182   3.50    0.0
2021/03/16 01:42:40.498    455571.4477   3639410.6625   5200658.6648   2   7   0.2207   0.5309   0.6119   0.1013   0.5077   0.1102  10.50    0.0
2021/03/16 01:42:42.498    455571.4356   3639413.2655   5200661.4383   2   7   0.6163   1.4744   1.7051   0.2671   1.4120   0.2942  12.50    1.2
2021/03/16 01:42:45.498    455571.5922   3639413.2854   5200661.2131   2   7   0.4384   1.0557   1.2179   0.1985   1.0106   0.2164  15.50    1.2
2021/03/16 01:42:46.998    455571.6788   3639413.1916   5200660.9154   2   7   0.3589   0.8660   0.9981   0.1645   0.8289   0.1788  17.00    1.4
2021/03/16 01:42:52.000    455571.7279   3639413.1811   5200660.8845   2   7   0.3116   0.7520   0.8666   0.1426   0.7197   0.1553  22.00    1.6
2021/03/16 01:42:55.000    455571.7489   3639413.0483   5200660.6909   2   7   0.2795   0.6740   0.7766   0.1273   0.6451   0.1388  25.00    1.5
2021/03/16 01:42:57.000    455571.7534   3639413.0040   5200660.6086   2   7   0.2558   0.6164   0.7102   0.1158   0.5899   0.1265  27.00    1.4
2021/03/16 01:42:58.000    455571.7778   3639412.9599   5200660.5509   2   7   0.2374   0.5716   0.6585   0.1069   0.5470   0.1168  28.00    1.2
2021/03/16 01:43:01.000    455571.8367   3639412.8363   5200660.3459   2   7   0.2203   0.5305   0.6086   0.1021   0.5060   0.1110   1.00    2.0
2021/03/16 01:43:04.000    455571.8842   3639412.7780   5200660.2299   2   7   0.2078   0.4997   0.5729   0.0962   0.4763   0.1046   4.00    2.0
2021/03/16 01:43:07.000    455571.9033   3639412.7307   5200660.1415   2   7   0.1972   0.4740   0.5433   0.0910   0.4516   0.0992   7.00    1.8
2021/03/16 01:43:09.000    455571.9277   3639412.6667   5200660.0865   2   7   0.1882   0.4520   0.5180   0.0867   0.4306   0.0945   9.00    1.8
2021/03/16 01:43:13.000    455571.9445   3639412.6094   5200660.0176   2   7   0.1805   0.4330   0.4964   0.0824   0.4125   0.0901  13.00    1.7
2021/03/16 01:43:16.000    455571.9225   3639412.5433   5200659.9126   2   7   0.1738   0.4165   0.4775   0.0786   0.3967   0.0862  16.00    1.6
2021/03/16 01:43:19.000    455571.9144   3639412.5345   5200659.9110   2   7   0.1680   0.4018   0.4608   0.0750   0.3828   0.0826  19.00    1.7
2021/03/16 01:43:21.000    455571.9325   3639412.5106   5200659.9446   2   7   0.1628   0.3887   0.4458   0.0719   0.3702   0.0793  21.00    1.9
2021/03/16 01:43:22.000    455571.9348   3639412.4935   5200659.9802   2   7   0.1580   0.3768   0.4321   0.0692   0.3588   0.0765  22.00    2.1
2021/03/16 01:43:28.000    455571.9247   3639412.4872   5200660.0230   2   7   0.1547   0.3671   0.4216   0.0648   0.3498   0.0726  28.00    2.5
2021/03/16 01:43:30.000    455571.7326   3639411.8792   5200659.8758   1   7   0.0060   0.0153   0.0176   0.0030   0.0147   0.0032   0.00    3.2
2021/03/16 01:43:35.000    455571.7263   3639411.8816   5200659.8897   1   7   0.0089   0.0185   0.0219  -0.0033   0.0177  -0.0030   5.00    3.5
2021/03/16 01:43:36.000    455571.7258   3639411.8817   5200659.8924   1   7   0.0098   0.0197   0.0235  -0.0045   0.0188  -0.0042   6.00    3.9
2021/03/16 01:43:39.000    455571.7239   3639411.8825   5200659.9049   1   7   0.0129   0.0238   0.0291  -0.0078   0.0228  -0.0073   9.00    4.3
2021/03/16 01:43:42.000    455571.7210   3639411.8841   5200659.9094   1   7   0.0162   0.0284   0.0354  -0.0109   0.0274  -0.0101  12.00    4.4
2021/03/16 01:43:45.000    455571.7252   3639411.9062   5200659.9263   1   6   0.0243   0.0774   0.0640   0.0283   0.0664   0.0228  15.00    3.6
2021/03/16 01:43:47.000    455571.7254   3639411.9223   5200659.9443   1   6   0.0273   0.0865   0.0711   0.0316   0.0741   0.0253  17.00    3.8
2021/03/16 01:43:50.000    455571.7283   3639411.9312   5200659.9530   1   6   0.0317   0.1004   0.0821   0.0366   0.0857   0.0292  20.00    3.7
2021/03/16 01:43:53.000    455571.7304   3639411.9466   5200659.9688   1   6   0.0362   0.1144   0.0933   0.0417   0.0975   0.0331  23.00    3.6
2021/03/16 01:43:54.000    455571.7320   3639411.9435   5200659.9669   1   6   0.0377   0.1192   0.0971   0.0434   0.1015   0.0344  24.00    3.5
2021/03/16 01:43:56.000    455571.7333   3639411.9501   5200659.9734   1   6   0.0407   0.1286   0.1046   0.0467   0.1095   0.0370  26.00    3.4
2021/03/16 01:43:59.000    455571.7334   3639411.9574   5200659.9782   1   6   0.0452   0.1429   0.1161   0.0519   0.1216   0.0410  29.00    3.2
2021/03/16 01:44:02.000    455571.7319   3639411.9070   5200659.8989   1   6   0.0081   0.0288   0.0269   0.0107   0.0265   0.0098   2.00    4.6
2021/03/16 01:44:04.000    455571.7326   3639411.9060   5200659.8984   1   6   0.0097   0.0336   0.0304   0.0124   0.0304   0.0111   4.00    4.5
2021/03/16 01:44:07.000    455571.7321   3639411.9056   5200659.8985   1   6   0.0132   0.0438   0.0381   0.0161   0.0387   0.0137   7.00    4.5
2021/03/16 01:44:09.000    455571.7326   3639411.9052   5200659.9008   1   6   0.0158   0.0518   0.0442   0.0189   0.0453   0.0158   9.00    4.0
2021/03/16 01:44:12.000    455571.7352   3639411.9273   5200659.9224   1   6   0.0199   0.0646   0.0542   0.0235   0.0560   0.0193  12.00    3.6
2021/03/16 01:44:15.000    455571.7361   3639411.9376   5200659.9356   1   6   0.0243   0.0781   0.0647   0.0283   0.0672   0.0229  15.00    3.5
2021/03/16 01:44:17.000    455571.7360   3639411.9435   5200659.9457   1   6   0.0272   0.0873   0.0720   0.0316   0.0749   0.0255  17.00    3.3
2021/03/16 01:44:20.000    455571.7342   3639411.9472   5200659.9511   1   6   0.0316   0.1013   0.0832   0.0366   0.0867   0.0293  20.00    3.2
2021/03/16 01:44:22.000    455571.6082   3639412.4314   5200660.1198   2   6   0.1095   0.2850   0.2839   0.0817   0.2556   0.0759  22.00    3.0
2021/03/16 01:44:28.000    455571.5927   3639412.4442   5200660.1354   2   6   0.1114   0.2960   0.2904   0.0873   0.2646   0.0798  28.00    2.8
2021/03/16 01:44:30.000    455571.5777   3639412.3085   5200659.9821   2   6   0.1017   0.2521   0.2527   0.0688   0.2238   0.0651   0.00    2.7
2021/03/16 01:44:33.000    455571.5621   3639412.2323   5200659.9051   2   6   0.1006   0.2461   0.2432   0.0674   0.2159   0.0631   3.00    2.5
2021/03/16 01:44:35.000    455571.5481   3639412.1771   5200659.8432   2   6   0.0996   0.2427   0.2377   0.0670   0.2116   0.0623   5.00    2.3
2021/03/16 01:44:38.000    455571.5360   3639412.1351   5200659.7813   2   6   0.0990   0.2421   0.2354   0.0676   0.2105   0.0624   8.00    2.0
2021/03/16 01:44:41.000    455571.5319   3639412.1000   5200659.7339   2   6   0.0986   0.2430   0.2348   0.0688   0.2110   0.0630  11.00    1.9
2021/03/16 01:44:43.000    455571.5245   3639412.0689   5200659.7001   2   6   0.0982   0.2437   0.2343   0.0698   0.2114   0.0636  13.00    1.8
2021/03/16 01:44:46.000    455571.5253   3639412.0793   5200659.6945   2   6   0.0983   0.2466   0.2356   0.0717   0.2139   0.0649  16.00    1.7
2021/03/16 01:44:48.000    455571.5268   3639412.0686   5200659.6766   2   6   0.0982   0.2486   0.2363   0.0731   0.2156   0.0658  18.00    1.7
2021/03/16 01:44:51.000    455571.5362   3639412.0659   5200659.6668   2   6   0.0987   0.2531   0.2389   0.0755   0.2195   0.0675  21.00    1.7
2021/03/16 01:44:56.000    455571.5380   3639412.0577   5200659.6337   2   6   0.1005   0.2632   0.2457   0.0801   0.2282   0.0708  26.00    1.6
2021/03/16 01:44:59.000    455571.5401   3639412.0635   5200659.6141   2   6   0.1016   0.2698   0.2501   0.0831   0.2339   0.0731  29.00    1.5
2021/03/16 01:45:01.000    455571.5070   3639412.0076   5200659.5473   2   6   0.0907   0.2198   0.2082   0.0625   0.1875   0.0566   1.00    1.2
2021/03/16 01:45:04.000    455571.5075   3639411.9768   5200659.4834   2   6   0.0900   0.2157   0.2016   0.0615   0.1820   0.0551   4.00    1.0
2021/03/16 01:45:05.000    455571.5085   3639411.9540   5200659.4296   2   6   0.0893   0.2124   0.1968   0.0608   0.1779   0.0540   5.00    1.0
2021/03/16 01:45:07.000    455571.5097   3639411.9412   5200659.3904   2   6   0.0888   0.2113   0.1944   0.0608   0.1764   0.0537   7.00    1.0
2021/03/16 01:45:10.000    455571.5082   3639411.9421   5200659.3551   2   6   0.0887   0.2126   0.1945   0.0618   0.1773   0.0543  10.00    1.0
2021/03/16 01:45:12.000    455571.5032   3639411.9351   5200659.3173   2   6   0.0885   0.2137   0.1947   0.0627   0.1782   0.0549  12.00    1.0
2021/03/16 01:45:15.000    455571.5013   3639411.9229   5200659.2859   2   6   0.0889   0.2172   0.1968   0.0645   0.1814   0.0562  15.00    1.0
2021/03/16 01:45:18.000    455571.5037   3639411.9153   5200659.2580   2   6   0.0895   0.2218   0.2000   0.0667   0.1856   0.0578  18.00    1.0
2021/03/16 01:45:20.000    455571.5000   3639411.9038   5200659.2314   2   6   0.0898   0.2251   0.2022   0.0684   0.1886   0.0590  20.00    1.0
2021/03/16 01:45:23.000    455571.4982   3639411.9192   5200659.2187   2   6   0.0908   0.2313   0.2066   0.0711   0.1943   0.0611  23.00    1.0
2021/03/16 01:45:25.000    455571.4910   3639411.9042   5200659.1918   2   6   0.0914   0.2356   0.2097   0.0731   0.1982   0.0626  25.00    1.0
2021/03/16 01:45:28.000    455571.4872   3639411.8916   5200659.1741   2   6   0.0928   0.2431   0.2153   0.0763   0.2050   0.0650  28.00    1.0
2021/03/16 01:45:31.000    455571.4411   3639411.8050   5200659.1351   2   6   0.0818   0.1919   0.1723   0.0554   0.1569   0.0481   1.00    1.2
2021/03/16 01:45:33.000    455571.4359   3639411.7909   5200659.1139   2   6   0.0812   0.1877   0.1660   0.0542   0.1514   0.0464   3.00    1.3
2021/03/16 01:45:36.000    455571.4280   3639411.7746   5200659.0876   2   6   0.0810   0.1871   0.1641   0.0543   0.1502   0.0462   6.00    1.3
2021/03/16 01:45:38.000    455571.4237   3639411.7606   5200659.0645   2   6   0.0808   0.1872   0.1633   0.0547   0.1500   0.0463   8.00    1.2
2021/03/16 01:45:41.000    455571.4221   3639411.7505   5200659.0570   2   6   0.0810   0.1898   0.1648   0.0560   0.1524   0.0473  11.00    1.2
2021/03/16 01:45:44.000    455571.4131   3639411.7460   5200659.0460   2   6   0.0815   0.1937   0.1676   0.0578   0.1561   0.0487  14.00    1.2
2021/03/16 01:45:46.000    455571.4059   3639411.7508   5200659.0438   2   6   0.0818   0.1967   0.1698   0.0592   0.1590   0.0498  16.00    1.2
2021/03/16 01:45:49.000    455571.3970   3639411.7169   5200659.0155   2   6   0.0828   0.2026   0.1743   0.0618   0.1645   0.0518  19.00    1.2
2021/03/16 01:45:51.000    455571.3963   3639411.7001   5200659.0050   2   6   0.0834   0.2068   0.1776   0.0636   0.1686   0.0532  21.00    1.2
2021/03/16 01:45:54.000    455571.3901   3639411.6875   5200658.9914   2   6   0.0847   0.2143   0.1835   0.0667   0.1756   0.0557  24.00    1.2
2021/03/16 01:45:57.000    455571.3877   3639411.6847   5200658.9942   2   6   0.0863   0.2226   0.1900   0.0700   0.1833   0.0583  27.00    1.1
2021/03/16 01:45:59.000    455571.3847   3639411.6750   5200658.9885   2   6   0.0873   0.2284   0.1946   0.0723   0.1887   0.0602  29.00    1.1
2021/03/16 01:46:02.000    455571.3793   3639411.6637   5200658.9719   2   6   0.0751   0.1706   0.1460   0.0493   0.1340   0.0412   2.00    1.3
2021/03/16 01:46:04.000    455571.3777   3639411.6577   5200658.9651   2   6   0.0747   0.1681   0.1420   0.0486   0.1305   0.0402   4.00    1.3
2021/03/16 01:46:07.000    455571.3782   3639411.6433   5200658.9551   2   6   0.0747   0.1689   0.1417   0.0491   0.1309   0.0405   7.00    1.3
2021/03/16 01:46:10.000    455571.3779   3639411.6354   5200658.9502   2   6   0.0750   0.1715   0.1434   0.0504   0.1334   0.0415  10.00    1.3
2021/03/16 01:46:12.000    455571.3776   3639411.6234   5200658.9500   2   6   0.0753   0.1738   0.1449   0.0515   0.1356   0.0423  12.00    1.3
2021/03/16 01:46:15.000    455571.3779   3639411.6209   5200658.9529   2   6   0.0760   0.1789   0.1490   0.0537   0.1406   0.0441  15.00    1.3
2021/03/16 01:46:17.000    455571.3787   3639411.6078   5200658.9488   2   6   0.0766   0.1827   0.1521   0.0553   0.1444   0.0454  17.00    1.3
2021/03/16 01:46:20.000    455571.3770   3639411.6013   5200658.9459   2   6   0.0778   0.1898   0.1579   0.0582   0.1512   0.0477  20.00    1.3
2021/03/16 01:46:23.000    455571.3700   3639411.5951   5200658.9475   2   6   0.0793   0.1978   0.1645   0.0614   0.1589   0.0503  23.00    1.3
2021/03/16 01:46:25.000    455571.3702   3639411.5816   5200658.9416   2   6   0.0802   0.2035   0.1691   0.0636   0.1644   0.0522  25.00    1.3
2021/03/16 01:46:28.000    455571.3665   3639411.5727   5200658.9465   2   6   0.0821   0.2129   0.1769   0.0672   0.1732   0.0552  28.00    1.3
2021/03/16 01:46:30.000    455571.3655   3639411.5394   5200658.8989   2   7   0.0699   0.1525   0.1249   0.0435   0.1146   0.0350   0.00    1.5
2021/03/16 01:46:33.000    455571.3644   3639411.5492   5200658.9213   2   7   0.0696   0.1480   0.1196   0.0421   0.1092   0.0334   3.00    1.7
2021/03/16 01:46:36.000    455571.3602   3639411.5469   5200658.9257   2   7   0.0696   0.1459   0.1176   0.0418   0.1070   0.0329   6.00    1.8
2021/03/16 01:46:38.000    455571.3534   3639411.5483   5200658.9295   2   7   0.0696   0.1443   0.1166   0.0416   0.1055   0.0327   8.00    1.8
2021/03/16 01:46:41.000    455571.3502   3639411.5468   5200658.9342   2   7   0.0700   0.1434   0.1169   0.0419   0.1052   0.0329  11.00    1.8
2021/03/16 01:46:43.000    455571.3464   3639411.5460   5200658.9410   2   7   0.0704   0.1426   0.1173   0.0422   0.1049   0.0330  13.00    1.8
2021/03/16 01:46:46.000    455571.3448   3639411.5462   5200658.9488   2   7   0.0713   0.1424   0.1188   0.0429   0.1053   0.0335  16.00    1.8
2021/03/16 01:46:49.000    455571.3408   3639411.5485   5200658.9645   2   7   0.0724   0.1424   0.1209   0.0438   0.1062   0.0342  19.00    1.8
2021/03/16 01:46:51.000    455571.3412   3639411.5538   5200658.9784   2   7   0.0732   0.1423   0.1224   0.0444   0.1067   0.0347  21.00    1.8
2021/03/16 01:46:54.000    455571.3412   3639411.5555   5200658.9849   2   7   0.0748   0.1427   0.1253   0.0455   0.1081   0.0355  24.00    1.8
2021/03/16 01:46:56.000    455571.3383   3639411.5596   5200658.9896   2   7   0.0758   0.1429   0.1273   0.0464   0.1090   0.0362  26.00    1.8
2021/03/16 01:46:59.000    455571.3342   3639411.5617   5200658.9936   2   7   0.0777   0.1437   0.1308   0.0477   0.1108   0.0372  29.00    1.8
2021/03/16 01:47:02.000    455571.3257   3639411.5473   5200658.9256   2   7   0.0654   0.1309   0.1047   0.0379   0.0937   0.0294   2.00    1.9
2021/03/16 01:47:04.000    455571.3282   3639411.5485   5200658.9178   2   7   0.0652   0.1286   0.1019   0.0373   0.0909   0.0286   4.00    2.0
2021/03/16 01:47:11.000    455571.3240   3639411.5294   5200658.9055   2   7   0.0665   0.1288   0.1041   0.0383   0.0918   0.0295  11.00    2.0
2021/03/16 01:47:17.000    455571.3242   3639411.5310   5200658.9021   2   7   0.0687   0.1298   0.1084   0.0400   0.0939   0.0308  17.00    2.0
2021/03/16 01:47:18.000    455571.3254   3639411.5391   5200658.9088   2   7   0.0690   0.1294   0.1089   0.0402   0.0940   0.0310  18.00    2.0
2021/03/16 01:47:21.000    455571.3227   3639411.5439   5200658.9123   2   7   0.0704   0.1299   0.1117   0.0413   0.0954   0.0319  21.00    1.9
2021/03/16 01:47:25.000    455571.3177   3639411.5499   5200658.9148   2   7   0.0727   0.1313   0.1163   0.0431   0.0979   0.0332  25.00    1.9
2021/03/16 01:47:28.000    455571.3197   3639411.5501   5200658.9075   2   7   0.0747   0.1324   0.1201   0.0445   0.1000   0.0344  28.00    1.9
2021/03/16 01:47:31.000    455571.3299   3639411.5836   5200658.9188   2   7   0.0627   0.1196   0.0930   0.0344   0.0822   0.0261   1.00    2.1
2021/03/16 01:47:32.000    455571.3244   3639411.5898   5200658.9274   2   7   0.0623   0.1169   0.0892   0.0335   0.0785   0.0249   2.00    2.3
2021/03/16 01:47:34.000    455571.3194   3639411.5965   5200658.9297   2   7   0.0622   0.1153   0.0872   0.0331   0.0765   0.0244   4.00    2.4
2021/03/16 01:47:37.000    455571.3152   3639411.6015   5200658.9315   2   7   0.0624   0.1146   0.0871   0.0332   0.0760   0.0245   7.00    2.4
2021/03/16 01:47:38.000    455571.3169   3639411.6052   5200658.9349   2   7   0.0624   0.1138   0.0867   0.0332   0.0754   0.0244   8.00    2.4
2021/03/16 01:47:43.000    455571.3133   3639411.6064   5200658.9388   2   7   0.0638   0.1144   0.0898   0.0344   0.0770   0.0255  13.00    2.5
2021/03/16 01:47:46.000    455571.3103   3639411.6101   5200658.9425   2   7   0.0649   0.1149   0.0924   0.0354   0.0783   0.0263  16.00    2.5
2021/03/16 01:47:49.000    455571.3085   3639411.6089   5200658.9391   2   7   0.0663   0.1156   0.0956   0.0365   0.0800   0.0273  19.00    2.5
2021/03/16 01:47:51.000    455571.3101   3639411.6085   5200658.9372   2   7   0.0673   0.1161   0.0979   0.0374   0.0813   0.0280  21.00    2.5
2021/03/16 01:47:52.000    455571.3075   3639411.5998   5200658.9338   2   7   0.0677   0.1161   0.0990   0.0378   0.0818   0.0284  22.00    2.5
2021/03/16 01:47:55.000    455571.3097   3639411.6030   5200658.9370   2   7   0.0696   0.1173   0.1031   0.0393   0.0842   0.0296  25.00    2.5
2021/03/16 01:47:57.000    455571.3109   3639411.6033   5200658.9388   2   7   0.0709   0.1181   0.1060   0.0404   0.0858   0.0305  27.00    2.5
2021/03/16 01:48:00.000    455571.3174   3639411.6066   5200658.9493   2   7   0.0591   0.1061   0.0785   0.0303   0.0682   0.0220   0.00    2.7
2021/03/16 01:48:02.000    455571.3215   3639411.6057   5200658.9520   2   7   0.0589   0.1044   0.0760   0.0296   0.0658   0.0213   2.00    2.8
2021/03/16 01:48:05.000    455571.3290   3639411.5958   5200658.9506   2   7   0.0590   0.1036   0.0755   0.0297   0.0650   0.0213   5.00    2.9
2021/03/16 01:48:08.000    455571.3345   3639411.5922   5200658.9494   2   7   0.0594   0.1034   0.0763   0.0301   0.0653   0.0217   8.00    2.9
2021/03/16 01:48:10.000    455571.3441   3639411.5930   5200658.9533   2   7   0.0598   0.1033   0.0772   0.0305   0.0656   0.0221  10.00    2.9
2021/03/16 01:48:13.000    455571.3503   3639411.5919   5200658.9616   2   7   0.0607   0.1037   0.0796   0.0314   0.0669   0.0229  13.00    2.9
2021/03/16 01:48:15.000    455571.3563   3639411.5836   5200658.9591   2   7   0.0614   0.1040   0.0815   0.0321   0.0678   0.0235  15.00    3.0
2021/03/16 01:48:18.000    455571.3685   3639411.5816   5200658.9586   2   7   0.0628   0.1049   0.0850   0.0333   0.0698   0.0245  18.00    3.0
2021/03/16 01:48:21.000    455571.3769   3639411.5852   5200658.9583   2   7   0.0645   0.1061   0.0890   0.0347   0.0722   0.0258  21.00    2.9
2021/03/16 01:48:23.000    455571.3874   3639411.5855   5200658.9579   2   7   0.0656   0.1069   0.0919   0.0357   0.0739   0.0267  23.00    2.9
2021/03/16 01:48:26.000    455571.3974   3639411.5897   5200658.9646   2   7   0.0677   0.1085   0.0966   0.0374   0.0767   0.0281  26.00    2.9
2021/03/16 01:48:28.000    455571.4089   3639411.5892   5200658.9699   2   7   0.0691   0.1096   0.0999   0.0386   0.0787   0.0291  28.00    2.8
2021/03/16 01:48:31.000    455571.3800   3639411.5518   5200658.9271   2   7   0.0561   0.0967   0.0689   0.0274   0.0590   0.0196   1.00    2.9
2021/03/16 01:48:34.000    455571.3143   3639410.9624   5200658.7986   1   7   0.0090   0.0171   0.0207   0.0073   0.0166   0.0068   4.00    3.0
2021/03/16 01:48:36.000    455571.3172   3639410.9634   5200658.7989   1   7   0.0110   0.0189   0.0235   0.0084   0.0185   0.0076   6.00    3.1
2021/03/16 01:48:39.000    455571.3220   3639410.9638   5200658.8005   1   7   0.0146   0.0223   0.0289   0.0104   0.0219   0.0091   9.00    3.2
2021/03/16 01:48:41.000    455571.3238   3639410.9671   5200658.8080   1   7   0.0172   0.0248   0.0330   0.0120   0.0245   0.0102  11.00    3.3
2021/03/16 01:48:43.000    455571.3258   3639410.9672   5200658.8048   1   7   0.0199   0.0275   0.0372   0.0136   0.0274   0.0114  13.00    3.3
2021/03/16 01:48:47.000    455571.3341   3639410.9731   5200658.8082   1   7   0.0253   0.0333   0.0462   0.0169   0.0334   0.0139  17.00    3.4
2021/03/16 01:48:49.000    455571.3352   3639410.9750   5200658.8100   1   7   0.0281   0.0364   0.0508   0.0187   0.0366   0.0152  19.00    3.5
2021/03/16 01:48:54.000    455571.3407   3639410.9706   5200658.7982   1   7   0.0350   0.0442   0.0627   0.0231   0.0447   0.0187  24.00    3.5
2021/03/16 01:48:56.000    455571.3420   3639410.9716   5200658.7991   1   7   0.0378   0.0474   0.0675   0.0249   0.0480   0.0201  26.00    3.5
2021/03/16 01:49:02.000    455571.3101   3639410.9603   5200658.8022   1   7   0.0074   0.0158   0.0187   0.0065   0.0154   0.0063   2.00    3.7
2021/03/16 01:49:03.000    455571.3112   3639410.9631   5200658.8034   1   7   0.0080   0.0164   0.0196   0.0068   0.0160   0.0065   3.00    3.8
2021/03/16 01:49:05.000    455571.3119   3639410.9629   5200658.8032   1   7   0.0099   0.0180   0.0221   0.0078   0.0176   0.0072   5.00    3.9
2021/03/16 01:49:08.000    455571.3104   3639410.9618   5200658.8014   1   7   0.0134   0.0211   0.0271   0.0097   0.0207   0.0086   8.00    3.9
2021/03/16 01:49:09.000    455571.3114   3639410.9638   5200658.8030   1   7   0.0146   0.0223   0.0290   0.0105   0.0220   0.0092   9.00    3.9
2021/03/16 01:49:11.000    455571.3119   3639410.9653   5200658.8027   1   7   0.0172   0.0249   0.0331   0.0120   0.0246   0.0103  11.00    4.0
2021/03/16 01:49:14.000    455571.3138   3639410.9644   5200658.7993   1   7   0.0212   0.0290   0.0396   0.0144   0.0290   0.0122  14.00    4.0
2021/03/16 01:49:16.000    455571.3144   3639410.9587   5200658.7898   1   7   0.0239   0.0319   0.0441   0.0161   0.0320   0.0135  16.00    4.0
2021/03/16 01:49:19.000    455571.3154   3639410.9587   5200658.7849   1   7   0.0280   0.0364   0.0511   0.0187   0.0367   0.0155  19.00    4.1
2021/03/16 01:49:22.000    455571.3141   3639410.9631   5200658.7858   1   7   0.0322   0.0411   0.0582   0.0214   0.0416   0.0176  22.00    4.1
2021/03/16 01:49:24.000    455571.3141   3639410.9616   5200658.7854   1   7   0.0350   0.0443   0.0630   0.0232   0.0449   0.0190  24.00    4.2
2021/03/16 01:49:27.000    455571.3149   3639410.9616   5200658.7777   1   7   0.0391   0.0491   0.0702   0.0259   0.0499   0.0212  27.00    4.2
2021/03/16 01:49:29.000    455571.3164   3639410.9617   5200658.7777   1   7   0.0419   0.0524   0.0751   0.0277   0.0533   0.0226  29.00    4.3
2021/03/16 01:49:32.000    455571.3088   3639410.9628   5200658.8048   1   7   0.0074   0.0158   0.0187   0.0064   0.0155   0.0062   2.00    4.4
2021/03/16 01:49:35.000    455571.3068   3639410.9598   5200658.8032   1   7   0.0099   0.0180   0.0221   0.0078   0.0176   0.0073   5.00    4.5
2021/03/16 01:49:37.000    455571.3072   3639410.9589   5200658.8016   1   7   0.0121   0.0200   0.0254   0.0090   0.0197   0.0082   7.00    4.6
2021/03/16 01:49:39.000    455571.3043   3639410.9602   5200658.8048   1   7   0.0146   0.0224   0.0291   0.0105   0.0221   0.0092   9.00    4.7
2021/03/16 01:49:44.000    455571.2984   3639410.9579   5200658.8068   1   7   0.0211   0.0291   0.0398   0.0145   0.0291   0.0123  14.00    4.8
2021/03/16 01:49:48.000    455571.2929   3639410.9557   5200658.8085   1   7   0.0266   0.0350   0.0489   0.0179   0.0353   0.0150  18.00    4.8
2021/03/16 01:49:50.000    455571.2910   3639410.9556   5200658.8124   1   7   0.0293   0.0381   0.0537   0.0197   0.0385   0.0164  20.00    4.8
2021/03/16 01:49:52.000    455571.2909   3639410.9570   5200658.8174   1   7   0.0321   0.0412   0.0584   0.0214   0.0418   0.0179  22.00    4.8
2021/03/16 01:49:53.000    455571.2890   3639410.9547   5200658.8173   1   7   0.0335   0.0428   0.0608   0.0223   0.0434   0.0186  23.00    4.8
2021/03/16 01:49:56.000    455571.2867   3639410.9526   5200658.8209   1   7   0.0377   0.0476   0.0681   0.0250   0.0484   0.0208  26.00    4.9
2021/03/16 01:49:59.000    455571.2869   3639410.9531   5200658.8241   1   7   0.0419   0.0525   0.0754   0.0278   0.0535   0.0230  29.00    4.9
2021/03/16 01:50:01.000    455571.3144   3639410.9600   5200658.8086   1   7   0.0071   0.0155   0.0182   0.0061   0.0152   0.0061   1.00    5.0
2021/03/16 01:50:04.000    455571.3108   3639410.9568   5200658.8120   1   7   0.0089   0.0172   0.0208   0.0073   0.0168   0.0069   4.00    5.0
2021/03/16 01:50:06.000    455571.3122   3639410.9579   5200658.8157   1   7   0.0109   0.0190   0.0238   0.0084   0.0186   0.0078   6.00    5.1
2021/03/16 01:50:12.000    455571.3073   3639410.9536   5200658.8185   1   7   0.0184   0.0263   0.0355   0.0128   0.0263   0.0112  12.00    5.1
2021/03/16 01:50:14.000    455571.3082   3639410.9572   5200658.8247   1   7   0.0211   0.0291   0.0399   0.0145   0.0292   0.0125  14.00    5.1
2021/03/16 01:50:16.000    455571.3094   3639410.9567   5200658.8301   1   7   0.0238   0.0321   0.0445   0.0162   0.0323   0.0139  16.00    5.1
2021/03/16 01:50:19.000    455571.3093   3639410.9609   5200658.8414   1   7   0.0279   0.0366   0.0515   0.0188   0.0371   0.0160  19.00    5.1
2021/03/16 01:50:21.000    455571.3101   3639410.9643   5200658.8494   1   7   0.0307   0.0397   0.0563   0.0206   0.0403   0.0174  21.00    5.1
2021/03/16 01:50:25.000    455571.3127   3639410.9622   5200658.8567   1   7   0.0362   0.0461   0.0660   0.0242   0.0470   0.0204  25.00    5.1
2021/03/16 01:50:27.000    455571.3147   3639410.9626   5200658.8627   1   7   0.0390   0.0494   0.0709   0.0260   0.0504   0.0219  27.00    5.1
2021/03/16 01:50:29.000    455571.3148   3639410.9655   5200658.8661   1   7   0.0418   0.0526   0.0758   0.0279   0.0538   0.0234  29.00    5.1
2021/03/16 01:50:32.000    455571.3170   3639410.9616   5200658.8056   1   7   0.0073   0.0159   0.0188   0.0064   0.0156   0.0063   2.00    5.4
2021/03/16 01:50:34.000    455571.3195   3639410.9652   5200658.8097   1   7   0.0089   0.0172   0.0209   0.0072   0.0168   0.0069   4.00    5.6
2021/03/16 01:50:38.000    455571.3232   3639410.9639   5200658.8047   1   7   0.0133   0.0212   0.0274   0.0098   0.0210   0.0088   8.00    5.7
2021/03/16 01:50:40.000    455571.3230   3639410.9598   5200658.7993   1   7   0.0158   0.0237   0.0314   0.0113   0.0236   0.0100  10.00    5.8
2021/03/16 01:50:42.000    455571.3223   3639410.9597   5200658.7996   1   7   0.0184   0.0264   0.0356   0.0129   0.0264   0.0113  12.00    5.9
2021/03/16 01:50:45.000    455571.3184   3639410.9635   5200658.8069   1   7   0.0224   0.0306   0.0424   0.0154   0.0309   0.0134  15.00    5.9
2021/03/16 01:50:47.000    455571.3184   3639410.9615   5200658.8095   1   7   0.0251   0.0336   0.0470   0.0171   0.0340   0.0148  17.00    6.0
2021/03/16 01:50:51.000    455571.3180   3639410.9604   5200658.8113   1   7   0.0306   0.0398   0.0565   0.0207   0.0405   0.0177  21.00    6.1
2021/03/16 01:50:53.000    455571.3188   3639410.9632   5200658.8153   1   7   0.0334   0.0430   0.0614   0.0225   0.0438   0.0192  23.00    6.1
2021/03/16 01:50:55.000    455571.3163   3639410.9565   5200658.8105   1   7   0.0362   0.0462   0.0663   0.0243   0.0472   0.0207  25.00    6.2
2021/03/16 01:50:58.000    455571.3172   3639410.9583   5200658.8120   1   7   0.0404   0.0511   0.0737   0.0270   0.0523   0.0230  28.00    6.3
2021/03/16 01:51:00.000    455571.3140   3639410.9679   5200658.8088   1   7   0.0068   0.0154   0.0181   0.0061   0.0151   0.0059   0.00    6.5
2021/03/16 01:51:04.000    455571.3148   3639410.9687   5200658.8104   1   7   0.0089   0.0173   0.0209   0.0072   0.0169   0.0069   4.00    6.7
2021/03/16 01:51:06.000    455571.3140   3639410.9639   5200658.8057   1   7   0.0110   0.0191   0.0239   0.0084   0.0188   0.0078   6.00    6.7
2021/03/16 01:51:08.000    455571.3132   3639410.9609   5200658.8021   1   7   0.0133   0.0213   0.0275   0.0098   0.0210   0.0089   8.00    6.8
2021/03/16 01:51:11.000    455571.3120   3639410.9605   5200658.8006   1   7   0.0171   0.0251   0.0336   0.0121   0.0250   0.0108  11.00    6.8
2021/03/16 01:51:13.000    455571.3105   3639410.9593   5200658.8020   1   7   0.0197   0.0278   0.0380   0.0137   0.0279   0.0121  13.00    6.8
2021/03/16 01:51:17.000    455571.3064   3639410.9611   5200658.8119   1   7   0.0251   0.0337   0.0472   0.0172   0.0342   0.0150  17.00    6.8
2021/03/16 01:51:19.000    455571.3036   3639410.9640   5200658.8166   1   7   0.0278   0.0368   0.0520   0.0190   0.0374   0.0165  19.00    6.8
2021/03/16 01:51:21.000    455571.3028   3639410.9638   5200658.8187   1   7   0.0306   0.0399   0.0568   0.0208   0.0407   0.0180  21.00    6.9
2021/03/16 01:51:24.000    455571.3018   3639410.9607   5200658.8136   1   7   0.0348   0.0447   0.0641   0.0235   0.0457   0.0203  24.00    6.9
2021/03/16 01:51:26.000    455571.3006   3639410.9581   5200658.8119   1   7   0.0375   0.0480   0.0690   0.0253   0.0491   0.0218  26.00    7.0
2021/03/16 01:51:34.000    455571.3657   3639411.3110   5200658.9470   2   8   0.0444   0.0683   0.0426   0.0184   0.0344   0.0149   4.00    2.2
2021/03/16 01:51:37.000    455571.3175   3639410.9625   5200658.8068   1   8   0.0120   0.0171   0.0233   0.0098   0.0167   0.0092   7.00    3.1
2021/03/16 01:51:39.000    455571.3180   3639410.9635   5200658.8049   1   8   0.0144   0.0192   0.0269   0.0116   0.0189   0.0108   9.00    3.8
2021/03/16 01:51:41.000    455571.3182   3639410.9625   5200658.8048   1   8   0.0168   0.0216   0.0309   0.0135   0.0214   0.0125  11.00    4.3
2021/03/16 01:51:44.000    455571.3187   3639410.9625   5200658.8076   1   8   0.0207   0.0254   0.0371   0.0164   0.0253   0.0151  14.00    4.7
2021/03/16 01:51:46.000    455571.3185   3639410.9638   5200658.8091   1   8   0.0233   0.0281   0.0415   0.0184   0.0281   0.0170  16.00    5.1
2021/03/16 01:51:52.000    455571.3234   3639410.9634   5200658.8039   1   8   0.0312   0.0365   0.0550   0.0246   0.0369   0.0227  22.00    5.3
2021/03/16 01:51:53.000    455571.3236   3639410.9635   5200658.8031   1   8   0.0326   0.0380   0.0573   0.0257   0.0384   0.0236  23.00    5.5
2021/03/16 01:51:55.000    455571.3263   3639410.9657   5200658.8081   1   8   0.0352   0.0409   0.0619   0.0278   0.0414   0.0256  25.00    5.7
2021/03/16 01:51:58.000    455571.3283   3639410.9656   5200658.8144   1   8   0.0393   0.0453   0.0689   0.0309   0.0459   0.0285  28.00    5.8
2021/03/16 01:52:02.000    455571.3166   3639410.9748   5200658.8175   1   8   0.0073   0.0133   0.0167   0.0064   0.0129   0.0064   2.00    6.9
2021/03/16 01:52:04.000    455571.3198   3639410.9727   5200658.8191   1   8   0.0088   0.0144   0.0188   0.0075   0.0141   0.0073   4.00    6.9
2021/03/16 01:52:09.000    455571.3228   3639410.9734   5200658.8217   1   8   0.0143   0.0192   0.0270   0.0116   0.0190   0.0109   9.00    6.9
2021/03/16 01:52:10.000    455571.3243   3639410.9741   5200658.8239   1   8   0.0156   0.0204   0.0290   0.0125   0.0202   0.0117  10.00    6.8
2021/03/16 01:52:13.000    455571.3230   3639410.9730   5200658.8274   1   8   0.0194   0.0242   0.0352   0.0154   0.0241   0.0143  13.00    6.8
2021/03/16 01:52:16.000    455571.3233   3639410.9755   5200658.8367   1   8   0.0232   0.0282   0.0417   0.0185   0.0283   0.0171  16.00    6.7
2021/03/16 01:52:21.000    455571.3240   3639410.9767   5200658.8324   1   8   0.0299   0.0352   0.0530   0.0236   0.0356   0.0219  21.00    6.7
2021/03/16 01:52:27.000    455571.3278   3639410.9793   5200658.8293   1   8   0.0379   0.0440   0.0669   0.0299   0.0447   0.0277  27.00    6.7
2021/03/16 01:52:28.000    455571.3249   3639410.9734   5200658.8252   1   8   0.0392   0.0455   0.0693   0.0310   0.0462   0.0287  28.00    6.7
2021/03/16 01:52:31.000    455571.3156   3639410.9628   5200658.8028   1   8   0.0068   0.0129   0.0162   0.0061   0.0126   0.0061   1.00    6.6
2021/03/16 01:52:32.000    455571.3144   3639410.9621   5200658.8023   1   8   0.0074   0.0132   0.0168   0.0065   0.0129   0.0064   2.00    6.6
2021/03/16 01:52:35.000    455571.3143   3639410.9605   5200658.8000   1   8   0.0098   0.0152   0.0202   0.0082   0.0149   0.0079   5.00    6.6
2021/03/16 01:52:37.000    455571.3142   3639410.9616   5200658.8042   1   8   0.0119   0.0171   0.0234   0.0098   0.0168   0.0093   7.00    6.5
2021/03/16 01:52:38.000    455571.3141   3639410.9605   5200658.8004   1   8   0.0131   0.0181   0.0252   0.0107   0.0179   0.0101   8.00    6.5
2021/03/16 01:52:43.000    455571.3176   3639410.9585   5200658.7991   1   8   0.0193   0.0242   0.0353   0.0155   0.0242   0.0145  13.00    6.5
2021/03/16 01:52:46.000    455571.3210   3639410.9594   5200658.7984   1   8   0.0232   0.0282   0.0419   0.0185   0.0285   0.0173  16.00    6.4
2021/03/16 01:52:49.000    455571.3222   3639410.9623   5200658.8017   1   8   0.0272   0.0324   0.0487   0.0216   0.0328   0.0201  19.00    6.3
2021/03/16 01:52:51.000    455571.3226   3639410.9610   5200658.8003   1   8   0.0298   0.0353   0.0533   0.0237   0.0358   0.0221  21.00    6.3
2021/03/16 01:52:52.000    455571.3228   3639410.9600   5200658.7987   1   8   0.0312   0.0368   0.0556   0.0247   0.0373   0.0231  22.00    6.3
2021/03/16 01:52:55.000    455571.3218   3639410.9576   5200658.8006   1   8   0.0352   0.0412   0.0626   0.0279   0.0419   0.0260  25.00    6.2
2021/03/16 01:52:58.000    455571.3234   3639410.9591   5200658.8078   1   8   0.0392   0.0456   0.0697   0.0310   0.0465   0.0290  28.00    6.2
2021/03/16 01:53:00.000    455571.3160   3639410.9715   5200658.8106   1   8   0.0069   0.0128   0.0160   0.0060   0.0125   0.0060   0.00    6.1
2021/03/16 01:53:02.000    455571.3154   3639410.9701   5200658.8123   1   8   0.0074   0.0132   0.0168   0.0065   0.0129   0.0064   2.00    6.1
2021/03/16 01:53:05.000    455571.3154   3639410.9694   5200658.8132   1   8   0.0098   0.0152   0.0202   0.0082   0.0149   0.0080   5.00    6.0
2021/03/16 01:53:08.000    455571.3191   3639410.9715   5200658.8153   1   8   0.0131   0.0182   0.0253   0.0107   0.0180   0.0102   8.00    6.0
2021/03/16 01:53:11.000    455571.3188   3639410.9687   5200658.8161   1   8   0.0168   0.0217   0.0313   0.0135   0.0217   0.0128  11.00    6.0
2021/03/16 01:53:13.000    455571.3180   3639410.9674   5200658.8122   1   8   0.0193   0.0243   0.0355   0.0155   0.0244   0.0146  13.00    5.9
2021/03/16 01:53:15.000    455571.3196   3639410.9665   5200658.8111   1   8   0.0219   0.0269   0.0399   0.0175   0.0272   0.0165  15.00    5.9
2021/03/16 01:53:18.000    455571.3237   3639410.9704   5200658.8129   1   8   0.0258   0.0311   0.0467   0.0206   0.0315   0.0193  18.00    5.9
2021/03/16 01:53:24.000    455571.3250   3639410.9711   5200658.8088   1   8   0.0338   0.0398   0.0606   0.0269   0.0406   0.0252  24.00    5.8
2021/03/16 01:53:26.000    455571.3292   3639410.9727   5200658.8137   1   8   0.0365   0.0428   0.0653   0.0290   0.0437   0.0272  26.00    5.8
2021/03/16 01:53:28.000    455571.3291   3639410.9707   5200658.8118   1   8   0.0391   0.0458   0.0701   0.0311   0.0468   0.0292  28.00    5.8
2021/03/16 01:53:31.000    455571.3185   3639410.9716   5200658.8088   1   8   0.0070   0.0129   0.0162   0.0061   0.0126   0.0061   1.00    5.7
2021/03/16 01:53:32.000    455571.3203   3639410.9725   5200658.8094   1   8   0.0073   0.0132   0.0168   0.0064   0.0129   0.0064   2.00    5.6
2021/03/16 01:53:35.000    455571.3240   3639410.9716   5200658.8019   1   8   0.0098   0.0152   0.0202   0.0083   0.0149   0.0080   5.00    5.6
2021/03/16 01:53:37.000    455571.3239   3639410.9724   5200658.8002   1   8   0.0119   0.0171   0.0235   0.0099   0.0169   0.0094   7.00    5.6
2021/03/16 01:53:39.000    455571.3269   3639410.9723   5200658.7995   1   8   0.0143   0.0193   0.0273   0.0116   0.0192   0.0111   9.00    5.6
2021/03/16 01:53:42.000    455571.3303   3639410.9763   5200658.7993   1   8   0.0180   0.0230   0.0335   0.0145   0.0231   0.0138  12.00    5.6
2021/03/16 01:53:45.000    455571.3320   3639410.9755   5200658.7978   1   8   0.0219   0.0270   0.0401   0.0175   0.0273   0.0166  15.00    5.6
2021/03/16 01:53:48.000    455571.3329   3639410.9738   5200658.7963   1   8   0.0258   0.0312   0.0469   0.0206   0.0317   0.0195  18.00    5.5
2021/03/16 01:53:50.000    455571.3343   3639410.9734   5200658.7948   1   8   0.0284   0.0341   0.0515   0.0227   0.0347   0.0215  20.00    5.5
2021/03/16 01:53:52.000    455571.3339   3639410.9714   5200658.7932   1   8   0.0311   0.0370   0.0562   0.0248   0.0378   0.0234  22.00    5.4
2021/03/16 01:53:55.000    455571.3350   3639410.9731   5200658.7938   1   8   0.0351   0.0414   0.0633   0.0280   0.0424   0.0264  25.00    5.4
2021/03/16 01:53:58.000    455571.3339   3639410.9741   5200658.7947   1   8   0.0391   0.0459   0.0705   0.0311   0.0471   0.0295  28.00    5.3
2021/03/16 01:54:01.000    455571.3160   3639410.9657   5200658.8016   1   8   0.0069   0.0129   0.0162   0.0060   0.0126   0.0062   1.00    5.2
2021/03/16 01:54:03.000    455571.3155   3639410.9673   5200658.8052   1   8   0.0080   0.0137   0.0177   0.0069   0.0134   0.0069   3.00    5.2
2021/03/16 01:54:05.000    455571.3140   3639410.9658   5200658.8040   1   8   0.0097   0.0152   0.0203   0.0082   0.0150   0.0080   5.00    5.1
2021/03/16 01:54:08.000    455571.3136   3639410.9643   5200658.8012   1   8   0.0131   0.0182   0.0255   0.0108   0.0181   0.0103   8.00    5.1
2021/03/16 01:54:11.000    455571.3111   3639410.9646   5200658.8009   1   8   0.0167   0.0218   0.0315   0.0136   0.0219   0.0130  11.00    5.1
2021/03/16 01:54:16.000    455571.3090   3639410.9641   5200658.7991   1   8   0.0231   0.0285   0.0426   0.0186   0.0289   0.0177  16.00    5.1
2021/03/16 01:54:18.000    455571.3101   3639410.9632   5200658.7996   1   8   0.0258   0.0313   0.0472   0.0207   0.0319   0.0197  18.00    5.1
2021/03/16 01:54:24.000    455571.3119   3639410.9678   5200658.7994   1   8   0.0337   0.0400   0.0613   0.0270   0.0411   0.0257  24.00    5.1
2021/03/16 01:54:25.000    455571.3134   3639410.9692   5200658.8021   1   8   0.0350   0.0415   0.0637   0.0280   0.0427   0.0267  25.00    5.1
2021/03/16 01:54:27.000    455571.3125   3639410.9671   5200658.7949   1   8   0.0377   0.0445   0.0684   0.0301   0.0458   0.0287  27.00    5.1
2021/03/16 01:54:29.000    455571.3115   3639410.9651   5200658.7931   1   8   0.0404   0.0475   0.0733   0.0323   0.0490   0.0307  29.00    5.1
2021/03/16 01:54:30.000    455571.3183   3639410.9661   5200658.8011   1   8   0.0066   0.0127   0.0160   0.0059   0.0125   0.0061   0.00    5.2
2021/03/16 01:54:33.000    455571.3198   3639410.9711   5200658.8058   1   8   0.0079   0.0137   0.0177   0.0069   0.0135   0.0069   3.00    5.3
2021/03/16 01:54:36.000    455571.3208   3639410.9730   5200658.8086   1   8   0.0108   0.0161   0.0219   0.0090   0.0159   0.0088   6.00    5.4
2021/03/16 01:54:38.000    455571.3213   3639410.9734   5200658.8124   1   8   0.0131   0.0182   0.0256   0.0108   0.0182   0.0104   8.00    5.6
2021/03/16 01:54:40.000    455571.3228   3639410.9722   5200658.8138   1   8   0.0155   0.0206   0.0296   0.0126   0.0207   0.0121  10.00    5.7
2021/03/16 01:54:42.000    455571.3237   3639410.9751   5200658.8175   1   8   0.0180   0.0231   0.0338   0.0146   0.0233   0.0140  12.00    5.7
2021/03/16 01:54:46.000    455571.3234   3639410.9781   5200658.8216   1   8   0.0231   0.0285   0.0428   0.0186   0.0291   0.0178  16.00    5.8
2021/03/16 01:54:48.000    455571.3238   3639410.9766   5200658.8245   1   8   0.0257   0.0314   0.0474   0.0207   0.0321   0.0198  18.00    5.8
2021/03/16 01:54:50.000    455571.3238   3639410.9787   5200658.8291   1   8   0.0284   0.0343   0.0521   0.0228   0.0351   0.0218  20.00    5.8
2021/03/16 01:54:52.000    455571.3222   3639410.9757   5200658.8295   1   8   0.0310   0.0372   0.0568   0.0249   0.0382   0.0238  22.00    5.9
2021/03/16 01:54:55.000    455571.3243   3639410.9787   5200658.8349   1   8   0.0350   0.0417   0.0640   0.0281   0.0429   0.0269  25.00    5.9
2021/03/16 01:54:58.000    455571.3243   3639410.9777   5200658.8321   1   8   0.0390   0.0462   0.0712   0.0313   0.0477   0.0300  28.00    5.9
2021/03/16 01:55:01.000    455571.3171   3639410.9552   5200658.7889   1   8   0.0070   0.0128   0.0162   0.0062   0.0126   0.0061   1.00    5.8
2021/03/16 01:55:03.000    455571.3165   3639410.9581   5200658.7912   1   8   0.0079   0.0137   0.0177   0.0069   0.0135   0.0069   3.00    5.8
2021/03/16 01:55:05.000    455571.3177   3639410.9574   5200658.7927   1   8   0.0098   0.0152   0.0204   0.0083   0.0150   0.0081   5.00    5.8
2021/03/16 01:55:07.000    455571.3158   3639410.9594   5200658.7925   1   8   0.0119   0.0172   0.0238   0.0099   0.0171   0.0096   7.00    5.8
2021/03/16 01:55:10.000    455571.3156   3639410.9586   5200658.7915   1   8   0.0154   0.0206   0.0297   0.0126   0.0207   0.0122  10.00    5.8
2021/03/16 01:55:13.000    455571.3177   3639410.9525   5200658.7823   1   8   0.0192   0.0245   0.0362   0.0156   0.0249   0.0150  13.00    5.8
2021/03/16 01:55:15.000    455571.3176   3639410.9549   5200658.7826   1   8   0.0218   0.0272   0.0407   0.0176   0.0278   0.0170  15.00    5.8
2021/03/16 01:55:17.000    455571.3193   3639410.9516   5200658.7798   1   8   0.0244   0.0300   0.0453   0.0197   0.0308   0.0190  17.00    5.7
2021/03/16 01:55:19.000    455571.3180   3639410.9529   5200658.7792   1   8   0.0270   0.0329   0.0500   0.0218   0.0338   0.0210  19.00    5.7
2021/03/16 01:55:22.000    455571.3207   3639410.9523   5200658.7787   1   8   0.0310   0.0373   0.0571   0.0249   0.0385   0.0240  22.00    5.6
2021/03/16 01:55:29.000    455571.3201   3639410.9486   5200658.7680   1   8   0.0403   0.0478   0.0741   0.0324   0.0496   0.0312  29.00    5.6
2021/03/16 01:55:32.000    455571.3200   3639410.9587   5200658.7963   1   8   0.0073   0.0131   0.0168   0.0064   0.0129   0.0064   2.00    5.7
2021/03/16 01:55:35.000    455571.3207   3639410.9582   5200658.7945   1   8   0.0097   0.0152   0.0204   0.0082   0.0150   0.0082   5.00    5.7
2021/03/16 01:55:36.000    455571.3213   3639410.9573   5200658.7917   1   8   0.0107   0.0161   0.0220   0.0090   0.0160   0.0089   6.00    5.7
2021/03/16 01:55:41.000    455571.3260   3639410.9559   5200658.7851   1   8   0.0167   0.0219   0.0319   0.0136   0.0222   0.0132  11.00    5.8
2021/03/16 01:55:44.000    455571.3263   3639410.9586   5200658.7847   1   8   0.0205   0.0259   0.0386   0.0166   0.0264   0.0161  14.00    5.8
2021/03/16 01:55:47.000    455571.3292   3639410.9573   5200658.7802   1   8   0.0244   0.0301   0.0455   0.0197   0.0309   0.0191  17.00    5.8
2021/03/16 01:55:48.000    455571.3310   3639410.9587   5200658.7823   1   8   0.0257   0.0315   0.0479   0.0208   0.0325   0.0201  18.00    5.8
2021/03/16 01:55:50.000    455571.3309   3639410.9580   5200658.7848   1   8   0.0283   0.0345   0.0526   0.0229   0.0355   0.0221  20.00    5.9
2021/03/16 01:55:53.000    455571.3345   3639410.9599   5200658.7868   1   8   0.0323   0.0389   0.0598   0.0260   0.0403   0.0252  23.00    5.9
2021/03/16 01:55:56.000    455571.3381   3639410.9619   5200658.7863   1   8   0.0363   0.0434   0.0671   0.0292   0.0450   0.0283  26.00    6.0
2021/03/16 01:55:59.000    455571.3405   3639410.9673   5200658.7921   1   8   0.0403   0.0480   0.0745   0.0324   0.0499   0.0315  29.00    6.0
2021/03/16 01:56:01.000    455571.3222   3639410.9592   5200658.8015   1   8   0.0069   0.0128   0.0162   0.0061   0.0126   0.0062   1.00    6.1
2021/03/16 01:56:04.000    455571.3242   3639410.9593   5200658.8025   1   8   0.0088   0.0144   0.0190   0.0075   0.0142   0.0075   4.00    6.1
2021/03/16 01:56:07.000    455571.3262   3639410.9600   5200658.8028   1   8   0.0119   0.0172   0.0239   0.0099   0.0172   0.0097   7.00    6.2
2021/03/16 01:56:09.000    455571.3261   3639410.9608   5200658.8068   1   8   0.0142   0.0195   0.0278   0.0117   0.0196   0.0115   9.00    6.3
2021/03/16 01:56:12.000    455571.3268   3639410.9603   5200658.8063   1   8   0.0179   0.0233   0.0343   0.0147   0.0237   0.0143  12.00    6.3
2021/03/16 01:56:15.000    455571.3272   3639410.9587   5200658.8048   1   8   0.0217   0.0273   0.0411   0.0177   0.0281   0.0172  15.00    6.3
2021/03/16 01:56:18.000    455571.3257   3639410.9559   5200658.8069   1   8   0.0256   0.0316   0.0481   0.0208   0.0326   0.0203  18.00    6.3
2021/03/16 01:56:20.000    455571.3256   3639410.9578   5200658.8073   1   8   0.0283   0.0346   0.0529   0.0229   0.0357   0.0223  20.00    6.3
2021/03/16 01:56:28.000    455571.3240   3639410.9535   5200658.8051   1   8   0.0389   0.0466   0.0724   0.0314   0.0485   0.0307  28.00    6.4
2021/03/16 01:56:30.000    455571.3205   3639410.9561   5200658.8006   1   8   0.0067   0.0127   0.0160   0.0061   0.0125   0.0061   0.00    6.5
2021/03/16 01:56:31.000    455571.3219   3639410.9590   5200658.8028   1   8   0.0068   0.0128   0.0162   0.0061   0.0126   0.0062   1.00    6.6
2021/03/16 01:56:32.000    455571.3217   3639410.9571   5200658.8032   1   8   0.0072   0.0131   0.0168   0.0065   0.0130   0.0065   2.00    6.8
2021/03/16 01:56:33.000    455571.3223   3639410.9598   5200658.8077   1   8   0.0079   0.0137   0.0178   0.0069   0.0135   0.0069   3.00    7.0
2021/03/16 01:56:36.000    455571.3219   3639410.9552   5200658.8042   1   8   0.0107   0.0162   0.0222   0.0090   0.0161   0.0090   6.00    7.1
2021/03/16 01:56:38.000    455571.3187   3639410.9566   5200658.8058   1   8   0.0130   0.0183   0.0259   0.0108   0.0184   0.0107   8.00    7.2
2021/03/16 01:56:40.000    455571.3206   3639410.9576   5200658.8102   1   8   0.0154   0.0207   0.0300   0.0127   0.0210   0.0125  10.00    7.3
2021/03/16 01:56:42.000    455571.3198   3639410.9553   5200658.8107   1   8   0.0179   0.0233   0.0344   0.0147   0.0238   0.0144  12.00    7.4
2021/03/16 01:56:44.000    455571.3199   3639410.9583   5200658.8178   1   8   0.0204   0.0260   0.0389   0.0167   0.0267   0.0164  14.00    7.5
2021/03/16 01:56:48.000    455571.3239   3639410.9589   5200658.8191   1   8   0.0256   0.0317   0.0483   0.0208   0.0328   0.0204  18.00    7.5
2021/03/16 01:56:50.000    455571.3248   3639410.9578   5200658.8202   1   8   0.0282   0.0347   0.0532   0.0230   0.0359   0.0225  20.00    7.6
2021/03/16 01:56:52.000    455571.3244   3639410.9584   5200658.8185   1   8   0.0309   0.0376   0.0580   0.0251   0.0391   0.0246  22.00    7.6
2021/03/16 01:56:54.000    455571.3250   3639410.9551   5200658.8149   1   8   0.0335   0.0406   0.0629   0.0272   0.0423   0.0267  24.00    7.6
2021/03/16 01:57:00.000    455571.3225   3639410.9655   5200658.8137   1   8   0.0067   0.0127   0.0160   0.0060   0.0125   0.0060   0.00    7.8
2021/03/16 01:57:02.000    455571.3226   3639410.9668   5200658.8150   1   8   0.0072   0.0131   0.0168   0.0063   0.0129   0.0065   2.00    7.9
2021/03/16 01:57:04.000    455571.3240   3639410.9629   5200658.8112   1   8   0.0087   0.0144   0.0190   0.0075   0.0142   0.0075   4.00    8.0
2021/03/16 01:57:06.000    455571.3264   3639410.9628   5200658.8105   1   8   0.0107   0.0162   0.0222   0.0091   0.0161   0.0090   6.00    8.1
2021/03/16 01:57:07.000    455571.3267   3639410.9669   5200658.8140   1   8   0.0118   0.0172   0.0240   0.0099   0.0173   0.0098   7.00    8.2
2021/03/16 01:57:11.000    455571.3287   3639410.9705   5200658.8176   1   8   0.0166   0.0220   0.0323   0.0137   0.0225   0.0135  11.00    8.2
2021/03/16 01:57:13.000    455571.3313   3639410.9694   5200658.8175   1   8   0.0191   0.0247   0.0368   0.0157   0.0254   0.0155  13.00    8.2
2021/03/16 01:57:15.000    455571.3312   3639410.9678   5200658.8157   1   8   0.0217   0.0275   0.0414   0.0178   0.0283   0.0175  15.00    8.2
2021/03/16 01:57:17.000    455571.3296   3639410.9683   5200658.8176   1   8   0.0243   0.0303   0.0462   0.0198   0.0314   0.0195  17.00    8.2
2021/03/16 01:57:19.000    455571.3294   3639410.9717   5200658.8198   1   8   0.0269   0.0333   0.0510   0.0219   0.0345   0.0216  19.00    8.2
2021/03/16 01:57:23.000    455571.3311   3639410.9707   5200658.8209   1   8   0.0322   0.0392   0.0607   0.0262   0.0409   0.0258  23.00    8.3
2021/03/16 01:57:25.000    455571.3319   3639410.9697   5200658.8217   1   8   0.0348   0.0423   0.0657   0.0283   0.0442   0.0279  25.00    8.3
2021/03/16 01:57:27.000    455571.3326   3639410.9729   5200658.8280   1   8   0.0375   0.0453   0.0706   0.0305   0.0475   0.0300  27.00    8.3
2021/03/16 01:57:29.000    455571.3318   3639410.9694   5200658.8264   1   8   0.0402   0.0484   0.0756   0.0326   0.0507   0.0322  29.00    8.3
2021/03/16 01:57:31.000    455571.3213   3639410.9565   5200658.8027   1   8   0.0067   0.0128   0.0162   0.0061   0.0126   0.0061   1.00    8.5
2021/03/16 01:57:35.000    455571.3215   3639410.9579   5200658.8039   1   8   0.0096   0.0152   0.0206   0.0082   0.0152   0.0083   5.00    8.8
2021/03/16 01:57:37.000    455571.3216   3639410.9558   5200658.8008   1   8   0.0118   0.0172   0.0241   0.0099   0.0173   0.0099   7.00    9.0
2021/03/16 01:57:39.000    455571.3204   3639410.9585   5200658.8060   1   8   0.0141   0.0195   0.0281   0.0118   0.0198   0.0117   9.00    9.1
2021/03/16 01:57:41.000    455571.3209   3639410.9549   5200658.8000   1   8   0.0166   0.0221   0.0324   0.0137   0.0226   0.0136  11.00    9.3
2021/03/16 01:57:43.000    455571.3190   3639410.9555   5200658.8005   1   8   0.0191   0.0248   0.0370   0.0157   0.0255   0.0156  13.00    9.4
2021/03/16 01:57:47.000    455571.3206   3639410.9610   5200658.8069   1   8   0.0242   0.0304   0.0464   0.0199   0.0316   0.0197  17.00    9.5
2021/03/16 01:57:49.000    455571.3177   3639410.9563   5200658.8069   1   8   0.0269   0.0334   0.0512   0.0220   0.0347   0.0217  19.00    9.6
2021/03/16 01:57:51.000    455571.3207   3639410.9595   5200658.8090   1   8   0.0295   0.0363   0.0561   0.0241   0.0379   0.0239  21.00    9.7
2021/03/16 01:57:53.000    455571.3218   3639410.9606   5200658.8130   1   8   0.0321   0.0394   0.0610   0.0262   0.0412   0.0260  23.00    9.8
2021/03/16 01:57:55.000    455571.3231   3639410.9612   5200658.8188   1   8   0.0348   0.0424   0.0660   0.0284   0.0444   0.0281  25.00    9.9
2021/03/16 01:57:59.000    455571.3220   3639410.9638   5200658.8276   1   8   0.0401   0.0486   0.0760   0.0327   0.0510   0.0324  29.00   10.0
2021/03/16 01:58:01.000    455571.3163   3639410.9551   5200658.8084   1   8   0.0069   0.0127   0.0162   0.0062   0.0126   0.0061   1.00   10.2
2021/03/16 01:58:03.000    455571.3151   3639410.9531   5200658.8088   1   8   0.0079   0.0137   0.0178   0.0069   0.0135   0.0070   3.00   10.4
2021/03/16 01:58:05.000    455571.3141   3639410.9552   5200658.8148   1   8   0.0096   0.0153   0.0206   0.0082   0.0152   0.0083   5.00   10.6
2021/03/16 01:58:07.000    455571.3149   3639410.9541   5200658.8152   1   8   0.0118   0.0172   0.0242   0.0099   0.0174   0.0099   7.00   10.8
2021/03/16 01:58:11.000    455571.3124   3639410.9544   5200658.8191   1   8   0.0166   0.0221   0.0326   0.0138   0.0227   0.0137  11.00   10.8
2021/03/16 01:58:13.000    455571.3130   3639410.9577   5200658.8274   1   8   0.0191   0.0248   0.0371   0.0158   0.0256   0.0157  13.00   10.9
2021/03/16 01:58:15.000    455571.3141   3639410.9598   5200658.8325   1   8   0.0216   0.0276   0.0418   0.0178   0.0286   0.0177  15.00   11.0
2021/03/16 01:58:19.000    455571.3157   3639410.9616   5200658.8375   1   8   0.0268   0.0334   0.0515   0.0220   0.0349   0.0219  19.00   11.1
2021/03/16 01:58:23.000    455571.3175   3639410.9635   5200658.8357   1   8   0.0321   0.0395   0.0613   0.0263   0.0414   0.0262  23.00   11.1
2021/03/16 01:58:25.000    455571.3190   3639410.9640   5200658.8351   1   8   0.0348   0.0425   0.0663   0.0284   0.0447   0.0283  25.00   11.2
2021/03/16 01:58:27.000    455571.3159   3639410.9607   5200658.8308   1   8   0.0374   0.0456   0.0713   0.0306   0.0480   0.0305  27.00   11.2
2021/03/16 01:58:28.000    455571.3194   3639410.9648   5200658.8370   1   8   0.0387   0.0472   0.0738   0.0317   0.0496   0.0315  28.00   11.3
2021/03/16 01:58:30.000    455571.3173   3639410.9557   5200658.7990   1   8   0.0065   0.0126   0.0160   0.0060   0.0125   0.0061   0.00   11.5
2021/03/16 01:58:34.000    455571.3193   3639410.9556   5200658.8002   1   8   0.0086   0.0144   0.0191   0.0075   0.0143   0.0076   4.00   11.6
2021/03/16 01:58:36.000    455571.3211   3639410.9531   5200658.7950   1   8   0.0106   0.0162   0.0224   0.0091   0.0162   0.0091   6.00   11.8
2021/03/16 01:58:38.000    455571.3221   3639410.9569   5200658.7993   1   8   0.0129   0.0184   0.0262   0.0109   0.0187   0.0109   8.00   11.9
2021/03/16 01:58:40.000    455571.3233   3639410.9568   5200658.8010   1   8   0.0153   0.0209   0.0305   0.0128   0.0213   0.0128  10.00   12.1
2021/03/16 01:58:42.000    455571.3253   3639410.9594   5200658.8033   1   8   0.0178   0.0235   0.0350   0.0148   0.0242   0.0148  12.00   12.2
2021/03/16 01:58:46.000    455571.3241   3639410.9555   5200658.8001   1   8   0.0229   0.0291   0.0444   0.0189   0.0303   0.0189  16.00   12.4
2021/03/16 01:58:48.000    455571.3268   3639410.9596   5200658.8042   1   8   0.0255   0.0321   0.0492   0.0210   0.0335   0.0210  18.00   12.5
2021/03/16 01:58:50.000    455571.3251   3639410.9584   5200658.8011   1   8   0.0281   0.0350   0.0542   0.0231   0.0367   0.0231  20.00   12.6
2021/03/16 01:58:52.000    455571.3247   3639410.9527   5200658.7967   1   8   0.0308   0.0381   0.0591   0.0252   0.0400   0.0253  22.00   12.7
2021/03/16 01:58:54.000    455571.3251   3639410.9535   5200658.7950   1   8   0.0334   0.0411   0.0641   0.0274   0.0432   0.0274  24.00   12.8
2021/03/16 01:59:00.000    455571.3173   3639410.9526   5200658.8007   1   8   0.0067   0.0126   0.0160   0.0060   0.0124   0.0060   0.00   13.0
2021/03/16 01:59:02.000    455571.3167   3639410.9520   5200658.8001   1   8   0.0072   0.0130   0.0169   0.0065   0.0130   0.0064   2.00   13.1
2021/03/16 01:59:04.000    455571.3162   3639410.9488   5200658.7955   1   8   0.0087   0.0144   0.0192   0.0075   0.0143   0.0076   4.00   13.1
2021/03/16 01:59:06.000    455571.3166   3639410.9470   5200658.7947   1   8   0.0106   0.0162   0.0224   0.0091   0.0163   0.0091   6.00   13.2
2021/03/16 01:59:10.000    455571.3184   3639410.9474   5200658.7963   1   8   0.0153   0.0209   0.0306   0.0128   0.0214   0.0128  10.00   13.3
2021/03/16 01:59:12.000    455571.3187   3639410.9490   5200658.7965   1   8   0.0178   0.0236   0.0351   0.0148   0.0243   0.0148  12.00   13.3
2021/03/16 01:59:14.000    455571.3196   3639410.9485   5200658.7940   1   8   0.0203   0.0263   0.0398   0.0168   0.0273   0.0169  14.00   13.4
2021/03/16 01:59:16.000    455571.3213   3639410.9499   5200658.7949   1   8   0.0229   0.0292   0.0446   0.0189   0.0305   0.0190  16.00   13.4
2021/03/16 01:59:22.000    455571.3300   3639410.9555   5200658.7971   1   8   0.0307   0.0382   0.0594   0.0253   0.0402   0.0254  22.00   13.5
2021/03/16 01:59:24.000    455571.3314   3639410.9556   5200658.7972   1   8   0.0334   0.0412   0.0644   0.0274   0.0435   0.0276  24.00   13.5
2021/03/16 01:59:26.000    455571.3347   3639410.9577   5200658.8025   1   8   0.0360   0.0443   0.0694   0.0296   0.0468   0.0298  26.00   13.5
2021/03/16 01:59:29.000    455571.3368   3639410.9582   5200658.8042   1   8   0.0400   0.0490   0.0771   0.0328   0.0518   0.0331  29.00   13.5
2021/03/16 01:59:33.000    455571.3203   3639410.9557   5200658.8017   1   8   0.0078   0.0137   0.0179   0.0069   0.0135   0.0070   3.00   13.8
2021/03/16 01:59:35.000    455571.3219   3639410.9539   5200658.8009   1   8   0.0096   0.0152   0.0207   0.0082   0.0153   0.0084   5.00   14.0
2021/03/16 01:59:37.000    455571.3229   3639410.9574   5200658.8072   1   8   0.0117   0.0173   0.0244   0.0100   0.0175   0.0101   7.00   14.1
2021/03/16 01:59:40.000    455571.3251   3639410.9575   5200658.8135   1   8   0.0153   0.0209   0.0307   0.0128   0.0215   0.0129  10.00   14.2
2021/03/16 01:59:48.000    455571.3301   3639410.9610   5200658.8156   1   8   0.0254   0.0322   0.0497   0.0211   0.0338   0.0212  18.00   14.3
2021/03/16 01:59:53.000    455571.3335   3639410.9624   5200658.8217   1   8   0.0320   0.0398   0.0622   0.0264   0.0420   0.0267  23.00   14.4
2021/03/16 01:59:55.000    455571.3344   3639410.9624   5200658.8229   1   8   0.0346   0.0429   0.0672   0.0286   0.0453   0.0289  25.00   14.5
2021/03/16 01:59:56.000    455571.3321   3639410.9604   5200658.8223   1   8   0.0360   0.0444   0.0698   0.0296   0.0470   0.0300  26.00   14.5
2021/03/16 01:59:57.000    455571.3335   3639410.9610   5200658.8229   1   8   0.0373   0.0460   0.0723   0.0307   0.0487   0.0311  27.00   14.6
2021/03/16 02:00:01.000    455571.3162   3639410.9516   5200658.7949   1   8   0.0070   0.0127   0.0162   0.0062   0.0125   0.0062   1.00   14.8
2021/03/16 02:00:03.000    455571.3187   3639410.9530   5200658.7966   1   8   0.0078   0.0137   0.0179   0.0068   0.0135   0.0070   3.00   15.0
2021/03/16 02:00:05.000    455571.3199   3639410.9532   5200658.7943   1   8   0.0096   0.0153   0.0207   0.0082   0.0153   0.0084   5.00   15.1
2021/03/16 02:00:08.000    455571.3212   3639410.9553   5200658.7937   1   8   0.0129   0.0185   0.0264   0.0109   0.0188   0.0110   8.00   15.3
2021/03/16 02:00:14.000    455571.3244   3639410.9532   5200658.7904   1   8   0.0203   0.0264   0.0401   0.0169   0.0276   0.0171  14.00   15.3
2021/03/16 02:00:16.000    455571.3240   3639410.9524   5200658.7883   1   8   0.0228   0.0293   0.0449   0.0190   0.0307   0.0192  16.00   15.3
2021/03/16 02:00:18.000    455571.3289   3639410.9579   5200658.7990   1   8   0.0254   0.0323   0.0499   0.0211   0.0339   0.0214  18.00   15.3
2021/03/16 02:00:20.000    455571.3295   3639410.9601   5200658.8075   1   8   0.0280   0.0353   0.0549   0.0232   0.0372   0.0235  20.00   15.4
2021/03/16 02:00:23.000    455571.3307   3639410.9583   5200658.8173   1   8   0.0320   0.0399   0.0624   0.0264   0.0422   0.0268  23.00   15.4
2021/03/16 02:00:25.000    455571.3322   3639410.9617   5200658.8270   1   8   0.0346   0.0430   0.0675   0.0286   0.0456   0.0290  25.00   15.4
2021/03/16 02:00:27.000    455571.3338   3639410.9631   5200658.8285   1   8   0.0373   0.0461   0.0726   0.0308   0.0489   0.0313  27.00   15.4
2021/03/16 02:00:30.000    455571.3164   3639410.9525   5200658.7927   1   8   0.0066   0.0125   0.0160   0.0059   0.0124   0.0060   0.00   15.9
2021/03/16 02:00:31.000    455571.3161   3639410.9547   5200658.7944   1   8   0.0068   0.0126   0.0162   0.0061   0.0125   0.0061   1.00   16.4
2021/03/16 02:00:34.000    455571.3155   3639410.9551   5200658.7973   1   8   0.0086   0.0144   0.0192   0.0075   0.0143   0.0077   4.00   16.8
