% program   : rnx2rtkp ver.2.4.3 b33
% inp file  : /home/danisimo/post/R1_193.2020-111.2021/R00123018.20o
% inp file  : /home/danisimo/post/NSK1_193.2020-111.2021/NSK12300.20o
% inp file  : /home/danisimo/post/NSK1_193.2020-111.2021/NSK12300.20N
% obs start : 2020/08/17 01:24:49.6 GPST (week2119  91489.6s)
% obs end   : 2020/08/17 12:35:03.0 GPST (week2119 131703.0s)
% ref pos   :   447670.3040   3638117.3850   5202281.5640
%
% (x/y/z-ecef=WGS84,Q=1:fix,2:float,3:sbas,4:dgps,5:single,6:ppp,ns=# of satellites)
%  GPST                      x-ecef(m)      y-ecef(m)      z-ecef(m)   Q  ns   sdx(m)   sdy(m)   sdz(m)  sdxy(m)  sdyz(m)  sdzx(m) age(s)  ratio
2020/08/17 01:24:49.541    455571.0676   3639411.5367   5200659.5701   2   8   0.6066   0.9382   1.2539  -0.3600   0.7515  -0.3893  19.60    0.0
2020/08/17 01:24:50.041    455571.0263   3639411.9307   5200659.7675   2   8   0.4317   0.6685   0.8908  -0.2545   0.5343  -0.2762  20.10    0.0
2020/08/17 01:24:50.506    455571.1958   3639411.7765   5200659.6370   2   8   0.3535   0.5475   0.7290  -0.2080   0.4374  -0.2260  20.50    0.0
2020/08/17 01:24:51.006    455571.3234   3639411.7311   5200659.6396   2   8   0.3067   0.4750   0.6325  -0.1803   0.3795  -0.1960  21.00    0.0
2020/08/17 01:24:53.006    455571.4412   3639411.6490   5200659.6511   2   8   0.2748   0.4256   0.5669  -0.1617   0.3401  -0.1756  23.00    0.0
2020/08/17 01:24:55.006    455571.5131   3639411.5678   5200659.6917   2   8   0.2513   0.3892   0.5188  -0.1480   0.3111  -0.1607  25.00    0.0
2020/08/17 01:24:57.506    455571.5398   3639411.4832   5200659.7059   2   8   0.2333   0.3611   0.4819  -0.1376   0.2889  -0.1492  27.50    0.0
2020/08/17 01:25:08.000    455571.5143   3639409.6287   5200658.9377   2   8   0.6066   0.9382   1.2526  -0.3597   0.7509  -0.3875   8.00    1.1
2020/08/17 01:25:15.000    455571.4547   3639409.8908   5200659.4902   2   8   0.4316   0.6683   0.8885  -0.2541   0.5333  -0.2742  15.00    1.2
2020/08/17 01:25:17.000    455571.4272   3639410.0116   5200659.6487   2   8   0.3533   0.5473   0.7268  -0.2076   0.4364  -0.2242  17.00    1.2
2020/08/17 01:25:18.000    455571.4350   3639410.0921   5200659.6946   2   8   0.3065   0.4749   0.6304  -0.1800   0.3786  -0.1944  18.00    1.1
2020/08/17 01:25:19.000    455571.4619   3639410.1372   5200659.6524   2   8   0.2746   0.4253   0.5647  -0.1612   0.3391  -0.1741  19.00    1.1
2020/08/17 01:25:23.000    455571.4353   3639410.1052   5200659.5083   2   8   0.2512   0.3890   0.5169  -0.1476   0.3103  -0.1593  23.00    1.1
2020/08/17 01:25:26.000    455571.4290   3639410.0844   5200659.5313   2   8   0.2331   0.3610   0.4801  -0.1373   0.2881  -0.1479  26.00    1.1
2020/08/17 01:25:28.000    455571.4185   3639410.0527   5200659.5399   2   8   0.2186   0.3384   0.4506  -0.1289   0.2703  -0.1388  28.00    1.1
2020/08/17 01:25:31.000    455571.4291   3639410.2030   5200659.4986   2   8   0.2046   0.3169   0.4175  -0.1197   0.2516  -0.1286   1.00    1.4
2020/08/17 01:25:34.000    455571.4256   3639410.2801   5200659.4231   2   8   0.1942   0.3007   0.3955  -0.1136   0.2384  -0.1218   4.00    1.1
2020/08/17 01:25:39.000    455571.4175   3639410.3395   5200659.4800   2   8   0.1853   0.2869   0.3773  -0.1085   0.2275  -0.1161   9.00    1.1
2020/08/17 01:25:42.000    455571.4385   3639410.3829   5200659.4906   2   8   0.1776   0.2750   0.3616  -0.1041   0.2180  -0.1113  12.00    1.0
2020/08/17 01:25:46.000    455571.4231   3639410.4178   5200659.5031   2   8   0.1711   0.2647   0.3485  -0.1004   0.2100  -0.1072  16.00    1.1
2020/08/17 01:25:47.000    455571.4157   3639410.4401   5200659.4945   2   8   0.1650   0.2553   0.3363  -0.0970   0.2026  -0.1035  17.00    1.1
2020/08/17 01:25:49.000    455571.4046   3639410.4505   5200659.4657   2   8   0.1598   0.2471   0.3258  -0.0940   0.1962  -0.1002  19.00    1.1
2020/08/17 01:25:52.000    455571.4086   3639410.4718   5200659.4360   2   8   0.1552   0.2399   0.3170  -0.0916   0.1908  -0.0975  22.00    1.2
2020/08/17 01:25:55.000    455571.3970   3639410.5115   5200659.4192   2   8   0.1512   0.2336   0.3094  -0.0896   0.1861  -0.0952  25.00    1.3
2020/08/17 01:25:58.000    455571.3851   3639410.5475   5200659.4266   2   8   0.1477   0.2280   0.3029  -0.0879   0.1820  -0.0932  28.00    1.4
2020/08/17 01:26:03.000    455571.3945   3639410.5645   5200659.3625   2   9   0.1403   0.2161   0.2810  -0.0798   0.1694  -0.0850   3.00    1.8
2020/08/17 01:26:07.000    455571.3790   3639410.5970   5200659.3537   2   9   0.1363   0.2091   0.2721  -0.0758   0.1632  -0.0810   7.00    1.9
2020/08/17 01:26:10.000    455571.3628   3639410.6355   5200659.3372   2   9   0.1327   0.2029   0.2647  -0.0722   0.1579  -0.0776  10.00    2.0
2020/08/17 01:26:13.000    455571.3464   3639410.6858   5200659.3534   2   9   0.1295   0.1973   0.2586  -0.0691   0.1533  -0.0747  13.00    2.0
2020/08/17 01:26:17.000    455571.3428   3639410.6986   5200659.3345   2   9   0.1266   0.1923   0.2538  -0.0663   0.1494  -0.0721  17.00    2.1
2020/08/17 01:26:19.000    455571.3432   3639410.7162   5200659.3131   2   9   0.1239   0.1877   0.2490  -0.0638   0.1457  -0.0697  19.00    2.1
2020/08/17 01:26:20.000    455571.3423   3639410.7359   5200659.2967   2   9   0.1213   0.1833   0.2443  -0.0614   0.1422  -0.0676  20.00    2.2
2020/08/17 01:26:23.000    455571.3531   3639410.7588   5200659.3061   2   9   0.1191   0.1796   0.2410  -0.0594   0.1394  -0.0656  23.00    2.2
2020/08/17 01:26:29.000    455571.3532   3639410.7767   5200659.3151   2   9   0.1176   0.1768   0.2405  -0.0576   0.1376  -0.0639  29.00    2.2
2020/08/17 01:26:32.000    455571.3668   3639410.7709   5200659.2732   2   9   0.1129   0.1699   0.2196  -0.0549   0.1293  -0.0604   2.00    2.4
2020/08/17 01:26:39.000    455571.3623   3639410.7875   5200659.2954   2   8   0.1111   0.1674   0.2156  -0.0525   0.1273  -0.0580   9.00    1.4
2020/08/17 01:26:41.000    455571.3604   3639410.8018   5200659.3039   2   8   0.1093   0.1647   0.2118  -0.0504   0.1250  -0.0561  11.00    1.4
2020/08/17 01:26:43.000    455571.3478   3639410.8084   5200659.3099   2   8   0.1077   0.1623   0.2085  -0.0485   0.1230  -0.0544  13.00    1.4
2020/08/17 01:26:46.000    455571.3310   3639410.8022   5200659.3158   2   8   0.1062   0.1602   0.2064  -0.0466   0.1213  -0.0529  16.00    1.4
2020/08/17 01:26:54.000    455571.3121   3639410.8204   5200659.3653   2   8   0.1057   0.1594   0.2081  -0.0447   0.1212  -0.0515  24.00    1.3
2020/08/17 01:26:56.000    455571.2975   3639410.8261   5200659.3750   2   8   0.1045   0.1576   0.2068  -0.0430   0.1199  -0.0502  26.00    1.3
2020/08/17 01:26:59.000    455571.2817   3639410.8447   5200659.3925   2   8   0.1037   0.1563   0.2066  -0.0413   0.1191  -0.0490  29.00    1.3
2020/08/17 01:27:01.000    455571.2946   3639410.8335   5200659.2972   2   8   0.0990   0.1494   0.1839  -0.0403   0.1107  -0.0461   1.00    1.3
2020/08/17 01:27:05.000    455571.2893   3639410.8669   5200659.3332   2   8   0.0977   0.1475   0.1792  -0.0389   0.1087  -0.0441   5.00    1.2
2020/08/17 01:27:07.000    455571.2862   3639410.8936   5200659.3640   2   8   0.0964   0.1456   0.1758  -0.0376   0.1070  -0.0426   7.00    1.0
2020/08/17 01:27:09.000    455571.2874   3639410.9169   5200659.3926   2   8   0.0953   0.1439   0.1733  -0.0363   0.1056  -0.0415   9.00    1.1
2020/08/17 01:27:12.000    455571.2864   3639410.9287   5200659.4100   2   8   0.0943   0.1425   0.1720  -0.0351   0.1046  -0.0405  12.00    1.2
2020/08/17 01:27:14.000    455571.2911   3639410.9357   5200659.4243   2   8   0.0934   0.1411   0.1707  -0.0340   0.1036  -0.0396  14.00    1.3
2020/08/17 01:27:18.000    455571.2989   3639410.9524   5200659.4423   2   8   0.0928   0.1402   0.1712  -0.0328   0.1032  -0.0387  18.00    1.4
2020/08/17 01:27:20.000    455571.3081   3639410.9721   5200659.4705   2   8   0.0920   0.1391   0.1708  -0.0317   0.1025  -0.0380  20.00    1.5
2020/08/17 01:27:22.000    455571.3155   3639410.9805   5200659.4808   2   8   0.0913   0.1381   0.1706  -0.0306   0.1019  -0.0373  22.00    1.6
2020/08/17 01:27:25.000    455571.3265   3639410.9855   5200659.4917   2   8   0.0909   0.1375   0.1717  -0.0295   0.1018  -0.0366  25.00    1.7
2020/08/17 01:27:27.000    455571.3393   3639410.9934   5200659.4933   2   8   0.0904   0.1367   0.1721  -0.0284   0.1015  -0.0359  27.00    1.7
2020/08/17 01:27:31.000    455571.3676   3639410.9517   5200659.3905   2   8   0.0862   0.1306   0.1513  -0.0282   0.0940  -0.0338   1.00    1.7
2020/08/17 01:27:33.000    455571.3716   3639410.9559   5200659.3446   2   8   0.0853   0.1292   0.1470  -0.0273   0.0924  -0.0322   3.00    1.6
2020/08/17 01:27:35.000    455571.3727   3639410.9630   5200659.3211   2   8   0.0845   0.1279   0.1443  -0.0265   0.0913  -0.0311   5.00    1.6
2020/08/17 01:27:38.000    455571.3719   3639410.9723   5200659.3157   2   8   0.0838   0.1269   0.1431  -0.0257   0.0905  -0.0303   8.00    1.6
2020/08/17 01:27:44.000    455571.3949   3639410.9555   5200659.3156   2   8   0.0836   0.1266   0.1446  -0.0249   0.0907  -0.0297  14.00    1.7
2020/08/17 01:27:46.000    455571.4033   3639410.9640   5200659.3333   2   8   0.0831   0.1258   0.1447  -0.0241   0.0903  -0.0292  16.00    1.7
2020/08/17 01:27:48.000    455571.4077   3639410.9764   5200659.3522   2   8   0.0826   0.1251   0.1450  -0.0233   0.0900  -0.0287  18.00    1.7
2020/08/17 01:27:51.000    455571.4094   3639410.9852   5200659.3639   2   8   0.0824   0.1248   0.1465  -0.0224   0.0901  -0.0282  21.00    1.8
2020/08/17 01:27:53.000    455571.4106   3639410.9994   5200659.3748   2   8   0.0821   0.1243   0.1474  -0.0216   0.0901  -0.0278  23.00    1.8
2020/08/17 01:27:57.000    455571.4156   3639411.0206   5200659.3845   2   8   0.0824   0.1246   0.1507  -0.0205   0.0909  -0.0273  27.00    1.8
2020/08/17 01:27:59.000    455571.4191   3639411.0375   5200659.4003   2   8   0.0822   0.1244   0.1522  -0.0196   0.0910  -0.0269  29.00    1.9
2020/08/17 01:28:01.000    455571.4082   3639411.0695   5200659.3786   2   8   0.0774   0.1174   0.1281  -0.0203   0.0825  -0.0253   1.00    1.7
2020/08/17 01:28:04.000    455571.4274   3639411.0692   5200659.3443   2   8   0.0767   0.1165   0.1254  -0.0197   0.0816  -0.0241   4.00    1.6
2020/08/17 01:28:06.000    455571.4398   3639411.0780   5200659.3287   2   8   0.0762   0.1156   0.1238  -0.0192   0.0809  -0.0233   6.00    1.5
2020/08/17 01:28:10.000    455571.4394   3639411.0874   5200659.3218   2   8   0.0759   0.1152   0.1242  -0.0186   0.0808  -0.0228  10.00    1.5
2020/08/17 01:28:12.000    455571.4408   3639411.0937   5200659.3199   2   8   0.0755   0.1146   0.1242  -0.0181   0.0805  -0.0223  12.00    1.5
2020/08/17 01:28:14.000    455571.4421   3639411.0985   5200659.3152   2   8   0.0752   0.1141   0.1245  -0.0174   0.0803  -0.0219  14.00    1.5
2020/08/17 01:28:17.000    455571.4421   3639411.1031   5200659.3062   2   8   0.0751   0.1139   0.1261  -0.0167   0.0805  -0.0216  17.00    1.5
2020/08/17 01:28:19.000    455571.4397   3639411.1033   5200659.2986   2   8   0.0749   0.1136   0.1271  -0.0161   0.0806  -0.0212  19.00    1.5
2020/08/17 01:28:27.000    455571.4397   3639411.1032   5200659.2910   2   8   0.0762   0.1155   0.1355  -0.0145   0.0832  -0.0207  27.00    1.5
2020/08/17 01:28:30.000    455571.4397   3639411.0772   5200659.2203   2   8   0.0717   0.1091   0.1122  -0.0153   0.0752  -0.0191   0.00    1.3
2020/08/17 01:28:32.000    455571.4396   3639411.0669   5200659.1886   2   8   0.0711   0.1082   0.1090  -0.0147   0.0742  -0.0177   2.00    1.2
2020/08/17 01:28:34.000    455571.4396   3639411.0658   5200659.1762   2   8   0.0707   0.1075   0.1072  -0.0143   0.0735  -0.0168   4.00    1.1
2020/08/17 01:28:42.000    455571.4390   3639411.0641   5200659.1744   2   8   0.0709   0.1078   0.1103  -0.0139   0.0744  -0.0166  12.00    1.1
2020/08/17 01:28:45.000    455571.4363   3639411.0652   5200659.1646   2   8   0.0709   0.1077   0.1119  -0.0133   0.0746  -0.0162  15.00    1.0
2020/08/17 01:28:46.000    455571.4303   3639411.0624   5200659.1556   2   8   0.0706   0.1072   0.1122  -0.0127   0.0744  -0.0159  16.00    1.0
2020/08/17 01:28:49.000    455571.4245   3639411.0589   5200659.1556   2   8   0.0707   0.1074   0.1146  -0.0119   0.0750  -0.0156  19.00    1.0
2020/08/17 01:28:57.000    455571.4210   3639411.0534   5200659.1489   2   8   0.0722   0.1096   0.1241  -0.0100   0.0779  -0.0151  27.00    1.1
2020/08/17 01:28:58.000    455571.4214   3639411.0479   5200659.1436   2   8   0.0721   0.1094   0.1251  -0.0092   0.0780  -0.0148  28.00    1.1
2020/08/17 01:29:00.000    455571.4306   3639411.0041   5200659.0787   2   8   0.0671   0.1022   0.0988  -0.0110   0.0692  -0.0132   0.00    1.3
2020/08/17 01:29:01.000    455571.4318   3639410.9944   5200659.0580   2   8   0.0666   0.1015   0.0959  -0.0103   0.0682  -0.0118   1.00    1.5
2020/08/17 01:29:02.000    455571.4319   3639410.9886   5200659.0327   2   8   0.0661   0.1008   0.0937  -0.0098   0.0675  -0.0107   2.00    1.8
2020/08/17 01:29:05.000    455571.4280   3639410.9864   5200659.0270   2   8   0.0658   0.1004   0.0931  -0.0095   0.0672  -0.0100   5.00    1.9
2020/08/17 01:29:07.000    455571.4231   3639410.9845   5200659.0208   2   8   0.0655   0.0999   0.0929  -0.0091   0.0670  -0.0095   7.00    1.9
2020/08/17 01:29:10.000    455571.4144   3639410.9861   5200659.0222   2   8   0.0654   0.0998   0.0941  -0.0087   0.0672  -0.0092  10.00    1.9
2020/08/17 01:29:12.000    455571.4137   3639410.9747   5200659.0197   2   8   0.0653   0.0996   0.0950  -0.0081   0.0673  -0.0089  12.00    1.9
2020/08/17 01:29:15.000    455571.4172   3639410.9675   5200659.0256   2   8   0.0654   0.0997   0.0973  -0.0073   0.0677  -0.0086  15.00    1.8
2020/08/17 01:29:18.000    455571.4178   3639410.9572   5200659.0292   2   8   0.0656   0.1000   0.1002  -0.0063   0.0684  -0.0083  18.00    1.8
2020/08/17 01:29:20.000    455571.4211   3639410.9527   5200659.0314   2   8   0.0657   0.1001   0.1023  -0.0052   0.0689  -0.0080  20.00    1.8
2020/08/17 01:29:25.000    455571.4302   3639410.9390   5200659.0321   2   8   0.0667   0.1014   0.1089  -0.0011   0.0708  -0.0074  25.00    1.8
2020/08/17 01:29:28.000    455571.4298   3639410.9332   5200659.0358   2   8   0.0672   0.1023   0.1133   0.0043   0.0721  -0.0070  28.00    1.8
2020/08/17 01:29:31.000    455571.4161   3639410.9228   5200658.9841   2   8   0.0620   0.0948   0.0852  -0.0051   0.0629  -0.0050   1.00    2.0
2020/08/17 01:29:33.000    455571.4204   3639410.9096   5200658.9701   2   8   0.0616   0.0943   0.0838  -0.0044   0.0624  -0.0029   3.00    2.3
2020/08/17 01:29:34.000    455571.4208   3639410.8979   5200658.9529   2   8   0.0613   0.0938   0.0827  -0.0038   0.0620   0.0018   4.00    2.5
2020/08/17 01:29:36.000    455571.4266   3639410.8848   5200658.9415   2   8   0.0611   0.0935   0.0826  -0.0032   0.0618   0.0031   6.00    2.8
2020/08/17 01:29:39.000    455571.3354   3639410.9647   5200658.8226   1   8   0.0102   0.0152   0.0263   0.0024   0.0130  -0.0028   9.00    3.0
2020/08/17 01:29:42.000    455571.3378   3639410.9663   5200658.8290   1   8   0.0124   0.0185   0.0333   0.0033   0.0162  -0.0028  12.00    3.3
2020/08/17 01:29:47.000    455571.3372   3639410.9725   5200658.8441   1   8   0.0164   0.0244   0.0455   0.0050   0.0217  -0.0023  17.00    3.3
2020/08/17 01:29:49.000    455571.3393   3639410.9710   5200658.8438   1   8   0.0180   0.0269   0.0504   0.0056   0.0239  -0.0019  19.00    3.3
2020/08/17 01:29:55.000    455571.3407   3639410.9745   5200658.8473   1   8   0.0230   0.0344   0.0654   0.0076   0.0308   0.0019  25.00    3.3
2020/08/17 01:29:56.000    455571.3384   3639410.9747   5200658.8501   1   8   0.0239   0.0356   0.0679   0.0079   0.0320   0.0023  26.00    3.3
2020/08/17 01:29:58.000    455571.3391   3639410.9728   5200658.8524   1   8   0.0256   0.0382   0.0730   0.0086   0.0343   0.0029  28.00    3.2
2020/08/17 01:30:01.000    455571.3238   3639410.9627   5200658.8021   1   8   0.0062   0.0091   0.0124   0.0018   0.0069  -0.0019   1.00    3.3
2020/08/17 01:30:03.000    455571.3247   3639410.9619   5200658.8089   1   8   0.0067   0.0099   0.0145   0.0019   0.0078  -0.0019   3.00    3.4
2020/08/17 01:30:09.000    455571.3186   3639410.9620   5200658.8083   1   8   0.0102   0.0152   0.0264   0.0026   0.0131  -0.0027   9.00    3.4
2020/08/17 01:30:11.000    455571.3209   3639410.9569   5200658.8008   1   8   0.0117   0.0174   0.0310   0.0030   0.0151  -0.0027  11.00    3.4
2020/08/17 01:30:14.000    455571.3222   3639410.9488   5200658.7897   1   8   0.0140   0.0208   0.0382   0.0040   0.0184  -0.0025  14.00    3.5
2020/08/17 01:30:16.000    455571.3187   3639410.9459   5200658.7828   1   8   0.0156   0.0232   0.0431   0.0047   0.0206  -0.0023  16.00    3.5
2020/08/17 01:30:18.000    455571.3183   3639410.9428   5200658.7755   1   8   0.0172   0.0257   0.0480   0.0053   0.0229  -0.0019  18.00    3.5
2020/08/17 01:30:20.000    455571.3179   3639410.9387   5200658.7702   1   8   0.0188   0.0281   0.0530   0.0060   0.0252  -0.0013  20.00    3.5
2020/08/17 01:30:23.000    455571.3226   3639410.9349   5200658.7617   1   8   0.0214   0.0319   0.0605   0.0069   0.0286   0.0013  23.00    3.5
2020/08/17 01:30:25.000    455571.3225   3639410.9344   5200658.7622   1   8   0.0230   0.0344   0.0655   0.0076   0.0309   0.0021  25.00    3.6
2020/08/17 01:30:31.000    455571.3239   3639410.9581   5200658.7992   1   8   0.0061   0.0090   0.0124   0.0019   0.0069  -0.0017   1.00    3.5
2020/08/17 01:30:33.000    455571.3246   3639410.9604   5200658.8001   1   8   0.0066   0.0099   0.0145   0.0019   0.0078  -0.0020   3.00    3.4
2020/08/17 01:30:38.000    455571.3328   3639410.9593   5200658.7929   1   8   0.0095   0.0142   0.0241   0.0023   0.0121  -0.0026   8.00    3.5
2020/08/17 01:30:39.000    455571.3347   3639410.9600   5200658.7923   1   8   0.0102   0.0152   0.0264   0.0025   0.0131  -0.0027   9.00    3.5
2020/08/17 01:30:44.000    455571.3366   3639410.9637   5200658.7908   1   8   0.0140   0.0208   0.0382   0.0040   0.0184  -0.0024  14.00    3.6
2020/08/17 01:30:45.000    455571.3370   3639410.9643   5200658.7892   1   8   0.0148   0.0220   0.0407   0.0044   0.0196  -0.0023  15.00    3.6
2020/08/17 01:30:55.000    455571.3363   3639410.9689   5200658.7702   1   8   0.0231   0.0344   0.0656   0.0075   0.0311   0.0023  25.00    3.7
2020/08/17 01:30:58.000    455571.3331   3639410.9724   5200658.7708   1   8   0.0256   0.0382   0.0732   0.0085   0.0346   0.0031  28.00    3.7
2020/08/17 01:31:00.000    455571.3245   3639410.9595   5200658.8019   1   8   0.0058   0.0089   0.0122   0.0019   0.0067  -0.0016   0.00    3.7
2020/08/17 01:31:03.000    455571.3196   3639410.9624   5200658.8039   1   8   0.0066   0.0099   0.0145   0.0019   0.0078  -0.0020   3.00    3.7
2020/08/17 01:31:06.000    455571.3166   3639410.9628   5200658.8042   1   8   0.0081   0.0122   0.0199   0.0019   0.0102  -0.0024   6.00    3.8
2020/08/17 01:31:08.000    455571.3160   3639410.9614   5200658.8044   1   8   0.0095   0.0142   0.0241   0.0024   0.0121  -0.0025   8.00    3.8
2020/08/17 01:31:11.000    455571.3178   3639410.9604   5200658.8004   1   8   0.0117   0.0174   0.0311   0.0031   0.0152  -0.0025  11.00    3.9
2020/08/17 01:31:13.000    455571.3175   3639410.9629   5200658.8010   1   8   0.0132   0.0197   0.0358   0.0037   0.0174  -0.0024  13.00    3.9
2020/08/17 01:31:16.000    455571.3146   3639410.9630   5200658.7964   1   8   0.0156   0.0232   0.0432   0.0046   0.0208  -0.0020  16.00    3.9
2020/08/17 01:31:19.000    455571.3136   3639410.9619   5200658.7989   1   8   0.0180   0.0269   0.0506   0.0056   0.0242  -0.0012  19.00    4.0
2020/08/17 01:31:21.000    455571.3109   3639410.9657   5200658.8003   1   8   0.0197   0.0294   0.0556   0.0062   0.0265   0.0009  21.00    4.0
2020/08/17 01:31:24.000    455571.3117   3639410.9618   5200658.7887   1   8   0.0222   0.0332   0.0632   0.0072   0.0300   0.0021  24.00    4.1
2020/08/17 01:31:29.000    455571.3133   3639410.9606   5200658.7850   1   8   0.0265   0.0395   0.0758   0.0087   0.0359   0.0035  29.00    4.1
2020/08/17 01:31:32.000    455571.3215   3639410.9634   5200658.8006   1   8   0.0061   0.0093   0.0132   0.0015   0.0072  -0.0017   2.00    4.1
2020/08/17 01:31:37.000    455571.3258   3639410.9668   5200658.8004   1   8   0.0088   0.0132   0.0220   0.0021   0.0111  -0.0024   7.00    4.1
2020/08/17 01:31:39.000    455571.3269   3639410.9684   5200658.8011   1   8   0.0102   0.0152   0.0264   0.0026   0.0131  -0.0025   9.00    4.1
2020/08/17 01:31:52.000    455571.3272   3639410.9857   5200658.8189   1   8   0.0205   0.0307   0.0582   0.0065   0.0278   0.0016  22.00    4.1
2020/08/17 01:31:54.000    455571.3268   3639410.9864   5200658.8231   1   8   0.0222   0.0332   0.0633   0.0071   0.0301   0.0023  24.00    4.1
2020/08/17 01:31:57.000    455571.3282   3639410.9874   5200658.8262   1   8   0.0248   0.0370   0.0708   0.0080   0.0337   0.0031  27.00    4.1
2020/08/17 01:32:00.000    455571.3243   3639410.9649   5200658.8015   1   7   0.0065   0.0105   0.0123   0.0044   0.0075   0.0019   0.00    8.7
2020/08/17 01:32:02.000    455571.3238   3639410.9688   5200658.8082   1   7   0.0069   0.0111   0.0134   0.0046   0.0080   0.0018   2.00    9.5
2020/08/17 01:32:05.000    455571.3237   3639410.9707   5200658.8128   1   7   0.0085   0.0134   0.0180   0.0057   0.0100   0.0016   5.00    9.8
2020/08/17 01:32:08.000    455571.3252   3639410.9746   5200658.8172   1   7   0.0108   0.0167   0.0242   0.0073   0.0127   0.0019   8.00   10.0
2020/08/17 01:32:09.000    455571.3276   3639410.9762   5200658.8185   1   7   0.0117   0.0179   0.0265   0.0079   0.0137   0.0019   9.00   10.1
2020/08/17 01:32:11.000    455571.3285   3639410.9795   5200658.8193   1   7   0.0135   0.0205   0.0312   0.0092   0.0158   0.0024  11.00   10.1
2020/08/17 01:32:16.000    455571.3267   3639410.9894   5200658.8311   1   7   0.0182   0.0275   0.0433   0.0126   0.0214   0.0034  16.00   10.1
2020/08/17 01:32:19.000    455571.3237   3639410.9935   5200658.8341   1   7   0.0211   0.0318   0.0508   0.0147   0.0249   0.0042  19.00   10.1
2020/08/17 01:32:22.000    455571.3262   3639410.9979   5200658.8341   1   7   0.0241   0.0362   0.0583   0.0169   0.0284   0.0049  22.00   10.2
2020/08/17 01:32:24.000    455571.3272   3639410.9956   5200658.8316   1   7   0.0262   0.0392   0.0634   0.0184   0.0308   0.0054  24.00   10.2
2020/08/17 01:32:25.000    455571.3284   3639410.9977   5200658.8303   1   7   0.0272   0.0407   0.0659   0.0191   0.0320   0.0056  25.00   10.2
2020/08/17 01:32:28.000    455571.3321   3639410.9988   5200658.8284   1   7   0.0302   0.0452   0.0735   0.0213   0.0356   0.0064  28.00   10.1
2020/08/17 01:32:30.000    455571.3263   3639410.9597   5200658.7960   1   7   0.0065   0.0105   0.0123   0.0044   0.0075   0.0020   0.00   10.6
2020/08/17 01:32:33.000    455571.3284   3639410.9615   5200658.7978   1   7   0.0073   0.0117   0.0146   0.0049   0.0085   0.0017   3.00   10.7
2020/08/17 01:32:35.000    455571.3298   3639410.9624   5200658.7943   1   7   0.0086   0.0134   0.0180   0.0057   0.0100   0.0018   5.00   10.4
2020/08/17 01:32:38.000    455571.3306   3639410.9609   5200658.7922   1   7   0.0108   0.0167   0.0242   0.0072   0.0128   0.0019   8.00   10.3
2020/08/17 01:32:41.000    455571.3317   3639410.9625   5200658.7880   1   7   0.0135   0.0205   0.0312   0.0092   0.0159   0.0025  11.00    9.9
2020/08/17 01:32:43.000    455571.3346   3639410.9619   5200658.7850   1   7   0.0153   0.0233   0.0360   0.0105   0.0181   0.0029  13.00    9.5
2020/08/17 01:32:46.000    455571.3387   3639410.9654   5200658.7818   1   7   0.0182   0.0275   0.0434   0.0126   0.0215   0.0036  16.00    9.2
2020/08/17 01:32:48.000    455571.3407   3639410.9606   5200658.7742   1   7   0.0201   0.0304   0.0483   0.0140   0.0238   0.0041  18.00    9.1
2020/08/17 01:32:54.000    455571.3415   3639410.9535   5200658.7651   1   7   0.0261   0.0393   0.0634   0.0183   0.0310   0.0056  24.00    8.9
2020/08/17 01:32:59.000    455571.3382   3639410.9460   5200658.7629   1   7   0.0312   0.0468   0.0761   0.0220   0.0370   0.0069  29.00    8.8
2020/08/17 01:33:01.000    455571.3236   3639410.9612   5200658.7964   1   7   0.0066   0.0106   0.0126   0.0045   0.0076   0.0022   1.00   10.0
2020/08/17 01:33:04.000    455571.3189   3639410.9571   5200658.7952   1   7   0.0078   0.0124   0.0162   0.0052   0.0092   0.0019   4.00   11.2
2020/08/17 01:33:06.000    455571.3242   3639410.9456   5200658.7857   1   7   0.0092   0.0144   0.0200   0.0061   0.0109   0.0018   6.00   11.7
2020/08/17 01:33:09.000    455571.3336   3639410.9253   5200658.7704   1   7   0.0117   0.0179   0.0265   0.0078   0.0138   0.0022   9.00   11.8
2020/08/17 01:33:12.000    455571.3411   3639410.9074   5200658.7580   1   7   0.0144   0.0219   0.0336   0.0098   0.0170   0.0029  12.00   11.7
2020/08/17 01:33:14.000    455571.3456   3639410.9014   5200658.7559   1   7   0.0162   0.0247   0.0385   0.0112   0.0193   0.0033  14.00   11.4
2020/08/17 01:33:16.000    455571.3465   3639410.8969   5200658.7511   1   7   0.0182   0.0275   0.0434   0.0126   0.0216   0.0038  16.00   11.2
2020/08/17 01:33:19.000    455571.3502   3639410.8889   5200658.7486   1   7   0.0211   0.0319   0.0509   0.0147   0.0251   0.0046  19.00   11.1
2020/08/17 01:33:24.000    455571.3548   3639410.8837   5200658.7468   1   7   0.0261   0.0393   0.0635   0.0183   0.0311   0.0059  24.00   11.1
2020/08/17 01:33:26.000    455571.3531   3639410.8825   5200658.7501   1   7   0.0281   0.0424   0.0686   0.0198   0.0336   0.0064  26.00   11.2
2020/08/17 01:33:29.000    455571.3544   3639410.8817   5200658.7511   1   7   0.0312   0.0469   0.0762   0.0220   0.0372   0.0072  29.00   11.1
2020/08/17 01:33:32.000    455571.3278   3639410.9610   5200658.8041   1   7   0.0068   0.0110   0.0134   0.0045   0.0079   0.0019   2.00   11.4
2020/08/17 01:33:35.000    455571.3270   3639410.9645   5200658.8079   1   7   0.0085   0.0134   0.0180   0.0056   0.0100   0.0020   5.00   11.6
2020/08/17 01:33:37.000    455571.3263   3639410.9679   5200658.8106   1   7   0.0100   0.0155   0.0221   0.0066   0.0118   0.0022   7.00   11.7
2020/08/17 01:33:40.000    455571.3210   3639410.9756   5200658.8193   1   7   0.0125   0.0192   0.0289   0.0085   0.0149   0.0026  10.00   11.7
2020/08/17 01:33:43.000    455571.3245   3639410.9755   5200658.8225   1   7   0.0153   0.0233   0.0361   0.0105   0.0182   0.0033  13.00   11.8
2020/08/17 01:33:44.000    455571.3229   3639410.9765   5200658.8234   1   7   0.0162   0.0247   0.0385   0.0112   0.0194   0.0035  14.00   11.8
2020/08/17 01:33:46.000    455571.3229   3639410.9783   5200658.8296   1   7   0.0182   0.0275   0.0434   0.0126   0.0217   0.0040  16.00   11.9
2020/08/17 01:33:48.000    455571.3231   3639410.9764   5200658.8329   1   7   0.0201   0.0305   0.0484   0.0140   0.0241   0.0045  18.00   12.0
2020/08/17 01:33:54.000    455571.3259   3639410.9801   5200658.8337   1   7   0.0261   0.0394   0.0636   0.0183   0.0313   0.0061  24.00   12.1
2020/08/17 01:33:56.000    455571.3238   3639410.9800   5200658.8340   1   7   0.0281   0.0424   0.0686   0.0197   0.0337   0.0066  26.00   12.2
2020/08/17 01:33:59.000    455571.3252   3639410.9827   5200658.8364   1   7   0.0312   0.0470   0.0763   0.0219   0.0374   0.0074  29.00   12.2
2020/08/17 01:34:01.000    455571.3289   3639410.9705   5200658.8052   1   7   0.0066   0.0106   0.0126   0.0045   0.0076   0.0020   1.00   12.4
2020/08/17 01:34:03.000    455571.3263   3639410.9676   5200658.8119   1   7   0.0073   0.0116   0.0147   0.0048   0.0085   0.0021   3.00   12.7
2020/08/17 01:34:04.000    455571.3279   3639410.9715   5200658.8153   1   7   0.0079   0.0124   0.0162   0.0052   0.0092   0.0021   4.00   13.0
2020/08/17 01:34:06.000    455571.3244   3639410.9718   5200658.8193   1   7   0.0092   0.0144   0.0200   0.0061   0.0109   0.0022   6.00   13.1
2020/08/17 01:34:09.000    455571.3251   3639410.9798   5200658.8280   1   7   0.0116   0.0179   0.0266   0.0078   0.0139   0.0026   9.00   13.0
2020/08/17 01:34:11.000    455571.3216   3639410.9791   5200658.8346   1   7   0.0134   0.0206   0.0313   0.0091   0.0160   0.0029  11.00   12.9
2020/08/17 01:34:13.000    455571.3217   3639410.9866   5200658.8428   1   7   0.0153   0.0233   0.0361   0.0105   0.0183   0.0034  13.00   12.7
2020/08/17 01:34:16.000    455571.3210   3639410.9903   5200658.8604   1   7   0.0181   0.0276   0.0435   0.0125   0.0218   0.0042  16.00   12.5
2020/08/17 01:34:18.000    455571.3213   3639410.9944   5200658.8653   1   7   0.0201   0.0305   0.0485   0.0140   0.0242   0.0047  18.00   12.3
2020/08/17 01:34:20.000    455571.3224   3639410.9993   5200658.8754   1   7   0.0221   0.0335   0.0535   0.0154   0.0266   0.0052  20.00   12.1
2020/08/17 01:34:22.000    455571.3223   3639411.0038   5200658.8786   1   7   0.0241   0.0365   0.0585   0.0168   0.0290   0.0058  22.00   12.0
2020/08/17 01:34:26.000    455571.3170   3639411.0112   5200658.8940   1   7   0.0281   0.0425   0.0687   0.0197   0.0339   0.0068  26.00   11.9
2020/08/17 01:34:29.000    455571.3155   3639411.0183   5200658.9058   1   7   0.0312   0.0471   0.0764   0.0219   0.0376   0.0077  29.00   11.7
2020/08/17 01:34:31.000    455571.3234   3639410.9632   5200658.8044   1   7   0.0066   0.0106   0.0126   0.0044   0.0076   0.0022   1.00   11.7
2020/08/17 01:34:33.000    455571.3213   3639410.9654   5200658.8112   1   7   0.0073   0.0116   0.0146   0.0048   0.0085   0.0023   3.00   11.5
2020/08/17 01:34:35.000    455571.3167   3639410.9668   5200658.8151   1   7   0.0085   0.0133   0.0180   0.0056   0.0100   0.0022   5.00   11.2
2020/08/17 01:34:42.000    455571.3213   3639410.9710   5200658.8223   1   7   0.0143   0.0219   0.0337   0.0098   0.0172   0.0033  12.00   11.0
2020/08/17 01:34:44.000    455571.3263   3639410.9718   5200658.8267   1   7   0.0162   0.0247   0.0386   0.0111   0.0195   0.0038  14.00   11.0
2020/08/17 01:34:46.000    455571.3286   3639410.9742   5200658.8290   1   7   0.0181   0.0276   0.0435   0.0125   0.0219   0.0043  16.00   11.0
2020/08/17 01:34:53.000    455571.3310   3639410.9838   5200658.8455   1   7   0.0251   0.0380   0.0611   0.0175   0.0304   0.0062  23.00   11.1
2020/08/17 01:34:55.000    455571.3304   3639410.9881   5200658.8504   1   7   0.0271   0.0411   0.0662   0.0190   0.0328   0.0068  25.00   11.1
2020/08/17 01:34:57.000    455571.3296   3639410.9881   5200658.8548   1   7   0.0291   0.0441   0.0713   0.0204   0.0353   0.0073  27.00   11.0
2020/08/17 01:34:59.000    455571.3282   3639410.9964   5200658.8631   1   7   0.0311   0.0472   0.0764   0.0219   0.0378   0.0079  29.00   11.0
2020/08/17 01:35:02.000    455571.3250   3639410.9638   5200658.8081   1   7   0.0069   0.0109   0.0134   0.0046   0.0080   0.0024   2.00   11.2
2020/08/17 01:35:05.000    455571.3263   3639410.9705   5200658.8169   1   7   0.0085   0.0133   0.0180   0.0056   0.0100   0.0022   5.00   11.3
2020/08/17 01:35:09.000    455571.3279   3639410.9715   5200658.8259   1   7   0.0116   0.0179   0.0266   0.0078   0.0139   0.0028   9.00   11.3
2020/08/17 01:35:12.000    455571.3291   3639410.9751   5200658.8296   1   7   0.0143   0.0220   0.0337   0.0098   0.0173   0.0034  12.00   11.3
2020/08/17 01:35:17.000    455571.3252   3639410.9810   5200658.8337   1   7   0.0191   0.0291   0.0460   0.0132   0.0232   0.0048  17.00   11.3
2020/08/17 01:35:19.000    455571.3207   3639410.9814   5200658.8350   1   7   0.0210   0.0321   0.0511   0.0146   0.0256   0.0053  19.00   11.3
2020/08/17 01:35:21.000    455571.3198   3639410.9793   5200658.8280   1   7   0.0230   0.0351   0.0561   0.0161   0.0281   0.0059  21.00   11.2
2020/08/17 01:35:29.000    455571.3234   3639410.9774   5200658.8149   1   7   0.0311   0.0473   0.0765   0.0219   0.0380   0.0081  29.00   11.2
2020/08/17 01:35:31.000    455571.3237   3639410.9582   5200658.7959   1   8   0.0060   0.0089   0.0124   0.0017   0.0068  -0.0007   1.00    5.9
2020/08/17 01:35:33.000    455571.3214   3639410.9585   5200658.7944   1   8   0.0065   0.0098   0.0145   0.0019   0.0077  -0.0011   3.00    9.9
2020/08/17 01:35:34.000    455571.3200   3639410.9605   5200658.7968   1   8   0.0071   0.0104   0.0161   0.0021   0.0084  -0.0009   4.00   13.3
2020/08/17 01:35:37.000    455571.3186   3639410.9601   5200658.7901   1   8   0.0088   0.0131   0.0220   0.0023   0.0112  -0.0016   7.00   13.3
2020/08/17 01:35:43.000    455571.3090   3639410.9578   5200658.7787   1   8   0.0132   0.0197   0.0361   0.0038   0.0178  -0.0009  13.00   13.1
2020/08/17 01:35:49.000    455571.3021   3639410.9547   5200658.7773   1   8   0.0181   0.0271   0.0510   0.0053   0.0249   0.0019  19.00   12.8
2020/08/17 01:35:50.000    455571.3014   3639410.9536   5200658.7740   1   8   0.0189   0.0283   0.0535   0.0056   0.0261   0.0022  20.00   12.4
2020/08/17 01:35:52.000    455571.3008   3639410.9511   5200658.7728   1   8   0.0206   0.0309   0.0586   0.0061   0.0285   0.0026  22.00   12.1
2020/08/17 01:35:56.000    455571.2920   3639410.9540   5200658.7775   1   8   0.0240   0.0360   0.0688   0.0072   0.0334   0.0035  26.00   11.8
2020/08/17 01:35:59.000    455571.2845   3639410.9607   5200658.7798   1   8   0.0266   0.0399   0.0765   0.0080   0.0371   0.0041  29.00   11.6
2020/08/17 01:36:01.000    455571.4776   3639411.2751   5200658.9115   1   8   0.0061   0.0089   0.0125   0.0021   0.0068   0.0009   1.00   10.3
2020/08/17 01:36:03.000    455571.4515   3639411.2202   5200658.8899   1   8   0.0066   0.0098   0.0146   0.0020   0.0077   0.0002   3.00    7.7
2020/08/17 01:36:09.000    455571.4797   3639411.2513   5200658.8806   1   8   0.0102   0.0151   0.0266   0.0027   0.0133  -0.0014   9.00   10.3
2020/08/17 01:36:12.000    455571.4884   3639411.2599   5200658.8775   1   8   0.0124   0.0185   0.0337   0.0035   0.0167  -0.0011  12.00    3.2
2020/08/17 01:36:14.000    455571.5219   3639411.2860   5200658.8824   2   8   0.0378   0.0650   0.0500   0.0161   0.0417   0.0149  14.00    1.6
2020/08/17 01:36:15.000    455571.5208   3639411.2790   5200658.8867   2   8   0.0381   0.0652   0.0519   0.0161   0.0422   0.0149  15.00    1.3
2020/08/17 01:36:18.000    455571.5239   3639411.2743   5200658.8951   2   8   0.0390   0.0664   0.0580   0.0163   0.0439   0.0149  18.00    1.8
2020/08/17 01:36:21.000    455571.5268   3639411.2690   5200658.9018   2   8   0.0401   0.0678   0.0644   0.0165   0.0459   0.0150  21.00    2.4
2020/08/17 01:36:23.000    455571.4618   3639411.1850   5200658.8888   1   8   0.0215   0.0322   0.0612   0.0064   0.0298   0.0029  23.00    3.2
2020/08/17 01:36:25.000    455571.4626   3639411.1833   5200658.8850   1   8   0.0232   0.0348   0.0663   0.0069   0.0323   0.0033  25.00    4.0
2020/08/17 01:36:33.000    455571.2788   3639410.7839   5200658.7515   2   8   0.0350   0.0613   0.0345   0.0157   0.0373   0.0150   3.00    2.1
2020/08/17 01:36:36.000    455571.2216   3639410.7486   5200658.7540   1   8   0.0081   0.0121   0.0199   0.0021   0.0102  -0.0014   6.00   11.5
2020/08/17 01:36:38.000    455571.2135   3639410.7461   5200658.7608   1   8   0.0095   0.0141   0.0243   0.0026   0.0122  -0.0013   8.00   21.2
2020/08/17 01:36:39.000    455571.2117   3639410.7436   5200658.7644   1   8   0.0102   0.0151   0.0266   0.0028   0.0133  -0.0013   9.00    7.4
2020/08/17 01:36:41.000    455571.2071   3639410.7406   5200658.7673   1   8   0.0116   0.0174   0.0313   0.0032   0.0155  -0.0010  11.00    3.4
2020/08/17 01:36:43.000    455571.3059   3639410.7757   5200658.7757   2   8   0.0364   0.0630   0.0473   0.0156   0.0402   0.0146  13.00    2.1
2020/08/17 01:36:46.000    455571.3116   3639410.7696   5200658.7701   2   8   0.0372   0.0641   0.0531   0.0157   0.0418   0.0146  16.00    1.5
2020/08/17 01:36:48.000    455571.3139   3639410.7661   5200658.7693   2   8   0.0379   0.0649   0.0572   0.0158   0.0431   0.0146  18.00    1.2
2020/08/17 01:36:50.000    455571.3177   3639410.7637   5200658.7635   2   8   0.0386   0.0658   0.0615   0.0160   0.0444   0.0147  20.00    1.1
2020/08/17 01:36:57.000    455571.3178   3639410.7574   5200658.7634   2   8   0.0418   0.0700   0.0775   0.0166   0.0499   0.0149  27.00    1.0
2020/08/17 01:36:59.000    455571.3224   3639410.7564   5200658.7625   2   8   0.0428   0.0713   0.0822   0.0168   0.0516   0.0150  29.00    1.1
2020/08/17 01:37:02.000    455571.2312   3639410.7638   5200658.7331   1   8   0.0063   0.0092   0.0133   0.0020   0.0072   0.0008   2.00    3.4
2020/08/17 01:37:04.000    455571.2257   3639410.7547   5200658.7401   1   8   0.0070   0.0104   0.0161   0.0022   0.0084   0.0005   4.00   20.7
2020/08/17 01:37:09.000    455571.2137   3639410.7379   5200658.7540   1   8   0.0101   0.0151   0.0266   0.0029   0.0133  -0.0011   9.00   19.1
2020/08/17 01:37:11.000    455571.2129   3639410.7330   5200658.7597   1   8   0.0116   0.0174   0.0313   0.0032   0.0156  -0.0008  11.00    9.6
2020/08/17 01:37:13.000    455571.2109   3639410.7270   5200658.7622   1   8   0.0132   0.0197   0.0361   0.0037   0.0179   0.0008  13.00    5.5
2020/08/17 01:37:15.000    455571.2120   3639410.7270   5200658.7656   1   8   0.0148   0.0221   0.0410   0.0042   0.0202   0.0012  15.00    3.6
2020/08/17 01:37:18.000    455571.3497   3639410.6885   5200658.7643   2   8   0.0369   0.0636   0.0566   0.0155   0.0423   0.0144  18.00    2.7
2020/08/17 01:37:20.000    455571.3551   3639410.6877   5200658.7703   2   8   0.0377   0.0646   0.0610   0.0156   0.0437   0.0144  20.00    2.2
2020/08/17 01:37:25.000    455571.3602   3639410.6921   5200658.7760   2   8   0.0399   0.0675   0.0724   0.0160   0.0476   0.0146  25.00    1.9
2020/08/17 01:37:27.000    455571.3648   3639410.6907   5200658.7734   2   8   0.0409   0.0688   0.0771   0.0162   0.0493   0.0146  27.00    1.7
2020/08/17 01:37:30.000    455571.3849   3639410.7232   5200658.7334   2   8   0.0326   0.0583   0.0312   0.0150   0.0352   0.0144   0.00    1.3
2020/08/17 01:37:32.000    455571.3972   3639410.7147   5200658.7382   2   8   0.0325   0.0582   0.0313   0.0149   0.0351   0.0143   2.00    1.2
2020/08/17 01:37:33.000    455571.2657   3639410.8215   5200658.7583   1   8   0.0065   0.0097   0.0146   0.0020   0.0077   0.0007   3.00    3.0
2020/08/17 01:37:35.000    455571.2601   3639410.8206   5200658.7645   1   8   0.0075   0.0112   0.0179   0.0020   0.0093  -0.0007   5.00    6.9
2020/08/17 01:37:37.000    455571.2571   3639410.8167   5200658.7679   1   8   0.0087   0.0130   0.0221   0.0025   0.0112  -0.0009   7.00   12.5
2020/08/17 01:37:40.000    455571.2554   3639410.8100   5200658.7720   1   8   0.0109   0.0162   0.0289   0.0030   0.0145  -0.0010  10.00   17.1
2020/08/17 01:37:45.000    455571.2497   3639410.8021   5200658.7762   1   8   0.0148   0.0222   0.0411   0.0042   0.0203   0.0014  15.00   19.2
2020/08/17 01:37:47.000    455571.2489   3639410.8007   5200658.7778   1   8   0.0164   0.0246   0.0460   0.0047   0.0227   0.0018  17.00   19.3
2020/08/17 01:37:49.000    455571.2456   3639410.7983   5200658.7801   1   8   0.0181   0.0272   0.0511   0.0052   0.0251   0.0023  19.00   18.1
2020/08/17 01:37:53.000    455571.2437   3639410.7918   5200658.7725   1   8   0.0215   0.0323   0.0612   0.0062   0.0301   0.0031  23.00   17.0
2020/08/17 01:37:55.000    455571.2436   3639410.7936   5200658.7745   1   8   0.0232   0.0349   0.0663   0.0067   0.0325   0.0035  25.00   15.9
2020/08/17 01:37:57.000    455571.2412   3639410.7872   5200658.7696   1   8   0.0249   0.0375   0.0714   0.0072   0.0350   0.0039  27.00   14.9
2020/08/17 01:38:00.000    455571.2629   3639410.8289   5200658.7558   1   8   0.0059   0.0087   0.0122   0.0018   0.0066   0.0012   0.00    6.8
2020/08/17 01:38:02.000    455571.2633   3639410.8263   5200658.7550   1   8   0.0061   0.0092   0.0133   0.0017   0.0071   0.0012   2.00    3.1
2020/08/17 01:38:05.000    455571.4498   3639410.6814   5200658.7464   2   8   0.0314   0.0569   0.0322   0.0146   0.0346   0.0138   5.00    1.9
2020/08/17 01:38:07.000    455571.4509   3639410.6740   5200658.7419   2   8   0.0316   0.0572   0.0345   0.0146   0.0351   0.0136   7.00    1.4
2020/08/17 01:38:10.000    455571.4483   3639410.6633   5200658.7324   2   8   0.0322   0.0579   0.0392   0.0146   0.0362   0.0136  10.00    1.1
2020/08/17 01:38:12.000    455571.4482   3639410.6529   5200658.7247   2   8   0.0327   0.0585   0.0428   0.0146   0.0371   0.0136  12.00    1.1
2020/08/17 01:38:17.000    455571.4480   3639410.6458   5200658.7215   2   8   0.0344   0.0606   0.0530   0.0149   0.0401   0.0136  17.00    1.1
2020/08/17 01:38:19.000    455571.4499   3639410.6500   5200658.7269   2   8   0.0352   0.0615   0.0574   0.0150   0.0415   0.0137  19.00    1.2
2020/08/17 01:38:22.000    455571.4478   3639410.6543   5200658.7270   2   8   0.0365   0.0632   0.0643   0.0152   0.0438   0.0138  22.00    1.3
2020/08/17 01:38:24.000    455571.4468   3639410.6611   5200658.7257   2   8   0.0374   0.0644   0.0689   0.0154   0.0454   0.0138  24.00    1.3
2020/08/17 01:38:25.000    455571.4474   3639410.6688   5200658.7233   2   8   0.0379   0.0650   0.0713   0.0154   0.0462   0.0138  25.00    1.4
2020/08/17 01:38:28.000    455571.4491   3639410.6721   5200658.7221   2   8   0.0395   0.0671   0.0784   0.0157   0.0489   0.0140  28.00    1.4
2020/08/17 01:38:30.000    455571.4721   3639410.7049   5200658.7554   2   8   0.0302   0.0553   0.0287   0.0144   0.0332   0.0136   0.00    1.3
2020/08/17 01:38:32.000    455571.4769   3639410.7011   5200658.7605   2   8   0.0301   0.0553   0.0290   0.0143   0.0332   0.0135   2.00    1.3
2020/08/17 01:38:37.000    455571.4697   3639410.6879   5200658.7617   2   8   0.0307   0.0559   0.0338   0.0143   0.0343   0.0134   7.00    1.3
2020/08/17 01:38:40.000    455571.4685   3639410.6873   5200658.7660   2   8   0.0313   0.0567   0.0385   0.0143   0.0355   0.0133  10.00    1.3
2020/08/17 01:38:42.000    455571.4663   3639410.6962   5200658.7719   2   8   0.0318   0.0573   0.0422   0.0144   0.0364   0.0133  12.00    1.3
2020/08/17 01:38:45.000    455571.4570   3639410.7022   5200658.7847   2   8   0.0328   0.0584   0.0483   0.0145   0.0381   0.0133  15.00    1.2
2020/08/17 01:38:48.000    455571.4526   3639410.7054   5200658.7849   2   8   0.0339   0.0598   0.0548   0.0147   0.0401   0.0134  18.00    1.1
2020/08/17 01:38:51.000    455571.4519   3639410.7087   5200658.7804   2   8   0.0352   0.0615   0.0615   0.0149   0.0424   0.0135  21.00    1.1
2020/08/17 01:38:56.000    455571.4550   3639410.7099   5200658.7690   2   8   0.0377   0.0648   0.0733   0.0153   0.0467   0.0137  26.00    1.1
2020/08/17 01:38:59.000    455571.4570   3639410.7129   5200658.7627   2   8   0.0394   0.0669   0.0805   0.0156   0.0494   0.0138  29.00    1.0
2020/08/17 01:39:04.000    455571.4811   3639410.7172   5200658.7577   2   8   0.0296   0.0545   0.0299   0.0141   0.0330   0.0134   4.00    1.2
2020/08/17 01:39:12.000    455571.4840   3639410.7035   5200658.7667   2   8   0.0314   0.0565   0.0420   0.0141   0.0360   0.0132  12.00    1.4
2020/08/17 01:39:14.000    455571.4813   3639410.7072   5200658.7760   2   8   0.0320   0.0573   0.0459   0.0142   0.0372   0.0132  14.00    1.5
2020/08/17 01:39:16.000    455571.4802   3639410.7112   5200658.7833   2   8   0.0327   0.0581   0.0502   0.0143   0.0384   0.0133  16.00    1.6
2020/08/17 01:39:17.000    455571.4790   3639410.7131   5200658.7829   2   8   0.0330   0.0585   0.0523   0.0143   0.0391   0.0133  17.00    1.7
2020/08/17 01:39:22.000    455571.4839   3639410.7152   5200658.7902   2   8   0.0353   0.0614   0.0637   0.0147   0.0429   0.0134  22.00    1.7
2020/08/17 01:39:25.000    455571.4848   3639410.7174   5200658.7965   2   8   0.0368   0.0634   0.0708   0.0149   0.0455   0.0135  25.00    1.8
2020/08/17 01:39:27.000    455571.4879   3639410.7181   5200658.7974   2   8   0.0379   0.0647   0.0755   0.0151   0.0473   0.0136  27.00    1.8
2020/08/17 01:39:29.000    455571.4890   3639410.7227   5200658.8023   2   8   0.0390   0.0662   0.0804   0.0153   0.0492   0.0137  29.00    1.9
2020/08/17 01:39:31.000    455571.4792   3639410.7466   5200658.7654   2   8   0.0287   0.0533   0.0276   0.0139   0.0320   0.0133   1.00    2.7
2020/08/17 01:39:32.000    455571.3004   3639410.8957   5200658.7847   1   8   0.0062   0.0092   0.0133   0.0021   0.0072   0.0011   2.00    3.9
2020/08/17 01:39:34.000    455571.3010   3639410.8919   5200658.7864   1   8   0.0069   0.0104   0.0162   0.0021   0.0084   0.0011   4.00    5.2
2020/08/17 01:39:36.000    455571.2973   3639410.8914   5200658.7923   1   8   0.0081   0.0120   0.0200   0.0024   0.0102   0.0008   6.00    6.5
2020/08/17 01:39:40.000    455571.2910   3639410.8901   5200658.7998   1   8   0.0109   0.0162   0.0289   0.0031   0.0145   0.0011  10.00    7.3
2020/08/17 01:39:42.000    455571.2902   3639410.8878   5200658.8019   1   8   0.0124   0.0186   0.0337   0.0034   0.0169   0.0013  12.00    8.0
2020/08/17 01:39:44.000    455571.2895   3639410.8882   5200658.8005   1   8   0.0140   0.0210   0.0386   0.0039   0.0192   0.0017  14.00    8.7
2020/08/17 01:39:46.000    455571.2886   3639410.8869   5200658.8018   1   8   0.0156   0.0235   0.0435   0.0043   0.0217   0.0020  16.00    9.2
2020/08/17 01:39:48.000    455571.2862   3639410.8880   5200658.8057   1   8   0.0173   0.0260   0.0485   0.0047   0.0241   0.0024  18.00    9.7
2020/08/17 01:39:54.000    455571.2790   3639410.8928   5200658.8047   1   8   0.0224   0.0337   0.0637   0.0061   0.0316   0.0034  24.00   10.0
2020/08/17 01:39:56.000    455571.2782   3639410.8930   5200658.8060   1   8   0.0241   0.0363   0.0688   0.0066   0.0341   0.0038  26.00   10.4
2020/08/17 01:39:58.000    455571.2767   3639410.8954   5200658.8061   1   8   0.0258   0.0389   0.0739   0.0070   0.0366   0.0041  28.00   10.6
2020/08/17 01:40:00.000    455571.4749   3639410.7014   5200658.7583   2   9   0.0277   0.0520   0.0265   0.0138   0.0312   0.0130   0.00    1.9
2020/08/17 01:40:04.000    455571.4781   3639410.6857   5200658.7515   2   9   0.0278   0.0522   0.0277   0.0138   0.0315   0.0131   4.00    2.8
2020/08/17 01:40:06.000    455571.2970   3639410.8897   5200658.7801   1   9   0.0079   0.0120   0.0164   0.0028   0.0096   0.0044   6.00    3.5
2020/08/17 01:40:08.000    455571.2905   3639410.8888   5200658.7825   1   9   0.0092   0.0140   0.0193   0.0032   0.0114   0.0054   8.00    3.9
2020/08/17 01:40:10.000    455571.2860   3639410.8889   5200658.7816   1   9   0.0106   0.0161   0.0224   0.0037   0.0133   0.0066  10.00    4.1
2020/08/17 01:40:12.000    455571.2855   3639410.8895   5200658.7774   1   9   0.0121   0.0184   0.0255   0.0042   0.0154   0.0078  12.00    4.2
2020/08/17 01:40:16.000    455571.2869   3639410.8887   5200658.7814   1   9   0.0153   0.0233   0.0322   0.0053   0.0196   0.0102  16.00    4.2
2020/08/17 01:40:18.000    455571.2869   3639410.8887   5200658.7813   1   9   0.0169   0.0258   0.0355   0.0059   0.0218   0.0114  18.00    4.2
2020/08/17 01:40:20.000    455571.2865   3639410.8914   5200658.7845   1   9   0.0185   0.0283   0.0390   0.0065   0.0240   0.0126  20.00    4.2
2020/08/17 01:40:22.000    455571.2894   3639410.8925   5200658.7869   1   9   0.0202   0.0308   0.0424   0.0070   0.0262   0.0139  22.00    4.2
2020/08/17 01:40:24.000    455571.2911   3639410.8914   5200658.7881   1   9   0.0218   0.0334   0.0459   0.0076   0.0284   0.0151  24.00    4.2
2020/08/17 01:40:28.000    455571.2938   3639410.8909   5200658.7927   1   9   0.0252   0.0386   0.0530   0.0088   0.0329   0.0176  28.00    4.2
2020/08/17 01:40:30.000    455571.2955   3639410.8969   5200658.7762   1   9   0.0057   0.0086   0.0109   0.0023   0.0063   0.0030   0.00    4.5
2020/08/17 01:40:32.000    455571.2993   3639410.8946   5200658.7768   1   9   0.0060   0.0091   0.0117   0.0021   0.0068   0.0028   2.00    4.5
2020/08/17 01:40:34.000    455571.2979   3639410.8898   5200658.7755   1   9   0.0069   0.0103   0.0137   0.0025   0.0079   0.0036   4.00    4.4
2020/08/17 01:40:36.000    455571.2989   3639410.8869   5200658.7731   1   9   0.0079   0.0120   0.0164   0.0027   0.0095   0.0044   6.00    4.3
2020/08/17 01:40:44.000    455571.2967   3639410.8828   5200658.7620   1   9   0.0137   0.0208   0.0288   0.0047   0.0175   0.0090  14.00    4.2
2020/08/17 01:40:46.000    455571.2990   3639410.8830   5200658.7625   1   9   0.0153   0.0233   0.0322   0.0053   0.0197   0.0102  16.00    4.2
2020/08/17 01:40:48.000    455571.3011   3639410.8844   5200658.7630   1   9   0.0169   0.0258   0.0356   0.0059   0.0218   0.0114  18.00    4.2
2020/08/17 01:40:50.000    455571.3003   3639410.8845   5200658.7586   1   9   0.0185   0.0283   0.0390   0.0064   0.0240   0.0127  20.00    4.2
2020/08/17 01:40:55.000    455571.2994   3639410.8869   5200658.7602   1   9   0.0227   0.0347   0.0478   0.0079   0.0296   0.0157  25.00    4.2
2020/08/17 01:40:57.000    455571.2978   3639410.8881   5200658.7586   1   9   0.0244   0.0373   0.0513   0.0084   0.0318   0.0170  27.00    4.1
2020/08/17 01:41:00.000    455571.2967   3639410.8988   5200658.7756   1   9   0.0058   0.0086   0.0109   0.0024   0.0064   0.0030   0.00    4.0
2020/08/17 01:41:01.000    455571.2955   3639410.9001   5200658.7758   1   9   0.0058   0.0087   0.0111   0.0024   0.0065   0.0030   1.00    3.8
2020/08/17 01:41:11.000    455571.2807   3639410.8857   5200658.7615   1   9   0.0114   0.0173   0.0240   0.0040   0.0144   0.0072  11.00    3.7
2020/08/17 01:41:13.000    455571.2757   3639410.8852   5200658.7649   1   9   0.0129   0.0196   0.0272   0.0045   0.0165   0.0084  13.00    3.5
2020/08/17 01:41:14.000    455571.2759   3639410.8858   5200658.7645   1   9   0.0137   0.0208   0.0289   0.0047   0.0176   0.0090  14.00    3.3
2020/08/17 01:41:15.000    455571.2732   3639410.8848   5200658.7663   1   9   0.0145   0.0221   0.0305   0.0050   0.0186   0.0096  15.00    3.2
2020/08/17 01:41:18.000    455571.2725   3639410.8840   5200658.7666   1   9   0.0169   0.0258   0.0356   0.0058   0.0219   0.0115  18.00    3.1
2020/08/17 01:41:20.000    455571.2685   3639410.8858   5200658.7685   1   9   0.0185   0.0283   0.0391   0.0064   0.0241   0.0127  20.00    3.0
2020/08/17 01:41:23.000    455571.4482   3639410.5747   5200658.7034   2   9   0.0327   0.0582   0.0494   0.0149   0.0397   0.0189  23.00    3.0
2020/08/17 01:41:25.000    455571.4470   3639410.5762   5200658.7073   2   9   0.0337   0.0595   0.0526   0.0151   0.0413   0.0198  25.00    2.9
2020/08/17 01:41:29.000    455571.4421   3639410.5781   5200658.7140   2   9   0.0361   0.0626   0.0591   0.0157   0.0446   0.0218  29.00    2.9
2020/08/17 01:41:31.000    455571.4752   3639410.5767   5200658.7111   2   9   0.0253   0.0490   0.0241   0.0134   0.0293   0.0125   1.00    2.5
2020/08/17 01:41:33.000    455571.4723   3639410.5617   5200658.7091   2   9   0.0253   0.0490   0.0247   0.0134   0.0294   0.0126   3.00    2.2
2020/08/17 01:41:36.000    455571.4760   3639410.5455   5200658.7073   2   9   0.0257   0.0495   0.0268   0.0135   0.0300   0.0128   6.00    2.0
2020/08/17 01:41:39.000    455571.4740   3639410.5349   5200658.7091   2   9   0.0264   0.0502   0.0297   0.0136   0.0310   0.0134   9.00    1.9
2020/08/17 01:41:41.000    455571.4759   3639410.5288   5200658.7117   2   9   0.0269   0.0509   0.0320   0.0136   0.0318   0.0140  11.00    1.8
2020/08/17 01:41:44.000    455571.4793   3639410.5249   5200658.7179   2   9   0.0279   0.0521   0.0358   0.0138   0.0333   0.0149  14.00    1.7
2020/08/17 01:41:46.000    455571.4758   3639410.5218   5200658.7176   2   9   0.0287   0.0531   0.0386   0.0140   0.0345   0.0157  16.00    1.7
2020/08/17 01:41:52.000    455571.4788   3639410.5125   5200658.7232   2   9   0.0316   0.0567   0.0476   0.0146   0.0386   0.0183  22.00    1.6
2020/08/17 01:41:59.000    455571.4810   3639410.5167   5200658.7341   2   9   0.0356   0.0621   0.0590   0.0156   0.0444   0.0217  29.00    1.6
2020/08/17 01:42:03.000    455571.4632   3639410.5615   5200658.7028   2   9   0.0249   0.0484   0.0244   0.0134   0.0290   0.0125   3.00    1.4
2020/08/17 01:42:06.000    455571.4618   3639410.5499   5200658.6968   2   9   0.0253   0.0488   0.0265   0.0133   0.0296   0.0128   6.00    1.3
2020/08/17 01:42:10.000    455571.4577   3639410.5481   5200658.6929   2   9   0.0262   0.0499   0.0306   0.0135   0.0311   0.0136  10.00    1.2
2020/08/17 01:42:12.000    455571.4604   3639410.5449   5200658.6872   2   9   0.0268   0.0506   0.0330   0.0136   0.0320   0.0142  12.00    1.2
2020/08/17 01:42:15.000    455571.4586   3639410.5465   5200658.6848   2   9   0.0279   0.0520   0.0370   0.0138   0.0336   0.0152  15.00    1.2
2020/08/17 01:42:17.000    455571.4586   3639410.5472   5200658.6830   2   9   0.0288   0.0530   0.0399   0.0140   0.0348   0.0160  17.00    1.1
2020/08/17 01:42:19.000    455571.4577   3639410.5483   5200658.6844   2   9   0.0297   0.0542   0.0428   0.0142   0.0362   0.0168  19.00    1.1
2020/08/17 01:42:21.000    455571.4582   3639410.5489   5200658.6844   2   9   0.0307   0.0554   0.0459   0.0144   0.0376   0.0177  21.00    1.1
2020/08/17 01:42:24.000    455571.4628   3639410.5527   5200658.6909   2   9   0.0323   0.0575   0.0507   0.0148   0.0399   0.0191  24.00    1.1
2020/08/17 01:42:27.000    455571.4648   3639410.5510   5200658.6912   2   9   0.0340   0.0598   0.0556   0.0152   0.0424   0.0206  27.00    1.1
2020/08/17 01:42:29.000    455571.4657   3639410.5515   5200658.6913   2   9   0.0352   0.0614   0.0590   0.0154   0.0441   0.0216  29.00    1.0
2020/08/17 01:42:32.000    455571.4754   3639410.5537   5200658.6957   2   9   0.0242   0.0474   0.0235   0.0132   0.0284   0.0123   2.00    1.1
2020/08/17 01:42:34.000    455571.4727   3639410.5497   5200658.6956   2   9   0.0243   0.0475   0.0245   0.0132   0.0286   0.0124   4.00    1.1
2020/08/17 01:42:38.000    455571.4724   3639410.5429   5200658.6965   2   9   0.0251   0.0484   0.0280   0.0133   0.0297   0.0130   8.00    1.2
2020/08/17 01:42:40.000    455571.4734   3639410.5422   5200658.6956   2   9   0.0256   0.0490   0.0302   0.0134   0.0305   0.0134  10.00    1.2
2020/08/17 01:42:42.000    455571.4734   3639410.5462   5200658.6986   2   9   0.0262   0.0497   0.0326   0.0135   0.0314   0.0140  12.00    1.3
2020/08/17 01:42:44.000    455571.4703   3639410.5469   5200658.6956   2   9   0.0269   0.0506   0.0353   0.0136   0.0325   0.0147  14.00    1.3
2020/08/17 01:42:48.000    455571.4674   3639410.5533   5200658.6953   2   9   0.0287   0.0528   0.0411   0.0140   0.0351   0.0163  18.00    1.3
2020/08/17 01:42:50.000    455571.4651   3639410.5596   5200658.6994   2   9   0.0296   0.0540   0.0442   0.0142   0.0365   0.0172  20.00    1.3
2020/08/17 01:42:55.000    455571.4639   3639410.5678   5200658.7054   2   9   0.0324   0.0576   0.0522   0.0148   0.0404   0.0195  25.00    1.4
2020/08/17 01:42:58.000    455571.4665   3639410.5715   5200658.7116   2   9   0.0342   0.0600   0.0572   0.0152   0.0430   0.0210  28.00    1.4
2020/08/17 01:43:00.000    455571.4793   3639410.5525   5200658.6929   2   9   0.0235   0.0465   0.0226   0.0132   0.0278   0.0121   0.00    1.4
2020/08/17 01:43:01.000    455571.4783   3639410.5499   5200658.6963   2   9   0.0234   0.0464   0.0226   0.0132   0.0277   0.0121   1.00    1.5
2020/08/17 01:43:03.000    455571.4755   3639410.5425   5200658.6928   2   9   0.0235   0.0465   0.0233   0.0133   0.0278   0.0121   3.00    1.5
2020/08/17 01:43:05.000    455571.4746   3639410.5366   5200658.6915   2   9   0.0237   0.0467   0.0246   0.0133   0.0282   0.0122   5.00    1.5
2020/08/17 01:43:08.000    455571.4738   3639410.5307   5200658.6877   2   9   0.0243   0.0474   0.0274   0.0133   0.0291   0.0127   8.00    1.5
2020/08/17 01:43:13.000    455571.4719   3639410.5255   5200658.6870   2   9   0.0259   0.0493   0.0336   0.0136   0.0315   0.0142  13.00    1.5
2020/08/17 01:43:15.000    455571.4748   3639410.5259   5200658.6876   2   9   0.0267   0.0503   0.0363   0.0137   0.0327   0.0149  15.00    1.5
2020/08/17 01:43:17.000    455571.4732   3639410.5272   5200658.6849   2   9   0.0276   0.0514   0.0393   0.0139   0.0339   0.0157  17.00    1.6
2020/08/17 01:43:20.000    455571.4704   3639410.5276   5200658.6795   2   9   0.0290   0.0532   0.0439   0.0142   0.0361   0.0170  20.00    1.6
2020/08/17 01:43:21.000    455571.4696   3639410.5335   5200658.6800   2   9   0.0296   0.0538   0.0455   0.0143   0.0368   0.0175  21.00    1.6
2020/08/17 01:43:23.000    455571.4678   3639410.5339   5200658.6802   2   9   0.0306   0.0553   0.0487   0.0145   0.0384   0.0184  23.00    1.6
2020/08/17 01:43:25.000    455571.4637   3639410.5384   5200658.6822   2   9   0.0318   0.0567   0.0520   0.0147   0.0400   0.0194  25.00    1.6
2020/08/17 01:43:27.000    455571.4641   3639410.5440   5200658.6837   2   9   0.0330   0.0583   0.0553   0.0150   0.0418   0.0204  27.00    1.6
2020/08/17 01:43:31.000    455571.4937   3639410.5557   5200658.6950   2   9   0.0228   0.0455   0.0222   0.0132   0.0271   0.0120   1.00    1.6
2020/08/17 01:43:33.000    455571.4914   3639410.5501   5200658.6951   2   9   0.0228   0.0456   0.0228   0.0132   0.0273   0.0119   3.00    1.6
2020/08/17 01:43:35.000    455571.4876   3639410.5452   5200658.6892   2   9   0.0230   0.0458   0.0241   0.0132   0.0277   0.0121   5.00    1.6
2020/08/17 01:43:37.000    455571.4859   3639410.5444   5200658.6898   2   9   0.0234   0.0462   0.0259   0.0132   0.0282   0.0124   7.00    1.6
2020/08/17 01:43:39.000    455571.4872   3639410.5389   5200658.6862   2   9   0.0239   0.0468   0.0281   0.0133   0.0290   0.0128   9.00    1.6
2020/08/17 01:43:42.000    455571.4867   3639410.5356   5200658.6836   2   9   0.0249   0.0479   0.0319   0.0135   0.0304   0.0137  12.00    1.6
2020/08/17 01:43:44.000    455571.4915   3639410.5325   5200658.6851   2   9   0.0257   0.0488   0.0346   0.0136   0.0315   0.0144  14.00    1.6
2020/08/17 01:43:47.000    455571.4935   3639410.5316   5200658.6888   2   9   0.0270   0.0505   0.0390   0.0138   0.0335   0.0156  17.00    1.6
2020/08/17 01:43:49.000    455571.4932   3639410.5312   5200658.6876   2   9   0.0280   0.0517   0.0421   0.0140   0.0349   0.0165  19.00    1.6
2020/08/17 01:43:54.000    455571.5003   3639410.5306   5200658.6969   2   9   0.0308   0.0553   0.0502   0.0145   0.0389   0.0188  24.00    1.6
2020/08/17 01:43:56.000    455571.5040   3639410.5336   5200658.7012   2   9   0.0320   0.0569   0.0536   0.0148   0.0406   0.0198  26.00    1.6
2020/08/17 01:43:59.000    455571.5041   3639410.5373   5200658.7039   2   9   0.0339   0.0594   0.0587   0.0152   0.0433   0.0213  29.00    1.6
2020/08/17 01:44:03.000    455571.4868   3639410.5535   5200658.6931   2   9   0.0223   0.0448   0.0225   0.0131   0.0268   0.0118   3.00    1.6
2020/08/17 01:44:06.000    455571.4869   3639410.5455   5200658.6944   2   9   0.0228   0.0453   0.0247   0.0131   0.0275   0.0121   6.00    1.6
2020/08/17 01:44:08.000    455571.4875   3639410.5433   5200658.6951   2   9   0.0232   0.0458   0.0267   0.0132   0.0282   0.0125   8.00    1.6
2020/08/17 01:44:11.000    455571.4849   3639410.5455   5200658.7009   2   9   0.0241   0.0468   0.0303   0.0133   0.0295   0.0133  11.00    1.6
2020/08/17 01:44:13.000    455571.4852   3639410.5474   5200658.7051   2   9   0.0249   0.0477   0.0330   0.0134   0.0306   0.0140  13.00    1.6
2020/08/17 01:44:16.000    455571.4862   3639410.5494   5200658.7142   2   9   0.0261   0.0493   0.0374   0.0136   0.0325   0.0151  16.00    1.7
2020/08/17 01:44:18.000    455571.4883   3639410.5504   5200658.7169   2   9   0.0271   0.0504   0.0404   0.0138   0.0339   0.0159  18.00    1.7
2020/08/17 01:44:23.000    455571.4823   3639410.5572   5200658.7211   2   9   0.0298   0.0540   0.0485   0.0143   0.0378   0.0182  23.00    1.7
2020/08/17 01:44:27.000    455571.4826   3639410.5677   5200658.7285   2   9   0.0323   0.0572   0.0552   0.0148   0.0413   0.0202  27.00    1.7
2020/08/17 01:44:29.000    455571.4850   3639410.5729   5200658.7357   2   9   0.0336   0.0589   0.0587   0.0150   0.0431   0.0213  29.00    1.7
