% program   : rnx2rtkp ver.2.4.3 b33
% inp file  : /home/danisimo/post/R1_193.2020-111.2021/R00126518.20o
% inp file  : /home/danisimo/post/NSK1_193.2020-111.2021/NSK12650.20o
% inp file  : /home/danisimo/post/NSK1_193.2020-111.2021/NSK12650.20N
% obs start : 2020/09/20 00:00:04.0 GPST (week2124      4.0s)
% obs end   : 2020/09/21 11:20:24.0 GPST (week2124 127224.0s)
% ref pos   :   447670.3040   3638117.3850   5202281.5640
%
% (x/y/z-ecef=WGS84,Q=1:fix,2:float,3:sbas,4:dgps,5:single,6:ppp,ns=# of satellites)
%  GPST                      x-ecef(m)      y-ecef(m)      z-ecef(m)   Q  ns   sdx(m)   sdy(m)   sdz(m)  sdxy(m)  sdyz(m)  sdzx(m) age(s)  ratio
2020/09/21 01:28:49.930    455571.6890   3639413.1336   5200660.1754   2   7   0.5939   1.4008   1.4029  -0.0600   0.9647  -0.4662  19.90    0.0
2020/09/21 01:28:51.998    455571.6679   3639412.0525   5200659.2977   2   7   0.4226   0.9960   1.0020  -0.0411   0.6861  -0.3325  22.00    0.0
2020/09/21 01:28:53.498    455571.5664   3639411.6698   5200658.9583   2   7   0.3461   0.8156   0.8213  -0.0344   0.5619  -0.2725  23.50    0.0
2020/09/21 01:28:55.998    455571.4988   3639411.3426   5200658.7317   2   7   0.3004   0.7083   0.7132  -0.0320   0.4880  -0.2367  26.00    0.0
2020/09/21 01:28:57.498    455571.4650   3639411.1433   5200658.6259   2   7   0.2693   0.6352   0.6392  -0.0300   0.4377  -0.2123  27.50    0.0
2020/09/21 01:29:00.000    455571.3770   3639411.0371   5200658.7355   2   7   0.2450   0.5773   0.5821  -0.0268   0.3979  -0.1931   0.00    0.0
2020/09/21 01:29:09.000    455570.7507   3639410.3755   5200658.5481   2   7   0.5936   1.4021   1.4000  -0.0789   0.9671  -0.4653   9.00    1.4
2020/09/21 01:29:12.000    455570.7973   3639410.4682   5200658.9216   2   7   0.4222   0.9963   0.9994  -0.0552   0.6874  -0.3316  12.00    1.0
2020/09/21 01:29:14.000    455570.7225   3639410.3071   5200659.1143   2   7   0.3455   0.8153   0.8188  -0.0457   0.5626  -0.2715  14.00    1.3
2020/09/21 01:29:15.000    455570.7379   3639410.2909   5200659.2028   2   7   0.2997   0.7071   0.7104  -0.0398   0.4880  -0.2355  15.00    1.5
2020/09/21 01:29:17.000    455570.7521   3639410.3090   5200659.2584   2   7   0.2684   0.6335   0.6363  -0.0367   0.4372  -0.2111  17.00    1.5
2020/09/21 01:29:20.000    455570.7705   3639410.3096   5200659.2186   2   7   0.2454   0.5796   0.5817  -0.0353   0.4000  -0.1931  20.00    1.5
2020/09/21 01:29:24.000    455570.6871   3639410.2997   5200659.2133   2   7   0.2278   0.5384   0.5396  -0.0350   0.3717  -0.1795  24.00    1.3
2020/09/21 01:29:27.000    455570.6315   3639410.2923   5200659.2361   2   7   0.2137   0.5055   0.5058  -0.0345   0.3490  -0.1684  27.00    1.1
2020/09/21 01:29:29.000    455570.5758   3639410.2188   5200659.2240   2   7   0.2020   0.4783   0.4777  -0.0339   0.3302  -0.1592  29.00    1.2
2020/09/21 01:29:32.000    455570.6099   3639410.0548   5200659.1553   2   7   0.1897   0.4486   0.4484  -0.0307   0.3101  -0.1484   2.00    1.4
2020/09/21 01:29:35.000    455570.6313   3639409.9539   5200659.0480   2   7   0.1809   0.4280   0.4273  -0.0302   0.2959  -0.1414   5.00    1.3
2020/09/21 01:29:38.000    455570.6563   3639409.9352   5200658.9655   2   7   0.1733   0.4102   0.4092  -0.0298   0.2836  -0.1356   8.00    1.2
2020/09/21 01:29:41.000    455570.6940   3639409.9070   5200658.8568   2   7   0.1667   0.3948   0.3934  -0.0295   0.2730  -0.1305  11.00    1.1
2020/09/21 01:29:43.000    455570.7241   3639409.8913   5200658.7598   2   7   0.1609   0.3810   0.3794  -0.0291   0.2635  -0.1259  13.00    1.0
2020/09/21 01:29:47.000    455570.7542   3639409.8655   5200658.6801   2   7   0.1559   0.3696   0.3673  -0.0296   0.2556  -0.1221  17.00    1.1
2020/09/21 01:29:50.000    455570.7845   3639409.8976   5200658.6383   2   7   0.1514   0.3593   0.3563  -0.0298   0.2485  -0.1187  20.00    1.1
2020/09/21 01:29:52.000    455570.7984   3639409.8465   5200658.5634   2   7   0.1473   0.3498   0.3463  -0.0298   0.2419  -0.1155  22.00    1.2
2020/09/21 01:29:55.000    455570.8258   3639409.7947   5200658.4720   2   7   0.1438   0.3419   0.3376  -0.0303   0.2364  -0.1128  25.00    1.2
2020/09/21 01:29:58.000    455570.8407   3639409.7621   5200658.4116   2   7   0.1407   0.3350   0.3298  -0.0309   0.2317  -0.1105  28.00    1.2
2020/09/21 01:30:06.000    455570.8508   3639409.7370   5200658.4102   2   7   0.1342   0.3188   0.3149  -0.0284   0.2210  -0.1042   6.00    1.2
2020/09/21 01:30:10.000    455570.8596   3639409.7280   5200658.4353   2   7   0.1312   0.3120   0.3070  -0.0287   0.2163  -0.1016  10.00    1.1
2020/09/21 01:30:13.000    455570.8503   3639409.7300   5200658.4652   2   7   0.1284   0.3058   0.3000  -0.0289   0.2120  -0.0994  13.00    1.1
2020/09/21 01:30:16.000    455570.8460   3639409.7429   5200658.4869   2   7   0.1260   0.3003   0.2938  -0.0292   0.2082  -0.0974  16.00    1.1
2020/09/21 01:30:17.000    455570.8406   3639409.7517   5200658.5058   2   7   0.1235   0.2946   0.2877  -0.0289   0.2043  -0.0954  17.00    1.0
2020/09/21 01:30:19.000    455570.8313   3639409.7398   5200658.5000   2   7   0.1214   0.2898   0.2824  -0.0290   0.2010  -0.0937  19.00    1.1
2020/09/21 01:30:20.000    455570.8197   3639409.7368   5200658.5023   2   7   0.1193   0.2849   0.2772  -0.0288   0.1976  -0.0920  20.00    1.1
2020/09/21 01:30:23.000    455570.8083   3639409.7381   5200658.5116   2   7   0.1178   0.2816   0.2730  -0.0295   0.1953  -0.0909  23.00    1.1
2020/09/21 01:30:25.000    455570.7942   3639409.7226   5200658.5043   2   7   0.1162   0.2782   0.2690  -0.0298   0.1930  -0.0898  25.00    1.1
2020/09/21 01:30:28.000    455570.7692   3639409.7241   5200658.5067   2   7   0.1150   0.2760   0.2657  -0.0306   0.1914  -0.0890  28.00    1.1
2020/09/21 01:30:30.000    455570.7671   3639409.7011   5200658.5299   2   7   0.1088   0.2606   0.2502  -0.0268   0.1816  -0.0809   0.00    1.0
2020/09/21 01:30:33.000    455570.7573   3639409.6571   5200658.5307   2   7   0.1069   0.2564   0.2442  -0.0270   0.1789  -0.0785   3.00    1.1
2020/09/21 01:30:36.000    455570.7531   3639409.6229   5200658.5457   2   7   0.1054   0.2528   0.2399  -0.0271   0.1765  -0.0771   6.00    1.0
2020/09/21 01:30:38.000    455570.7510   3639409.5905   5200658.5499   2   7   0.1039   0.2494   0.2361  -0.0270   0.1741  -0.0759   8.00    1.0
2020/09/21 01:30:43.000    455570.7461   3639409.5503   5200658.5477   2   7   0.1030   0.2475   0.2336  -0.0278   0.1727  -0.0755  13.00    1.0
2020/09/21 01:30:45.000    455570.7553   3639409.5110   5200658.5326   2   7   0.1018   0.2450   0.2308  -0.0279   0.1709  -0.0747  15.00    1.0
2020/09/21 01:30:52.000    455570.7578   3639409.4948   5200658.5219   2   7   0.1019   0.2459   0.2302  -0.0298   0.1715  -0.0753  22.00    1.0
2020/09/21 01:30:54.000    455570.7528   3639409.4816   5200658.5025   2   7   0.1011   0.2443   0.2281  -0.0302   0.1704  -0.0748  24.00    1.0
2020/09/21 01:30:56.000    455570.7534   3639409.4657   5200658.4724   2   7   0.1004   0.2430   0.2263  -0.0307   0.1694  -0.0745  26.00    1.1
2020/09/21 01:30:58.000    455570.7544   3639409.4438   5200658.4412   2   7   0.0998   0.2419   0.2247  -0.0312   0.1687  -0.0743  28.00    1.2
2020/09/21 01:31:01.000    455570.7577   3639409.4569   5200658.3948   2   7   0.0937   0.2262   0.2102  -0.0268   0.1585  -0.0663   1.00    1.2
2020/09/21 01:31:04.000    455570.7580   3639409.4668   5200658.3870   2   7   0.0925   0.2237   0.2063  -0.0270   0.1568  -0.0648   4.00    1.2
2020/09/21 01:31:06.000    455570.7529   3639409.4823   5200658.3951   2   7   0.0915   0.2213   0.2033  -0.0269   0.1553  -0.0637   6.00    1.3
2020/09/21 01:31:09.000    455570.7535   3639409.4778   5200658.3951   2   7   0.0907   0.2196   0.2011  -0.0271   0.1540  -0.0632   9.00    1.3
2020/09/21 01:31:10.000    455570.7511   3639409.4741   5200658.3971   2   7   0.0898   0.2175   0.1988  -0.0270   0.1525  -0.0625  10.00    1.4
2020/09/21 01:31:13.000    455570.7379   3639409.4767   5200658.4001   2   7   0.0893   0.2164   0.1973  -0.0273   0.1517  -0.0623  13.00    1.4
2020/09/21 01:31:15.000    455570.7264   3639409.4529   5200658.3881   2   7   0.0887   0.2152   0.1958  -0.0276   0.1508  -0.0620  15.00    1.5
2020/09/21 01:31:17.000    455570.7218   3639409.4437   5200658.3857   2   7   0.0882   0.2142   0.1945  -0.0279   0.1501  -0.0618  17.00    1.5
2020/09/21 01:31:23.000    455570.7225   3639409.4392   5200658.3909   2   7   0.0889   0.2166   0.1954  -0.0297   0.1517  -0.0629  23.00    1.5
2020/09/21 01:31:26.000    455570.7251   3639409.4561   5200658.4019   2   7   0.0890   0.2173   0.1953  -0.0307   0.1522  -0.0634  26.00    1.5
2020/09/21 01:31:28.000    455570.7235   3639409.4757   5200658.4100   2   7   0.0889   0.2174   0.1948  -0.0313   0.1522  -0.0636  28.00    1.5
2020/09/21 01:31:30.000    455570.7168   3639409.5112   5200658.4229   2   7   0.0825   0.2007   0.1802  -0.0263   0.1413  -0.0551   0.00    1.5
2020/09/21 01:31:32.000    455570.7179   3639409.5480   5200658.4324   2   7   0.0815   0.1988   0.1765  -0.0263   0.1401  -0.0533   2.00    1.4
2020/09/21 01:31:34.000    455570.7114   3639409.5784   5200658.4494   2   7   0.0808   0.1971   0.1739  -0.0263   0.1390  -0.0523   4.00    1.4
2020/09/21 01:31:37.000    455570.7098   3639409.5986   5200658.4624   2   7   0.0803   0.1960   0.1724  -0.0265   0.1382  -0.0520   7.00    1.4
2020/09/21 01:31:39.000    455570.7161   3639409.6201   5200658.4790   2   7   0.0798   0.1949   0.1711  -0.0265   0.1374  -0.0517   9.00    1.3
2020/09/21 01:31:41.000    455570.7173   3639409.6403   5200658.4963   2   7   0.0794   0.1940   0.1700  -0.0267   0.1367  -0.0516  11.00    1.3
2020/09/21 01:31:45.000    455570.7236   3639409.6668   5200658.5170   2   7   0.0795   0.1945   0.1699  -0.0275   0.1370  -0.0521  15.00    1.3
2020/09/21 01:31:47.000    455570.7291   3639409.7010   5200658.5359   2   7   0.0793   0.1943   0.1694  -0.0278   0.1368  -0.0523  17.00    1.3
2020/09/21 01:31:50.000    455570.7298   3639409.7239   5200658.5495   2   7   0.0795   0.1951   0.1696  -0.0286   0.1373  -0.0528  20.00    1.2
2020/09/21 01:31:52.000    455570.7344   3639409.7451   5200658.5653   2   7   0.0795   0.1954   0.1695  -0.0292   0.1375  -0.0532  22.00    1.2
2020/09/21 01:31:54.000    455570.7428   3639409.7753   5200658.5850   2   7   0.0796   0.1959   0.1695  -0.0298   0.1378  -0.0536  24.00    1.1
2020/09/21 01:31:58.000    455570.7506   3639409.8020   5200658.5980   2   7   0.0805   0.1988   0.1711  -0.0313   0.1397  -0.0549  28.00    1.1
2020/09/21 01:32:00.000    455570.7776   3639409.8096   5200658.5354   2   7   0.0737   0.1809   0.1563  -0.0258   0.1279  -0.0460   0.00    1.0
2020/09/21 01:32:03.000    455570.7929   3639409.8375   5200658.5057   2   7   0.0731   0.1796   0.1538  -0.0258   0.1271  -0.0448   3.00    1.0
2020/09/21 01:32:05.000    455570.8034   3639409.8703   5200658.4960   2   7   0.0727   0.1786   0.1522  -0.0258   0.1264  -0.0442   5.00    1.1
2020/09/21 01:32:07.000    455570.8150   3639409.8940   5200658.4858   2   7   0.0723   0.1778   0.1510  -0.0259   0.1258  -0.0439   7.00    1.2
2020/09/21 01:32:11.000    455570.8246   3639409.9067   5200658.4816   2   7   0.0724   0.1781   0.1509  -0.0264   0.1260  -0.0444  11.00    1.2
2020/09/21 01:32:13.000    455570.8361   3639409.9236   5200658.4818   2   7   0.0723   0.1780   0.1505  -0.0267   0.1258  -0.0446  13.00    1.2
2020/09/21 01:32:16.000    455570.8472   3639409.9455   5200658.4855   2   7   0.0725   0.1788   0.1508  -0.0274   0.1263  -0.0452  16.00    1.2
2020/09/21 01:32:18.000    455570.8522   3639409.9648   5200658.4915   2   7   0.0725   0.1791   0.1508  -0.0279   0.1265  -0.0456  18.00    1.3
2020/09/21 01:32:20.000    455570.8588   3639409.9852   5200658.5002   2   7   0.0727   0.1797   0.1511  -0.0284   0.1269  -0.0461  20.00    1.3
2020/09/21 01:32:26.000    455570.8658   3639410.0299   5200658.5333   2   7   0.0744   0.1848   0.1543  -0.0308   0.1303  -0.0484  26.00    1.3
2020/09/21 01:32:29.000    455570.8735   3639410.0647   5200658.5550   2   7   0.0752   0.1874   0.1559  -0.0320   0.1321  -0.0496  29.00    1.3
2020/09/21 01:32:31.000    455570.8713   3639410.0771   5200658.5384   2   7   0.0677   0.1672   0.1395  -0.0256   0.1186  -0.0394   1.00    1.3
2020/09/21 01:32:33.000    455570.8829   3639410.1055   5200658.5495   2   7   0.0672   0.1662   0.1374  -0.0256   0.1180  -0.0384   3.00    1.3
2020/09/21 01:32:37.000    455570.8896   3639410.1393   5200658.5688   2   7   0.0672   0.1661   0.1369  -0.0258   0.1179  -0.0386   7.00    1.3
2020/09/21 01:32:40.000    455570.8925   3639410.1855   5200658.5919   2   7   0.0672   0.1663   0.1367  -0.0262   0.1179  -0.0389  10.00    1.3
2020/09/21 01:32:42.000    455570.8970   3639410.2108   5200658.6065   2   7   0.0672   0.1664   0.1365  -0.0265   0.1179  -0.0391  12.00    1.3
2020/09/21 01:32:44.000    455570.9018   3639410.2457   5200658.6226   2   7   0.0672   0.1667   0.1365  -0.0268   0.1181  -0.0395  14.00    1.3
2020/09/21 01:32:46.000    455570.9049   3639410.2753   5200658.6335   2   7   0.0673   0.1672   0.1367  -0.0273   0.1184  -0.0400  16.00    1.3
2020/09/21 01:32:48.000    455570.9125   3639410.2920   5200658.6455   2   7   0.0675   0.1679   0.1371  -0.0278   0.1188  -0.0405  18.00    1.3
2020/09/21 01:32:51.000    455570.9208   3639410.3075   5200658.6583   2   7   0.0682   0.1699   0.1383  -0.0288   0.1202  -0.0416  21.00    1.3
2020/09/21 01:32:53.000    455570.9269   3639410.3196   5200658.6700   2   7   0.0686   0.1711   0.1390  -0.0295   0.1210  -0.0424  23.00    1.3
2020/09/21 01:32:59.000    455570.9204   3639410.3365   5200658.6816   2   7   0.0708   0.1776   0.1434  -0.0322   0.1254  -0.0453  29.00    1.3
2020/09/21 01:33:01.000    455570.9234   3639410.3432   5200658.6790   2   7   0.0628   0.1563   0.1261  -0.0252   0.1111  -0.0341   1.00    1.3
2020/09/21 01:33:04.000    455570.9264   3639410.3653   5200658.6859   2   7   0.0626   0.1557   0.1248  -0.0253   0.1107  -0.0336   4.00    1.3
2020/09/21 01:33:06.000    455570.9258   3639410.3757   5200658.6911   2   7   0.0624   0.1553   0.1239  -0.0254   0.1104  -0.0334   6.00    1.3
2020/09/21 01:33:07.000    455570.9283   3639410.3841   5200658.6982   2   7   0.0622   0.1547   0.1230  -0.0254   0.1100  -0.0331   7.00    1.3
2020/09/21 01:33:10.000    455570.9333   3639410.3942   5200658.7088   2   7   0.0623   0.1552   0.1231  -0.0258   0.1103  -0.0336  10.00    1.3
2020/09/21 01:33:13.000    455570.9327   3639410.4086   5200658.7160   2   7   0.0627   0.1562   0.1237  -0.0264   0.1109  -0.0343  13.00    1.3
2020/09/21 01:33:20.000    455570.9266   3639410.4337   5200658.7376   2   7   0.0645   0.1615   0.1274  -0.0287   0.1145  -0.0372  20.00    1.3
2020/09/21 01:33:23.000    455570.9258   3639410.4469   5200658.7496   2   7   0.0653   0.1640   0.1291  -0.0299   0.1162  -0.0386  23.00    1.3
2020/09/21 01:33:26.000    455570.9223   3639410.4533   5200658.7510   2   7   0.0663   0.1670   0.1312  -0.0312   0.1182  -0.0401  26.00    1.3
2020/09/21 01:33:27.000    455570.9212   3639410.4550   5200658.7512   2   7   0.0665   0.1676   0.1316  -0.0315   0.1186  -0.0406  27.00    1.4
2020/09/21 01:33:30.000    455570.9417   3639410.4518   5200658.7250   2   7   0.0591   0.1479   0.1152  -0.0251   0.1054  -0.0294   0.00    1.3
2020/09/21 01:33:33.000    455570.9475   3639410.4591   5200658.7015   2   7   0.0589   0.1473   0.1137  -0.0251   0.1050  -0.0287   3.00    1.3
2020/09/21 01:33:35.000    455570.9496   3639410.4657   5200658.6862   2   7   0.0587   0.1470   0.1129  -0.0252   0.1047  -0.0285   5.00    1.2
2020/09/21 01:33:38.000    455570.9516   3639410.4652   5200658.6661   2   7   0.0589   0.1473   0.1129  -0.0255   0.1049  -0.0289   8.00    1.2
2020/09/21 01:33:41.000    455570.9537   3639410.4553   5200658.6398   2   7   0.0591   0.1482   0.1135  -0.0260   0.1054  -0.0297  11.00    1.2
2020/09/21 01:33:44.000    455570.9607   3639410.4474   5200658.6221   2   7   0.0596   0.1496   0.1144  -0.0267   0.1064  -0.0307  14.00    1.2
2020/09/21 01:33:47.000    455570.9639   3639410.4463   5200658.6121   2   7   0.0603   0.1515   0.1158  -0.0276   0.1076  -0.0320  17.00    1.1
2020/09/21 01:33:49.000    455570.9657   3639410.4427   5200658.6001   2   6   0.0616   0.1555   0.1195  -0.0224   0.1119  -0.0286  19.00    1.6
2020/09/21 01:33:58.000    455570.9640   3639410.4217   5200658.5773   2   6   0.0662   0.1686   0.1294  -0.0203   0.1220  -0.0303  28.00    1.7
2020/09/21 01:34:01.000    455570.9948   3639410.4846   5200658.6255   2   6   0.0563   0.1420   0.1072  -0.0247   0.1018  -0.0249   1.00    1.8
2020/09/21 01:34:02.000    455570.9990   3639410.4850   5200658.6154   2   6   0.0560   0.1414   0.1057  -0.0245   0.1015  -0.0238   2.00    1.8
2020/09/21 01:34:03.000    455571.0021   3639410.4863   5200658.6122   2   6   0.0558   0.1410   0.1047  -0.0243   0.1013  -0.0229   3.00    1.9
2020/09/21 01:34:06.000    455571.0040   3639410.4840   5200658.6024   2   6   0.0560   0.1414   0.1050  -0.0241   0.1017  -0.0229   6.00    2.0
2020/09/21 01:34:09.000    455571.0037   3639410.4978   5200658.6006   2   6   0.0563   0.1425   0.1059  -0.0238   0.1026  -0.0230   9.00    2.1
2020/09/21 01:34:11.000    455571.0042   3639410.5053   5200658.5994   2   6   0.0566   0.1434   0.1066  -0.0234   0.1034  -0.0231  11.00    2.1
2020/09/21 01:34:14.000    455571.0029   3639410.5067   5200658.5938   2   6   0.0574   0.1456   0.1084  -0.0230   0.1052  -0.0234  14.00    2.1
2020/09/21 01:34:18.000    455571.0091   3639410.5114   5200658.5905   2   6   0.0588   0.1497   0.1116  -0.0223   0.1083  -0.0240  18.00    2.1
2020/09/21 01:34:20.000    455571.0124   3639410.5136   5200658.5912   2   6   0.0595   0.1518   0.1133  -0.0219   0.1100  -0.0243  20.00    2.1
2020/09/21 01:34:23.000    455571.0193   3639410.5175   5200658.5872   2   6   0.0609   0.1557   0.1164  -0.0212   0.1131  -0.0249  23.00    2.1
2020/09/21 01:34:26.000    455571.0210   3639410.5297   5200658.5945   2   6   0.0625   0.1601   0.1199  -0.0204   0.1165  -0.0255  26.00    2.1
2020/09/21 01:34:29.000    455571.0288   3639410.5408   5200658.5967   2   6   0.0642   0.1650   0.1238  -0.0195   0.1203  -0.0263  29.00    2.1
2020/09/21 01:34:34.000    455571.0511   3639410.4991   5200658.6093   2   6   0.0536   0.1360   0.1004  -0.0236   0.0982  -0.0208   4.00    2.2
2020/09/21 01:34:37.000    455571.0596   3639410.4963   5200658.6112   2   6   0.0539   0.1368   0.1009  -0.0234   0.0989  -0.0209   7.00    2.3
2020/09/21 01:34:41.000    455571.0669   3639410.4972   5200658.6166   2   6   0.0547   0.1390   0.1027  -0.0231   0.1007  -0.0213  11.00    2.3
2020/09/21 01:34:44.000    455571.0770   3639410.4878   5200658.6134   2   6   0.0555   0.1414   0.1046  -0.0227   0.1026  -0.0217  14.00    2.4
2020/09/21 01:34:47.000    455571.0862   3639410.4879   5200658.6146   2   6   0.0565   0.1444   0.1070  -0.0223   0.1049  -0.0222  17.00    2.4
2020/09/21 01:34:48.000    455571.0947   3639410.4822   5200658.6146   2   6   0.0568   0.1452   0.1077  -0.0220   0.1056  -0.0223  18.00    2.4
2020/09/21 01:34:50.000    455571.1071   3639410.4843   5200658.6190   2   6   0.0576   0.1475   0.1095  -0.0216   0.1074  -0.0226  20.00    2.5
2020/09/21 01:34:51.000    455571.1166   3639410.4800   5200658.6195   2   6   0.0579   0.1485   0.1104  -0.0213   0.1082  -0.0228  21.00    2.5
2020/09/21 01:34:57.000    455571.1280   3639410.4738   5200658.6127   2   6   0.0613   0.1580   0.1179  -0.0202   0.1155  -0.0244  27.00    2.5
2020/09/21 01:34:59.000    455571.1329   3639410.4629   5200658.6077   2   6   0.0625   0.1613   0.1205  -0.0197   0.1181  -0.0250  29.00    2.6
2020/09/21 01:35:02.000    455571.1231   3639410.3972   5200658.5654   2   6   0.0514   0.1308   0.0950  -0.0231   0.0948  -0.0179   2.00    2.5
2020/09/21 01:35:04.000    455571.1274   3639410.3854   5200658.5556   2   6   0.0513   0.1308   0.0945  -0.0229   0.0949  -0.0174   4.00    2.5
2020/09/21 01:35:05.000    455571.1317   3639410.3733   5200658.5459   2   6   0.0513   0.1307   0.0941  -0.0227   0.0948  -0.0170   5.00    2.5
2020/09/21 01:35:08.000    455571.1370   3639410.3597   5200658.5399   2   6   0.0516   0.1319   0.0950  -0.0225   0.0958  -0.0172   8.00    2.5
2020/09/21 01:35:11.000    455571.1391   3639410.3452   5200658.5351   2   6   0.0523   0.1337   0.0965  -0.0223   0.0972  -0.0177  11.00    2.5
2020/09/21 01:35:13.000    455571.1401   3639410.3329   5200658.5268   2   6   0.0528   0.1352   0.0978  -0.0220   0.0984  -0.0179  13.00    2.4
2020/09/21 01:35:15.000    455571.1418   3639410.3225   5200658.5241   2   6   0.0534   0.1370   0.0992  -0.0217   0.0998  -0.0183  15.00    2.4
2020/09/21 01:35:18.000    455571.1431   3639410.3114   5200658.5219   2   6   0.0546   0.1404   0.1020  -0.0214   0.1025  -0.0190  18.00    2.4
2020/09/21 01:35:21.000    455571.1470   3639410.3119   5200658.5256   2   6   0.0560   0.1444   0.1053  -0.0210   0.1056  -0.0199  21.00    2.4
2020/09/21 01:35:24.000    455571.1550   3639410.2977   5200658.5243   2   6   0.0576   0.1489   0.1090  -0.0205   0.1091  -0.0209  24.00    2.4
2020/09/21 01:35:26.000    455571.1605   3639410.2937   5200658.5251   2   6   0.0587   0.1521   0.1116  -0.0201   0.1116  -0.0215  26.00    2.4
2020/09/21 01:35:28.000    455571.1671   3639410.2886   5200658.5221   2   6   0.0599   0.1555   0.1144  -0.0198   0.1142  -0.0222  28.00    2.4
2020/09/21 01:35:31.000    455571.1841   3639410.2920   5200658.5125   2   6   0.0491   0.1256   0.0888  -0.0223   0.0913  -0.0140   1.00    2.4
2020/09/21 01:35:34.000    455571.1871   3639410.2912   5200658.5128   2   6   0.0491   0.1258   0.0887  -0.0222   0.0915  -0.0138   4.00    2.4
2020/09/21 01:35:39.000    455571.1878   3639410.2747   5200658.5029   2   6   0.0500   0.1282   0.0909  -0.0220   0.0934  -0.0148   9.00    2.4
2020/09/21 01:35:41.000    455571.1904   3639410.2674   5200658.5040   2   6   0.0504   0.1295   0.0919  -0.0218   0.0944  -0.0151  11.00    2.4
2020/09/21 01:36:05.000    455571.2106   3639410.2506   5200658.4923   2   6   0.0487   0.1254   0.0879  -0.0229   0.0914  -0.0137   5.00    2.4
2020/09/21 01:36:13.000    455571.2235   3639410.2571   5200658.4951   2   6   0.0507   0.1311   0.0929  -0.0228   0.0959  -0.0159  13.00    2.4
2020/09/21 01:36:16.000    455571.2371   3639410.2534   5200658.5040   2   6   0.0518   0.1343   0.0956  -0.0226   0.0984  -0.0167  16.00    2.4
2020/09/21 01:36:18.000    455571.2454   3639410.2498   5200658.5129   2   6   0.0526   0.1367   0.0976  -0.0225   0.1002  -0.0173  18.00    2.5
2020/09/21 01:36:24.000    455571.2578   3639410.2440   5200658.5243   2   6   0.0559   0.1460   0.1053  -0.0223   0.1075  -0.0197  24.00    2.5
2020/09/21 01:36:26.000    455571.2616   3639410.2421   5200658.5329   2   6   0.0570   0.1493   0.1081  -0.0221   0.1101  -0.0206  26.00    2.6
2020/09/21 01:36:31.000    455571.2285   3639410.1947   5200658.4894   2   6   0.0473   0.1222   0.0840  -0.0230   0.0891  -0.0111   1.00    2.6
2020/09/21 01:36:32.000    455571.2330   3639410.1975   5200658.4914   2   6   0.0472   0.1219   0.0829  -0.0229   0.0888  -0.0098   2.00    2.6
2020/09/21 01:36:51.000    455571.2217   3639410.2085   5200658.5106   2   6   0.0534   0.1399   0.0988  -0.0231   0.1029  -0.0172  21.00    2.6
2020/09/21 01:36:53.000    455571.2241   3639410.2078   5200658.5149   2   6   0.0545   0.1430   0.1014  -0.0230   0.1053  -0.0181  23.00    2.6
2020/09/21 01:36:56.000    455571.2218   3639410.2144   5200658.5201   2   6   0.0563   0.1481   0.1058  -0.0229   0.1093  -0.0195  26.00    2.6
2020/09/21 01:36:59.000    455571.2248   3639410.2224   5200658.5249   2   6   0.0583   0.1538   0.1105  -0.0229   0.1137  -0.0211  29.00    2.6
2020/09/21 01:37:02.000    455571.2473   3639410.2109   5200658.4909   2   6   0.0464   0.1204   0.0811  -0.0232   0.0878  -0.0091   2.00    2.6
2020/09/21 01:37:04.000    455571.2491   3639410.2083   5200658.4862   2   6   0.0464   0.1206   0.0809  -0.0231   0.0880  -0.0088   4.00    2.5
2020/09/21 01:37:06.000    455571.2518   3639410.2120   5200658.4891   2   6   0.0466   0.1211   0.0813  -0.0230   0.0884  -0.0089   6.00    2.6
2020/09/21 01:37:09.000    455571.2564   3639410.2138   5200658.4871   2   6   0.0472   0.1228   0.0828  -0.0229   0.0897  -0.0099   9.00    2.6
2020/09/21 01:37:12.000    455571.2605   3639410.2123   5200658.4881   2   6   0.0481   0.1253   0.0851  -0.0229   0.0917  -0.0111  12.00    2.7
2020/09/21 01:37:15.000    455571.2644   3639410.2096   5200658.4831   2   6   0.0491   0.1285   0.0879  -0.0229   0.0942  -0.0125  15.00    2.7
2020/09/21 01:37:17.000    455571.2641   3639410.2114   5200658.4839   2   6   0.0500   0.1309   0.0900  -0.0228   0.0961  -0.0134  17.00    2.8
2020/09/21 01:37:19.000    455571.2619   3639410.2137   5200658.4884   2   6   0.0509   0.1335   0.0924  -0.0228   0.0982  -0.0144  19.00    2.8
2020/09/21 01:37:22.000    455571.2628   3639410.2198   5200658.4977   2   6   0.0525   0.1382   0.0965  -0.0228   0.1018  -0.0160  22.00    2.8
2020/09/21 01:37:25.000    455571.2630   3639410.2189   5200658.4993   2   6   0.0543   0.1434   0.1009  -0.0229   0.1059  -0.0177  25.00    2.9
2020/09/21 01:37:30.000    455571.2562   3639410.2309   5200658.5109   2   6   0.0449   0.1169   0.0767  -0.0227   0.0852  -0.0044   0.00    2.9
2020/09/21 01:37:32.000    455571.2610   3639410.2271   5200658.5094   2   6   0.0448   0.1167   0.0761  -0.0226   0.0850  -0.0025   2.00    2.9
2020/09/21 01:37:43.000    455571.2301   3639410.5720   5200658.6976   1   6   0.0171   0.0460   0.0366  -0.0027   0.0347  -0.0093  13.00    3.0
2020/09/21 01:37:46.000    455571.2311   3639410.5757   5200658.7023   1   6   0.0205   0.0555   0.0437  -0.0034   0.0419  -0.0111  16.00    3.1
2020/09/21 01:37:50.000    455571.2372   3639410.5829   5200658.7121   1   6   0.0251   0.0684   0.0534  -0.0045   0.0517  -0.0135  20.00    3.2
2020/09/21 01:37:52.000    455571.2394   3639410.5872   5200658.7168   1   6   0.0274   0.0749   0.0583  -0.0051   0.0566  -0.0147  22.00    3.2
2020/09/21 01:37:54.000    455571.2420   3639410.5916   5200658.7215   1   6   0.0298   0.0814   0.0633  -0.0057   0.0615  -0.0160  24.00    3.3
2020/09/21 01:37:56.000    455571.2416   3639410.5878   5200658.7251   1   6   0.0321   0.0880   0.0682  -0.0064   0.0665  -0.0172  26.00    3.3
2020/09/21 01:37:59.000    455571.2448   3639410.5956   5200658.7298   1   6   0.0357   0.0978   0.0757  -0.0073   0.0740  -0.0191  29.00    3.3
2020/09/21 01:38:03.000    455571.2249   3639410.5733   5200658.6906   1   6   0.0073   0.0183   0.0169  -0.0017   0.0139  -0.0044   3.00    3.3
2020/09/21 01:38:05.000    455571.2233   3639410.5746   5200658.6964   1   6   0.0088   0.0227   0.0199  -0.0019   0.0172  -0.0053   5.00    3.3
2020/09/21 01:38:07.000    455571.2236   3639410.5767   5200658.6986   1   6   0.0107   0.0280   0.0236  -0.0022   0.0212  -0.0062   7.00    3.3
2020/09/21 01:38:09.000    455571.2242   3639410.5769   5200658.7004   1   6   0.0127   0.0338   0.0277  -0.0027   0.0255  -0.0073   9.00    3.3
2020/09/21 01:38:12.000    455571.2250   3639410.5781   5200658.7038   1   6   0.0159   0.0430   0.0344  -0.0035   0.0325  -0.0090  12.00    3.4
2020/09/21 01:38:16.000    455571.2242   3639410.5750   5200658.7048   1   6   0.0204   0.0557   0.0439  -0.0048   0.0421  -0.0114  16.00    3.4
2020/09/21 01:38:18.000    455571.2256   3639410.5756   5200658.7049   1   6   0.0227   0.0621   0.0487  -0.0054   0.0470  -0.0126  18.00    3.4
2020/09/21 01:38:20.000    455571.2257   3639410.5796   5200658.7077   1   6   0.0251   0.0686   0.0536  -0.0061   0.0519  -0.0139  20.00    3.4
2020/09/21 01:38:22.000    455571.2252   3639410.5798   5200658.7110   1   6   0.0274   0.0752   0.0586  -0.0068   0.0569  -0.0151  22.00    3.4
2020/09/21 01:38:25.000    455571.2251   3639410.5807   5200658.7148   1   6   0.0309   0.0850   0.0661  -0.0079   0.0644  -0.0171  25.00    3.4
2020/09/21 01:38:31.000    455571.2244   3639410.5702   5200658.6855   1   6   0.0063   0.0157   0.0152  -0.0019   0.0120  -0.0038   1.00    3.2
2020/09/21 01:38:33.000    455571.2273   3639410.5701   5200658.6866   1   6   0.0073   0.0184   0.0169  -0.0020   0.0139  -0.0043   3.00    3.1
2020/09/21 01:38:35.000    455571.2253   3639410.5750   5200658.6941   1   6   0.0088   0.0228   0.0199  -0.0022   0.0173  -0.0053   5.00    3.1
2020/09/21 01:38:38.000    455571.2261   3639410.5703   5200658.6923   1   6   0.0117   0.0310   0.0257  -0.0030   0.0234  -0.0069   8.00    3.1
2020/09/21 01:38:42.000    455571.2271   3639410.5796   5200658.6926   1   6   0.0159   0.0431   0.0346  -0.0043   0.0327  -0.0092  12.00    3.1
2020/09/21 01:38:44.000    455571.2275   3639410.5780   5200658.6928   1   6   0.0182   0.0494   0.0393  -0.0050   0.0375  -0.0104  14.00    3.1
2020/09/21 01:38:46.000    455571.2293   3639410.5863   5200658.6955   1   6   0.0204   0.0559   0.0441  -0.0058   0.0423  -0.0117  16.00    3.0
2020/09/21 01:38:49.000    455571.3021   3639410.4853   5200658.6485   2   6   0.0477   0.1266   0.0851  -0.0231   0.0932  -0.0120  19.00    3.0
2020/09/21 01:38:50.000    455571.3025   3639410.4961   5200658.6524   2   6   0.0482   0.1281   0.0865  -0.0231   0.0944  -0.0127  20.00    2.9
2020/09/21 01:38:58.000    455571.3068   3639410.5171   5200658.6548   2   6   0.0536   0.1437   0.1002  -0.0245   0.1066  -0.0187  28.00    2.9
2020/09/21 01:39:01.000    455571.2996   3639410.4848   5200658.6370   2   6   0.0415   0.1088   0.0682  -0.0221   0.0792   0.0069   1.00    2.7
2020/09/21 01:39:03.000    455571.3028   3639410.4920   5200658.6324   2   6   0.0416   0.1089   0.0682  -0.0221   0.0793   0.0069   3.00    2.5
2020/09/21 01:39:04.000    455571.3025   3639410.4959   5200658.6283   2   6   0.0416   0.1090   0.0682  -0.0220   0.0793   0.0069   4.00    2.3
2020/09/21 01:39:05.000    455571.3022   3639410.5020   5200658.6270   2   6   0.0417   0.1092   0.0683  -0.0219   0.0794   0.0067   5.00    2.1
2020/09/21 01:39:07.000    455571.3031   3639410.5068   5200658.6226   2   6   0.0420   0.1102   0.0694  -0.0219   0.0802   0.0057   7.00    2.0
2020/09/21 01:39:10.000    455571.3039   3639410.5181   5200658.6272   2   6   0.0428   0.1125   0.0717  -0.0221   0.0821   0.0020  10.00    1.9
2020/09/21 01:39:15.000    455571.3030   3639410.5270   5200658.6307   2   6   0.0448   0.1184   0.0773  -0.0226   0.0868  -0.0078  15.00    1.9
2020/09/21 01:39:18.000    455571.3063   3639410.5314   5200658.6357   2   6   0.0462   0.1228   0.0814  -0.0230   0.0903  -0.0106  18.00    1.8
2020/09/21 01:39:20.000    455571.3063   3639410.5319   5200658.6375   2   6   0.0473   0.1261   0.0844  -0.0232   0.0929  -0.0122  20.00    1.8
2020/09/21 01:39:36.000    455571.2933   3639410.5158   5200658.6218   2   6   0.0413   0.1086   0.0681  -0.0223   0.0792   0.0052   6.00    1.8
2020/09/21 01:39:38.000    455571.2887   3639410.5113   5200658.6204   2   6   0.0417   0.1098   0.0694  -0.0224   0.0801   0.0035   8.00    1.7
2020/09/21 01:39:41.000    455571.2865   3639410.5111   5200658.6196   2   6   0.0426   0.1125   0.0720  -0.0226   0.0823  -0.0044  11.00    1.7
2020/09/21 01:39:49.000    455571.2775   3639410.5035   5200658.6234   2   6   0.0464   0.1238   0.0826  -0.0239   0.0913  -0.0123  19.00    1.8
2020/09/21 01:39:51.000    455571.2778   3639410.5057   5200658.6266   2   6   0.0475   0.1272   0.0857  -0.0242   0.0940  -0.0139  21.00    1.8
2020/09/21 01:39:56.000    455571.2768   3639410.5052   5200658.6338   2   6   0.0509   0.1371   0.0946  -0.0254   0.1018  -0.0179  26.00    1.8
2020/09/21 01:40:02.000    455571.2906   3639410.5157   5200658.6228   2   6   0.0401   0.1055   0.0651  -0.0224   0.0768   0.0071   2.00    1.7
2020/09/21 01:40:04.000    455571.2883   3639410.5249   5200658.6256   2   6   0.0402   0.1059   0.0655  -0.0223   0.0771   0.0067   4.00    1.7
2020/09/21 01:40:07.000    455571.2864   3639410.5315   5200658.6256   2   6   0.0407   0.1075   0.0671  -0.0225   0.0784   0.0048   7.00    1.7
2020/09/21 01:40:08.000    455571.2833   3639410.5407   5200658.6323   2   6   0.0409   0.1080   0.0676  -0.0225   0.0788   0.0040   8.00    1.7
2020/09/21 01:40:11.000    455571.2824   3639410.5424   5200658.6297   2   6   0.0419   0.1108   0.0704  -0.0228   0.0810  -0.0041  11.00    1.6
2020/09/21 01:40:13.000    455571.2781   3639410.5486   5200658.6299   2   6   0.0426   0.1130   0.0726  -0.0230   0.0828  -0.0066  13.00    1.6
2020/09/21 01:40:14.000    455571.2774   3639410.5538   5200658.6300   2   6   0.0430   0.1142   0.0737  -0.0231   0.0837  -0.0077  14.00    1.5
2020/09/21 01:40:19.000    455571.2742   3639410.5502   5200658.6281   2   6   0.0456   0.1220   0.0810  -0.0240   0.0900  -0.0123  19.00    1.5
2020/09/21 01:40:22.000    455571.2708   3639410.5495   5200658.6253   2   6   0.0474   0.1274   0.0860  -0.0247   0.0943  -0.0149  22.00    1.5
2020/09/21 01:40:24.000    455571.2654   3639410.5551   5200658.6331   2   6   0.0487   0.1313   0.0896  -0.0252   0.0974  -0.0165  24.00    1.4
2020/09/21 01:40:26.000    455571.2625   3639410.5559   5200658.6308   2   6   0.0501   0.1354   0.0933  -0.0257   0.1007  -0.0181  26.00    1.4
2020/09/21 01:40:29.000    455571.2613   3639410.5524   5200658.6213   2   6   0.0524   0.1420   0.0991  -0.0266   0.1059  -0.0206  29.00    1.4
2020/09/21 01:40:31.000    455571.2743   3639410.5659   5200658.6339   2   6   0.0390   0.1026   0.0625  -0.0220   0.0746   0.0079   1.00    1.3
2020/09/21 01:40:34.000    455571.2733   3639410.5645   5200658.6315   2   6   0.0392   0.1032   0.0632  -0.0220   0.0751   0.0071   4.00    1.3
2020/09/21 01:40:36.000    455571.2722   3639410.5608   5200658.6296   2   6   0.0395   0.1041   0.0641  -0.0221   0.0758   0.0062   6.00    1.2
2020/09/21 01:40:41.000    455571.2701   3639410.5574   5200658.6267   2   6   0.0410   0.1086   0.0686  -0.0227   0.0794  -0.0040  11.00    1.2
2020/09/21 01:40:43.000    455571.2690   3639410.5553   5200658.6279   2   6   0.0417   0.1109   0.0709  -0.0229   0.0812  -0.0067  13.00    1.2
2020/09/21 01:40:46.000    455571.2687   3639410.5523   5200658.6279   2   6   0.0432   0.1151   0.0750  -0.0235   0.0846  -0.0098  16.00    1.2
2020/09/21 01:40:59.000    455571.2679   3639410.5358   5200658.6198   2   6   0.0519   0.1412   0.0985  -0.0273   0.1054  -0.0211  29.00    1.2
2020/09/21 01:41:01.000    455571.2785   3639410.5695   5200658.6303   2   7   0.0384   0.1010   0.0610  -0.0220   0.0733   0.0081   1.00    1.0
2020/09/21 01:41:04.000    455571.2807   3639410.5649   5200658.6281   2   7   0.0385   0.1010   0.0612  -0.0215   0.0732   0.0084   4.00    1.1
2020/09/21 01:41:08.000    455571.2832   3639410.5545   5200658.6264   2   7   0.0393   0.1018   0.0626  -0.0204   0.0737   0.0087   8.00    1.2
2020/09/21 01:41:10.000    455571.2859   3639410.5496   5200658.6222   2   7   0.0398   0.1021   0.0635  -0.0194   0.0738   0.0093  10.00    1.3
2020/09/21 01:41:14.000    455571.2887   3639410.5396   5200658.6148   2   7   0.0411   0.1036   0.0662  -0.0168   0.0748   0.0104  14.00    1.3
2020/09/21 01:41:22.000    455571.2980   3639410.5221   5200658.6000   2   7   0.0452   0.1084   0.0738  -0.0035   0.0778   0.0131  22.00    1.4
2020/09/21 01:41:24.000    455571.3015   3639410.5151   5200658.5976   2   7   0.0463   0.1096   0.0759   0.0089   0.0786   0.0140  24.00    1.4
2020/09/21 01:41:34.000    455571.2875   3639410.5447   5200658.6081   2   7   0.0380   0.0988   0.0599  -0.0210   0.0717   0.0090   4.00    1.5
2020/09/21 01:41:36.000    455571.2908   3639410.5353   5200658.6010   2   7   0.0383   0.0990   0.0603  -0.0204   0.0717   0.0092   6.00    1.6
2020/09/21 01:41:43.000    455571.2892   3639410.5414   5200658.5952   2   7   0.0403   0.1013   0.0644  -0.0172   0.0732   0.0104  13.00    1.7
2020/09/21 01:41:46.000    455571.2905   3639410.5475   5200658.5945   2   7   0.0415   0.1026   0.0667  -0.0145   0.0740   0.0113  16.00    1.8
2020/09/21 01:41:48.000    455571.2908   3639410.5549   5200658.5974   2   7   0.0424   0.1035   0.0685  -0.0119   0.0746   0.0120  18.00    1.8
2020/09/21 01:41:59.000    455571.2929   3639410.5763   5200658.6128   2   7   0.0492   0.1121   0.0814   0.0182   0.0801   0.0161  29.00    1.9
2020/09/21 01:42:10.000    455571.3023   3639410.5300   5200658.5867   2   7   0.0389   0.0988   0.0618  -0.0190   0.0716   0.0095  10.00    1.9
2020/09/21 01:42:14.000    455571.3078   3639410.5274   5200658.5773   2   7   0.0403   0.1003   0.0646  -0.0164   0.0726   0.0105  14.00    1.9
2020/09/21 01:42:16.000    455571.3100   3639410.5249   5200658.5728   2   7   0.0411   0.1011   0.0662  -0.0145   0.0731   0.0111  16.00    1.9
2020/09/21 01:42:17.000    455571.3109   3639410.5186   5200658.5721   2   7   0.0415   0.1014   0.0670  -0.0132   0.0732   0.0115  17.00    1.9
2020/09/21 01:42:19.000    455571.3126   3639410.5175   5200658.5709   2   7   0.0425   0.1025   0.0689  -0.0102   0.0739   0.0122  19.00    1.9
2020/09/21 01:42:20.000    455571.3153   3639410.5141   5200658.5702   2   7   0.0430   0.1029   0.0698  -0.0079   0.0741   0.0127  20.00    1.9
2020/09/21 01:42:23.000    455571.3171   3639410.5079   5200658.5679   2   7   0.0447   0.1049   0.0731   0.0077   0.0754   0.0137  23.00    1.9
2020/09/21 01:42:25.000    455571.3187   3639410.5084   5200658.5700   2   7   0.0459   0.1064   0.0755   0.0123   0.0764   0.0145  25.00    1.9
2020/09/21 01:42:27.000    455571.3210   3639410.5064   5200658.5712   2   7   0.0472   0.1079   0.0779   0.0158   0.0774   0.0153  27.00    1.8
2020/09/21 01:42:29.000    455571.3210   3639410.5063   5200658.5738   2   7   0.0486   0.1096   0.0805   0.0189   0.0784   0.0161  29.00    1.8
2020/09/21 01:42:32.000    455571.3201   3639410.5059   5200658.5953   2   7   0.0365   0.0937   0.0565  -0.0200   0.0680   0.0100   2.00    2.0
2020/09/21 01:42:34.000    455571.3194   3639410.5112   5200658.6005   2   7   0.0366   0.0936   0.0567  -0.0196   0.0678   0.0101   4.00    2.1
2020/09/21 01:42:37.000    455571.3177   3639410.5212   5200658.6076   2   7   0.0371   0.0940   0.0577  -0.0187   0.0681   0.0103   7.00    2.1
2020/09/21 01:42:39.000    455571.3164   3639410.5301   5200658.6097   2   7   0.0376   0.0944   0.0586  -0.0179   0.0683   0.0106   9.00    2.2
2020/09/21 01:42:41.000    455571.3145   3639410.5402   5200658.6162   2   7   0.0382   0.0949   0.0597  -0.0167   0.0686   0.0110  11.00    2.2
2020/09/21 01:42:44.000    455571.3157   3639410.5414   5200658.6174   2   7   0.0393   0.0961   0.0620  -0.0144   0.0693   0.0117  14.00    2.2
2020/09/21 01:42:46.000    455571.3144   3639410.5344   5200658.6180   2   7   0.0401   0.0970   0.0637  -0.0122   0.0699   0.0123  16.00    2.2
2020/09/21 01:42:49.000    455571.3145   3639410.5235   5200658.6166   2   7   0.0416   0.0988   0.0666  -0.0072   0.0710   0.0131  19.00    2.2
2020/09/21 01:42:51.000    455571.3161   3639410.5241   5200658.6189   2   7   0.0427   0.1000   0.0688   0.0049   0.0719   0.0138  21.00    2.2
2020/09/21 01:42:53.000    455571.3165   3639410.5216   5200658.6180   2   7   0.0439   0.1014   0.0711   0.0103   0.0728   0.0145  23.00    2.2
2020/09/21 01:42:56.000    455571.3153   3639410.5192   5200658.6210   2   7   0.0458   0.1039   0.0749   0.0155   0.0743   0.0155  26.00    2.2
2020/09/21 01:42:59.000    455571.3162   3639410.5191   5200658.6188   2   7   0.0478   0.1065   0.0789   0.0198   0.0761   0.0166  29.00    2.2
2020/09/21 01:43:02.000    455571.3251   3639410.5295   5200658.6072   2   7   0.0356   0.0902   0.0541  -0.0189   0.0653   0.0108   2.00    2.3
2020/09/21 01:43:04.000    455571.3238   3639410.5259   5200658.6036   2   7   0.0358   0.0902   0.0543  -0.0185   0.0652   0.0109   4.00    2.4
2020/09/21 01:43:06.000    455571.3233   3639410.5263   5200658.6008   2   7   0.0360   0.0903   0.0549  -0.0179   0.0652   0.0110   6.00    2.5
2020/09/21 01:43:09.000    455571.3208   3639410.5274   5200658.5999   2   7   0.0367   0.0910   0.0563  -0.0167   0.0657   0.0114   9.00    2.6
2020/09/21 01:43:11.000    455571.3195   3639410.5269   5200658.6021   2   7   0.0373   0.0916   0.0575  -0.0155   0.0660   0.0117  11.00    2.6
2020/09/21 01:43:14.000    455571.3188   3639410.5259   5200658.6023   2   7   0.0385   0.0929   0.0599  -0.0131   0.0669   0.0123  14.00    2.6
2020/09/21 01:43:22.000    455571.3165   3639410.5229   5200658.6100   2   7   0.0427   0.0983   0.0685   0.0092   0.0704   0.0144  22.00    2.6
2020/09/21 01:43:24.000    455571.3158   3639410.5231   5200658.6121   2   7   0.0439   0.0998   0.0710   0.0130   0.0714   0.0150  24.00    2.7
2020/09/21 01:43:27.000    455571.3125   3639410.5211   5200658.6158   2   7   0.0459   0.1024   0.0750   0.0175   0.0731   0.0160  27.00    2.7
2020/09/21 01:43:28.000    455571.3146   3639410.5248   5200658.6131   2   7   0.0465   0.1032   0.0763   0.0189   0.0737   0.0164  28.00    2.7
2020/09/21 01:43:31.000    455571.3211   3639410.5184   5200658.5892   2   7   0.0349   0.0874   0.0520  -0.0182   0.0631   0.0113   1.00    2.8
2020/09/21 01:43:33.000    455571.3200   3639410.5125   5200658.5848   2   7   0.0349   0.0872   0.0520  -0.0179   0.0629   0.0114   3.00    3.0
2020/09/21 01:43:36.000    455571.3132   3639410.9495   5200658.8119   1   7   0.0091   0.0180   0.0179   0.0063   0.0124   0.0010   6.00    3.1
2020/09/21 01:43:38.000    455571.3113   3639410.9510   5200658.8144   1   7   0.0108   0.0209   0.0208   0.0080   0.0145   0.0024   8.00    3.2
2020/09/21 01:43:39.000    455571.3120   3639410.9496   5200658.8144   1   7   0.0117   0.0225   0.0223   0.0089   0.0155   0.0029   9.00    3.3
2020/09/21 01:43:42.000    455571.3104   3639410.9590   5200658.8155   1   7   0.0146   0.0274   0.0273   0.0116   0.0189   0.0045  12.00    3.4
2020/09/21 01:43:46.000    455571.3092   3639410.9609   5200658.8243   1   7   0.0187   0.0342   0.0344   0.0153   0.0236   0.0065  16.00    3.4
2020/09/21 01:43:49.000    455571.3040   3639410.9571   5200658.8206   1   7   0.0218   0.0396   0.0399   0.0181   0.0273   0.0079  19.00    3.4
2020/09/21 01:43:51.000    455571.3005   3639410.9585   5200658.8228   1   7   0.0239   0.0432   0.0436   0.0199   0.0298   0.0089  21.00    3.4
2020/09/21 01:43:54.000    455571.2958   3639410.9586   5200658.8283   1   7   0.0271   0.0487   0.0493   0.0227   0.0336   0.0103  24.00    3.5
2020/09/21 01:43:57.000    455571.2913   3639410.9606   5200658.8266   1   7   0.0302   0.0542   0.0550   0.0255   0.0375   0.0116  27.00    3.5
2020/09/21 01:43:59.000    455571.2895   3639410.9551   5200658.8221   1   7   0.0324   0.0580   0.0588   0.0273   0.0400   0.0125  29.00    3.5
2020/09/21 01:44:01.000    455571.3113   3639410.9521   5200658.8087   1   7   0.0060   0.0126   0.0131   0.0031   0.0088  -0.0015   1.00    3.7
2020/09/21 01:44:02.000    455571.3112   3639410.9513   5200658.8104   1   7   0.0064   0.0132   0.0136   0.0035   0.0092  -0.0013   2.00    3.8
2020/09/21 01:44:04.000    455571.3109   3639410.9453   5200658.8069   1   7   0.0076   0.0153   0.0154   0.0047   0.0107  -0.0009   4.00    4.0
2020/09/21 01:44:07.000    455571.3095   3639410.9377   5200658.8062   1   7   0.0099   0.0194   0.0193   0.0071   0.0135   0.0016   7.00    4.1
2020/09/21 01:44:09.000    455571.3042   3639410.9321   5200658.8061   1   7   0.0117   0.0224   0.0224   0.0088   0.0155   0.0029   9.00    4.3
2020/09/21 01:44:12.000    455571.3019   3639410.9308   5200658.8117   1   7   0.0146   0.0273   0.0274   0.0115   0.0189   0.0044  12.00    4.3
2020/09/21 01:44:14.000    455571.2990   3639410.9237   5200658.8076   1   7   0.0166   0.0307   0.0309   0.0133   0.0213   0.0054  14.00    4.4
2020/09/21 01:44:16.000    455571.2965   3639410.9137   5200658.8063   1   7   0.0186   0.0342   0.0345   0.0152   0.0237   0.0064  16.00    4.4
2020/09/21 01:44:19.000    455571.2978   3639410.8938   5200658.7994   1   7   0.0217   0.0396   0.0400   0.0179   0.0274   0.0077  19.00    4.5
2020/09/21 01:44:21.000    455571.2980   3639410.8815   5200658.7965   1   7   0.0238   0.0432   0.0438   0.0198   0.0299   0.0087  21.00    4.5
2020/09/21 01:44:23.000    455571.2988   3639410.8708   5200658.7911   1   7   0.0259   0.0468   0.0476   0.0216   0.0325   0.0096  23.00    4.6
2020/09/21 01:44:28.000    455571.2978   3639410.8529   5200658.7874   1   7   0.0312   0.0561   0.0572   0.0262   0.0389   0.0118  28.00    4.6
2020/09/21 01:44:31.000    455571.3107   3639410.9496   5200658.8123   1   7   0.0060   0.0125   0.0130   0.0030   0.0088  -0.0015   1.00    4.7
2020/09/21 01:44:33.000    455571.3105   3639410.9510   5200658.8115   1   7   0.0068   0.0141   0.0143   0.0040   0.0099  -0.0013   3.00    4.8
2020/09/21 01:44:35.000    455571.3117   3639410.9480   5200658.8140   1   7   0.0082   0.0165   0.0166   0.0053   0.0115  -0.0004   5.00    4.8
2020/09/21 01:44:38.000    455571.3157   3639410.9465   5200658.8140   1   7   0.0108   0.0208   0.0208   0.0079   0.0145   0.0022   8.00    4.8
2020/09/21 01:44:41.000    455571.3168   3639410.9484   5200658.8239   1   7   0.0136   0.0256   0.0257   0.0105   0.0178   0.0038  11.00    4.8
2020/09/21 01:44:43.000    455571.3157   3639410.9481   5200658.8296   1   7   0.0156   0.0290   0.0292   0.0123   0.0201   0.0048  13.00    4.8
2020/09/21 01:44:45.000    455571.3181   3639410.9481   5200658.8317   1   7   0.0176   0.0324   0.0328   0.0141   0.0225   0.0057  15.00    4.8
2020/09/21 01:44:47.000    455571.3209   3639410.9493   5200658.8366   1   7   0.0196   0.0359   0.0365   0.0160   0.0250   0.0066  17.00    4.7
2020/09/21 01:44:55.000    455571.3216   3639410.9623   5200658.8438   1   7   0.0280   0.0505   0.0516   0.0233   0.0351   0.0102  25.00    4.7
2020/09/21 01:44:57.000    455571.3209   3639410.9664   5200658.8505   1   7   0.0301   0.0542   0.0555   0.0251   0.0377   0.0110  27.00    4.8
2020/09/21 01:44:59.000    455571.3195   3639410.9707   5200658.8559   1   7   0.0322   0.0579   0.0593   0.0269   0.0403   0.0119  29.00    4.8
2020/09/21 01:45:01.000    455571.3097   3639410.9573   5200658.8198   1   7   0.0061   0.0125   0.0130   0.0031   0.0088  -0.0012   1.00    4.8
2020/09/21 01:45:04.000    455571.3116   3639410.9590   5200658.8240   1   7   0.0075   0.0152   0.0154   0.0047   0.0107  -0.0009   4.00    4.9
2020/09/21 01:45:06.000    455571.3094   3639410.9592   5200658.8269   1   7   0.0090   0.0178   0.0179   0.0061   0.0125   0.0011   6.00    4.9
2020/09/21 01:45:10.000    455571.3078   3639410.9592   5200658.8328   1   7   0.0126   0.0239   0.0241   0.0096   0.0167   0.0032  10.00    4.9
2020/09/21 01:45:12.000    455571.3084   3639410.9655   5200658.8345   1   7   0.0145   0.0272   0.0275   0.0113   0.0190   0.0042  12.00    5.0
2020/09/21 01:45:21.000    455571.3058   3639410.9735   5200658.8452   1   7   0.0237   0.0431   0.0441   0.0195   0.0301   0.0082  21.00    5.0
2020/09/21 01:45:29.000    455571.3077   3639410.9981   5200658.8625   1   7   0.0321   0.0579   0.0596   0.0267   0.0405   0.0116  29.00    5.0
2020/09/21 01:45:31.000    455571.3132   3639410.9586   5200658.8151   1   7   0.0061   0.0125   0.0130   0.0031   0.0088  -0.0013   1.00    5.1
2020/09/21 01:45:33.000    455571.3131   3639410.9611   5200658.8206   1   7   0.0068   0.0140   0.0143   0.0039   0.0099  -0.0013   3.00    5.1
2020/09/21 01:45:35.000    455571.3137   3639410.9608   5200658.8209   1   7   0.0082   0.0164   0.0166   0.0053   0.0115   0.0004   5.00    5.2
2020/09/21 01:45:38.000    455571.3144   3639410.9601   5200658.8183   1   7   0.0107   0.0208   0.0209   0.0077   0.0145   0.0021   8.00    5.2
2020/09/21 01:45:42.000    455571.3142   3639410.9625   5200658.8145   1   7   0.0145   0.0272   0.0276   0.0112   0.0191   0.0040  12.00    5.2
2020/09/21 01:45:44.000    455571.3164   3639410.9666   5200658.8132   1   7   0.0165   0.0306   0.0312   0.0130   0.0214   0.0050  14.00    5.2
2020/09/21 01:45:49.000    455571.3163   3639410.9770   5200658.8143   1   7   0.0216   0.0395   0.0405   0.0175   0.0277   0.0071  19.00    5.2
2020/09/21 01:45:53.000    455571.3165   3639410.9885   5200658.8239   1   7   0.0257   0.0468   0.0481   0.0211   0.0328   0.0088  23.00    5.2
2020/09/21 01:45:55.000    455571.3164   3639410.9941   5200658.8290   1   7   0.0278   0.0505   0.0520   0.0229   0.0354   0.0096  25.00    5.2
2020/09/21 01:46:11.000    455571.3081   3639410.9655   5200658.8326   1   7   0.0135   0.0255   0.0259   0.0103   0.0179   0.0035  11.00    5.2
2020/09/21 01:46:13.000    455571.3073   3639410.9671   5200658.8315   1   7   0.0154   0.0289   0.0295   0.0120   0.0203   0.0043  13.00    5.2
2020/09/21 01:46:16.000    455571.3070   3639410.9720   5200658.8408   1   7   0.0184   0.0341   0.0350   0.0147   0.0240   0.0056  16.00    5.2
2020/09/21 01:46:20.000    455571.3036   3639410.9761   5200658.8487   1   7   0.0225   0.0413   0.0425   0.0183   0.0290   0.0073  20.00    5.2
2020/09/21 01:46:22.000    455571.3039   3639410.9814   5200658.8563   1   7   0.0246   0.0449   0.0464   0.0200   0.0316   0.0081  22.00    5.2
2020/09/21 01:46:25.000    455571.3018   3639410.9803   5200658.8619   1   7   0.0277   0.0504   0.0522   0.0227   0.0355   0.0093  25.00    5.2
2020/09/21 01:46:29.000    455571.2989   3639410.9872   5200658.8697   1   7   0.0319   0.0579   0.0600   0.0263   0.0408   0.0109  29.00    5.2
2020/09/21 01:46:31.000    455571.3072   3639410.9549   5200658.8115   1   7   0.0060   0.0125   0.0130   0.0031   0.0088  -0.0011   1.00    5.3
2020/09/21 01:46:32.000    455571.3085   3639410.9567   5200658.8152   1   7   0.0064   0.0131   0.0135   0.0033   0.0093  -0.0010   2.00    5.5
2020/09/21 01:46:34.000    455571.3074   3639410.9577   5200658.8175   1   7   0.0075   0.0151   0.0154   0.0045   0.0107  -0.0009   4.00    5.5
2020/09/21 01:46:37.000    455571.3063   3639410.9597   5200658.8208   1   7   0.0098   0.0192   0.0194   0.0068   0.0135   0.0015   7.00    5.6
2020/09/21 01:46:39.000    455571.3072   3639410.9614   5200658.8229   1   7   0.0116   0.0222   0.0226   0.0085   0.0157   0.0024   9.00    5.7
2020/09/21 01:46:42.000    455571.3065   3639410.9671   5200658.8244   1   7   0.0144   0.0271   0.0278   0.0111   0.0192   0.0038  12.00    5.8
2020/09/21 01:46:44.000    455571.3066   3639410.9709   5200658.8215   1   7   0.0164   0.0306   0.0314   0.0128   0.0216   0.0046  14.00    5.8
2020/09/21 01:46:52.000    455571.3062   3639410.9809   5200658.8205   1   7   0.0245   0.0449   0.0466   0.0199   0.0317   0.0078  22.00    5.9
2020/09/21 01:47:00.000    455571.3084   3639410.9544   5200658.8109   1   7   0.0059   0.0122   0.0127   0.0029   0.0087  -0.0011   0.00    6.0
2020/09/21 01:47:02.000    455571.3089   3639410.9592   5200658.8116   1   7   0.0063   0.0130   0.0135   0.0034   0.0093  -0.0012   2.00    6.1
2020/09/21 01:47:03.000    455571.3088   3639410.9550   5200658.8090   1   7   0.0069   0.0139   0.0143   0.0039   0.0099  -0.0013   3.00    6.2
2020/09/21 01:47:06.000    455571.3091   3639410.9598   5200658.8101   1   7   0.0090   0.0177   0.0180   0.0060   0.0125   0.0009   6.00    6.2
2020/09/21 01:47:09.000    455571.3114   3639410.9616   5200658.8115   1   7   0.0116   0.0222   0.0226   0.0084   0.0157   0.0023   9.00    6.3
2020/09/21 01:47:11.000    455571.3139   3639410.9670   5200658.8194   1   7   0.0134   0.0254   0.0261   0.0101   0.0180   0.0032  11.00    6.3
2020/09/21 01:47:13.000    455571.3127   3639410.9680   5200658.8213   1   7   0.0154   0.0288   0.0296   0.0119   0.0204   0.0040  13.00    6.3
2020/09/21 01:47:14.000    455571.3131   3639410.9682   5200658.8253   1   7   0.0163   0.0305   0.0315   0.0127   0.0216   0.0044  14.00    6.3
2020/09/21 01:47:17.000    455571.3140   3639410.9744   5200658.8367   1   7   0.0194   0.0358   0.0371   0.0153   0.0254   0.0056  17.00    6.3
2020/09/21 01:47:19.000    455571.3137   3639410.9715   5200658.8401   1   7   0.0214   0.0394   0.0409   0.0171   0.0279   0.0064  19.00    6.3
2020/09/21 01:47:23.000    455571.3133   3639410.9752   5200658.8467   1   7   0.0255   0.0467   0.0487   0.0206   0.0331   0.0079  23.00    6.2
2020/09/21 01:47:25.000    455571.3144   3639410.9783   5200658.8462   1   7   0.0276   0.0504   0.0526   0.0223   0.0358   0.0086  25.00    6.2
2020/09/21 01:47:30.000    455571.3102   3639410.9495   5200658.8049   1   7   0.0061   0.0122   0.0127   0.0029   0.0087  -0.0010   0.00    6.3
2020/09/21 01:47:33.000    455571.3114   3639410.9503   5200658.8032   1   7   0.0070   0.0139   0.0143   0.0039   0.0099  -0.0006   3.00    6.3
2020/09/21 01:47:44.000    455571.2998   3639410.9222   5200658.7878   1   7   0.0163   0.0305   0.0316   0.0126   0.0217   0.0042  14.00    6.3
2020/09/21 01:47:48.000    455571.2903   3639410.9069   5200658.7804   1   7   0.0203   0.0376   0.0391   0.0161   0.0267   0.0058  18.00    6.3
2020/09/21 01:47:53.000    455571.2775   3639410.8826   5200658.7553   1   7   0.0254   0.0467   0.0489   0.0204   0.0333   0.0076  23.00    6.3
2020/09/21 01:47:58.000    455571.2711   3639410.8530   5200658.7315   1   7   0.0306   0.0560   0.0588   0.0247   0.0399   0.0093  28.00    6.3
2020/09/21 01:48:00.000    455571.3092   3639410.9538   5200658.8055   1   7   0.0059   0.0121   0.0127   0.0029   0.0087  -0.0011   0.00    6.5
2020/09/21 01:48:03.000    455571.3079   3639410.9427   5200658.7933   1   7   0.0069   0.0139   0.0143   0.0038   0.0099  -0.0013   3.00    6.6
2020/09/21 01:48:05.000    455571.3073   3639410.9400   5200658.7903   1   7   0.0082   0.0162   0.0166   0.0052   0.0116  -0.0001   5.00    6.6
2020/09/21 01:48:07.000    455571.3048   3639410.9378   5200658.7874   1   7   0.0098   0.0191   0.0195   0.0067   0.0136   0.0011   7.00    6.6
2020/09/21 01:48:09.000    455571.3025   3639410.9351   5200658.7836   1   7   0.0115   0.0221   0.0227   0.0083   0.0158   0.0021   9.00    6.7
2020/09/21 01:48:11.999    455571.3010   3639410.9335   5200658.7771   1   7   0.0143   0.0270   0.0280   0.0108   0.0193   0.0033  12.00    6.6
2020/09/21 01:48:17.000    455571.2995   3639410.9344   5200658.7736   1   7   0.0193   0.0358   0.0374   0.0151   0.0256   0.0052  17.00    6.6
2020/09/21 01:48:25.000    455571.2953   3639410.9424   5200658.7662   1   7   0.0274   0.0504   0.0530   0.0220   0.0361   0.0079  25.00    6.6
2020/09/21 01:48:27.000    455571.2963   3639410.9379   5200658.7573   1   7   0.0295   0.0541   0.0570   0.0237   0.0387   0.0086  27.00    6.6
2020/09/21 01:48:29.000    455571.2967   3639410.9333   5200658.7529   1   7   0.0316   0.0579   0.0610   0.0254   0.0414   0.0092  29.00    6.6
2020/09/21 01:48:32.000    455571.3111   3639410.9467   5200658.7965   1   7   0.0064   0.0130   0.0135   0.0033   0.0093  -0.0009   2.00    6.7
2020/09/21 01:48:35.000    455571.3125   3639410.9425   5200658.7937   1   7   0.0082   0.0162   0.0166   0.0051   0.0117  -0.0010   5.00    6.7
2020/09/21 01:48:39.000    455571.3146   3639410.9342   5200658.7810   1   7   0.0115   0.0221   0.0228   0.0082   0.0158   0.0019   9.00    6.7
2020/09/21 01:48:48.000    455571.3196   3639410.9075   5200658.7658   1   7   0.0202   0.0375   0.0394   0.0158   0.0269   0.0052  18.00    6.7
2020/09/21 01:48:50.000    455571.3224   3639410.9020   5200658.7640   1   7   0.0222   0.0412   0.0433   0.0175   0.0295   0.0059  20.00    6.6
2020/09/21 01:48:51.000    455571.3223   3639410.8965   5200658.7582   1   7   0.0233   0.0430   0.0453   0.0184   0.0309   0.0062  21.00    6.6
2020/09/21 01:48:53.000    455571.3263   3639410.8945   5200658.7541   1   7   0.0253   0.0467   0.0493   0.0201   0.0335   0.0069  23.00    6.6
2020/09/21 01:49:03.000    455571.3152   3639410.9536   5200658.8063   1   7   0.0068   0.0138   0.0143   0.0037   0.0100  -0.0009   3.00    6.6
2020/09/21 01:49:08.000    455571.3233   3639410.9633   5200658.8077   1   7   0.0106   0.0205   0.0212   0.0074   0.0147   0.0013   8.00    6.6
2020/09/21 01:49:10.000    455571.3243   3639410.9632   5200658.8052   1   7   0.0124   0.0237   0.0246   0.0090   0.0170   0.0021  10.00    6.5
2020/09/21 01:49:17.000    455571.3239   3639410.9674   5200658.8003   1   7   0.0192   0.0357   0.0376   0.0148   0.0257   0.0046  17.00    6.6
2020/09/21 01:49:19.000    455571.3236   3639410.9674   5200658.7998   1   7   0.0212   0.0393   0.0415   0.0165   0.0283   0.0053  19.00    6.6
2020/09/21 01:49:21.000    455571.3198   3639410.9666   5200658.8026   1   7   0.0232   0.0430   0.0455   0.0182   0.0310   0.0059  21.00    6.6
2020/09/21 01:49:23.000    455571.3203   3639410.9679   5200658.8069   1   7   0.0252   0.0467   0.0495   0.0199   0.0336   0.0065  23.00    6.6
2020/09/21 01:49:33.000    455571.3117   3639410.9462   5200658.7983   1   7   0.0069   0.0138   0.0143   0.0038   0.0100  -0.0010   3.00    6.6
2020/09/21 01:49:35.000    455571.3111   3639410.9441   5200658.7990   1   7   0.0081   0.0162   0.0167   0.0050   0.0117  -0.0008   5.00    6.5
2020/09/21 01:49:38.000    455571.3119   3639410.9384   5200658.7945   1   7   0.0105   0.0205   0.0212   0.0073   0.0148   0.0012   8.00    6.5
2020/09/21 01:49:42.000    455571.3126   3639410.9391   5200658.7917   1   7   0.0142   0.0270   0.0283   0.0105   0.0195   0.0027  12.00    6.5
2020/09/21 01:49:47.000    455571.3108   3639410.9426   5200658.7919   1   7   0.0191   0.0357   0.0378   0.0147   0.0258   0.0043  17.00    6.5
2020/09/21 01:49:49.000    455571.3111   3639410.9444   5200658.7917   1   7   0.0211   0.0393   0.0417   0.0164   0.0284   0.0049  19.00    6.5
2020/09/21 01:49:50.000    455571.3116   3639410.9467   5200658.7955   1   7   0.0221   0.0412   0.0437   0.0172   0.0298   0.0052  20.00    6.5
2020/09/21 01:49:52.000    455571.3107   3639410.9524   5200658.7995   1   7   0.0242   0.0448   0.0476   0.0189   0.0324   0.0058  22.00    6.5
2020/09/21 01:50:00.000    455571.3123   3639410.9489   5200658.7950   1   7   0.0059   0.0121   0.0127   0.0028   0.0087  -0.0009   0.00    6.6
2020/09/21 01:50:20.000    455571.3106   3639410.9537   5200658.8031   1   7   0.0221   0.0411   0.0438   0.0170   0.0299   0.0048  20.00    6.7
2020/09/21 01:50:27.000    455571.3106   3639410.9478   5200658.8074   1   7   0.0292   0.0541   0.0580   0.0228   0.0393   0.0067  27.00    6.7
2020/09/21 01:50:32.000    455571.3115   3639410.9456   5200658.7970   1   7   0.0063   0.0128   0.0134   0.0032   0.0094  -0.0010   2.00    6.9
2020/09/21 01:50:33.000    455571.3112   3639410.9444   5200658.8008   1   7   0.0068   0.0138   0.0143   0.0037   0.0100  -0.0012   3.00    7.0
2020/09/21 01:50:36.000    455571.3082   3639410.9374   5200658.8148   1   7   0.0089   0.0175   0.0182   0.0057   0.0127  -0.0009   6.00    7.1
2020/09/21 01:50:37.000    455571.3058   3639410.9373   5200658.8149   1   7   0.0097   0.0189   0.0197   0.0064   0.0138  -0.0002   7.00    7.1
2020/09/21 01:50:40.000    455571.3022   3639410.9361   5200658.8228   1   7   0.0123   0.0236   0.0248   0.0088   0.0172   0.0016  10.00    7.2
2020/09/21 01:50:42.000    455571.3015   3639410.9378   5200658.8271   1   7   0.0142   0.0269   0.0284   0.0104   0.0196   0.0022  12.00    7.2
2020/09/21 01:50:45.000    455571.2985   3639410.9362   5200658.8302   1   7   0.0171   0.0321   0.0341   0.0128   0.0234   0.0031  15.00    7.3
2020/09/21 01:50:47.000    455571.2989   3639410.9377   5200658.8328   1   7   0.0190   0.0357   0.0380   0.0144   0.0260   0.0036  17.00    7.3
2020/09/21 01:50:50.000    455571.2965   3639410.9373   5200658.8379   1   7   0.0220   0.0411   0.0440   0.0169   0.0300   0.0044  20.00    7.4
2020/09/21 01:50:52.000    455571.2963   3639410.9420   5200658.8420   1   7   0.0240   0.0448   0.0480   0.0185   0.0327   0.0049  22.00    7.4
2020/09/21 01:50:53.000    455571.2954   3639410.9414   5200658.8396   1   7   0.0251   0.0467   0.0500   0.0193   0.0340   0.0051  23.00    7.4
2020/09/21 01:50:55.000    455571.2913   3639410.9425   5200658.8456   1   7   0.0271   0.0504   0.0541   0.0210   0.0368   0.0056  25.00    7.4
2020/09/21 01:50:58.000    455571.2889   3639410.9436   5200658.8460   1   7   0.0301   0.0560   0.0602   0.0234   0.0409   0.0063  28.00    7.4
