% program   : rnx2rtkp ver.2.4.3 b33
% inp file  : /home/danisimo/post/R1_193.2020-111.2021/R00108518.21o
% inp file  : /home/danisimo/post/NSK1_193.2020-111.2021/NSK10850.21o
% inp file  : /home/danisimo/post/NSK1_193.2020-111.2021/NSK10850.21N
% obs start : 2021/03/26 01:58:38.5 GPST (week2150 439118.5s)
% obs end   : 2021/03/26 11:58:22.0 GPST (week2150 475102.0s)
% ref pos   :   447670.3040   3638117.3850   5202281.5640
%
% (x/y/z-ecef=WGS84,Q=1:fix,2:float,3:sbas,4:dgps,5:single,6:ppp,ns=# of satellites)
%  GPST                      x-ecef(m)      y-ecef(m)      z-ecef(m)   Q  ns   sdx(m)   sdy(m)   sdz(m)  sdxy(m)  sdyz(m)  sdzx(m) age(s)  ratio
2021/03/26 01:58:38.502    455571.1863   3639412.2576   5200659.7147   2   8   0.5655   1.0167   1.2949   0.1923   0.9063   0.2959   8.50    0.0
2021/03/26 01:58:39.002    455571.2097   3639412.3036   5200659.6437   2   8   0.4023   0.7238   0.9214   0.1396   0.6448   0.2103   9.00    0.0
2021/03/26 01:58:39.502    455571.1848   3639412.2508   5200659.5631   2   8   0.3292   0.5924   0.7540   0.1149   0.5276   0.1720   9.50    0.0
2021/03/26 01:58:40.002    455571.1745   3639412.2004   5200659.5300   2   8   0.2855   0.5137   0.6538   0.0999   0.4575   0.1491  10.00    0.0
2021/03/26 01:58:40.502    455571.1636   3639412.1370   5200659.4200   2   8   0.2556   0.4599   0.5852   0.0895   0.4095   0.1335  10.50    0.0
2021/03/26 01:58:41.002    455571.1684   3639412.0691   5200659.3243   2   8   0.2335   0.4201   0.5345   0.0818   0.3740   0.1219  11.00    0.0
2021/03/26 01:58:41.502    455571.1784   3639412.0379   5200659.2809   2   8   0.2163   0.3892   0.4951   0.0758   0.3465   0.1129  11.50    0.0
2021/03/26 01:58:42.002    455571.1780   3639411.9915   5200659.2231   2   8   0.2024   0.3643   0.4634   0.0709   0.3242   0.1057  12.00    0.0
2021/03/26 01:58:46.002    455571.1751   3639411.8928   5200659.2551   2   8   0.1912   0.3439   0.4371   0.0664   0.3059   0.0997  16.00    0.0
2021/03/26 01:58:59.000    455571.2503   3639411.2502   5200659.9460   2   8   0.5667   1.0167   1.2946   0.1902   0.9048   0.2952  29.00    1.1
2021/03/26 01:59:00.000    455571.3519   3639411.6042   5200660.0761   2   8   0.4031   0.7237   0.9209   0.1381   0.6436   0.2097   0.00    1.5
2021/03/26 01:59:02.000    455571.2697   3639411.4089   5200659.9469   2   8   0.3296   0.5919   0.7527   0.1136   0.5260   0.1713   2.00    1.3
2021/03/26 01:59:05.000    455571.2253   3639411.3962   5200660.0112   2   8   0.2857   0.5129   0.6515   0.0985   0.4553   0.1481   5.00    1.2
2021/03/26 01:59:08.000    455571.2018   3639411.3868   5200659.9441   2   8   0.2558   0.4589   0.5823   0.0880   0.4070   0.1323   8.00    1.1
2021/03/26 01:59:09.000    455571.1476   3639411.3538   5200659.8881   2   8   0.2336   0.4191   0.5315   0.0803   0.3715   0.1207   9.00    1.1
2021/03/26 01:59:12.000    455571.1045   3639411.3379   5200659.8675   2   8   0.2165   0.3882   0.4919   0.0742   0.3438   0.1116  12.00    1.0
2021/03/26 01:59:16.000    455571.0902   3639411.3332   5200659.7853   2   8   0.2029   0.3635   0.4602   0.0690   0.3217   0.1044  16.00    1.0
2021/03/26 01:59:19.000    455571.0948   3639411.3144   5200659.7286   2   8   0.1916   0.3432   0.4341   0.0647   0.3035   0.0984  19.00    1.0
2021/03/26 01:59:21.000    455571.0926   3639411.2930   5200659.6903   2   8   0.1821   0.3260   0.4122   0.0610   0.2881   0.0934  21.00    1.0
2021/03/26 01:59:27.000    455571.1017   3639411.2730   5200659.6770   2   8   0.1745   0.3121   0.3942   0.0573   0.2755   0.0894  27.00    1.1
2021/03/26 01:59:30.000    455570.9305   3639411.4321   5200659.0112   2   8   0.1652   0.2935   0.3646   0.0541   0.2554   0.0817   0.00    1.9
2021/03/26 01:59:32.000    455570.7449   3639411.2484   5200658.4521   2   8   0.1587   0.2807   0.3456   0.0511   0.2424   0.0769   2.00    1.3
2021/03/26 01:59:33.000    455570.6463   3639411.1443   5200658.1405   2   8   0.1529   0.2700   0.3307   0.0489   0.2322   0.0733   3.00    1.3
2021/03/26 01:59:37.000    455570.6365   3639411.1329   5200658.0234   2   8   0.1478   0.2608   0.3188   0.0469   0.2239   0.0705   7.00    1.9
2021/03/26 01:59:39.000    455570.6316   3639411.1074   5200657.9793   2   8   0.1432   0.2527   0.3086   0.0452   0.2168   0.0681   9.00    1.3
2021/03/26 01:59:41.000    455570.6339   3639411.1029   5200657.9753   2   8   0.1391   0.2454   0.2996   0.0437   0.2105   0.0661  11.00    1.0
2021/03/26 01:59:43.000    455570.6472   3639411.0850   5200657.9869   2   8   0.1354   0.2388   0.2916   0.0423   0.2049   0.0644  13.00    1.1
2021/03/26 01:59:45.000    455570.6630   3639411.0707   5200658.0015   2   8   0.1321   0.2328   0.2845   0.0410   0.1998   0.0628  15.00    1.1
2021/03/26 01:59:50.000    455570.6863   3639411.0773   5200658.0281   2   8   0.1294   0.2281   0.2787   0.0392   0.1957   0.0616  20.00    1.4
2021/03/26 01:59:52.000    455570.7178   3639411.0765   5200658.0521   2   8   0.1267   0.2232   0.2730   0.0379   0.1917   0.0604  22.00    1.3
2021/03/26 01:59:54.000    455570.7492   3639411.0696   5200658.0605   2   8   0.1243   0.2189   0.2678   0.0367   0.1880   0.0593  24.00    1.2
2021/03/26 01:59:56.000    455570.7725   3639411.0767   5200658.0693   2   8   0.1221   0.2149   0.2632   0.0354   0.1847   0.0583  26.00    1.1
2021/03/26 01:59:58.000    455570.7814   3639411.0932   5200658.0814   2   8   0.1201   0.2113   0.2589   0.0342   0.1817   0.0575  28.00    1.1
2021/03/26 02:00:03.000    455570.6102   3639411.0697   5200657.5628   2   8   0.1144   0.2005   0.2411   0.0345   0.1696   0.0526   3.00    2.0
2021/03/26 02:00:05.000    455570.4821   3639410.9819   5200657.1895   2   8   0.1122   0.1959   0.2332   0.0332   0.1643   0.0504   5.00    1.1
2021/03/26 02:00:07.000    455570.4030   3639410.9322   5200656.9541   2   8   0.1102   0.1920   0.2273   0.0322   0.1604   0.0488   7.00    1.2
2021/03/26 02:00:09.000    455570.3587   3639410.8963   5200656.8168   2   8   0.1084   0.1885   0.2225   0.0313   0.1571   0.0476   9.00    1.8
2021/03/26 02:00:11.000    455570.4648   3639411.0444   5200656.6052   1   8   0.0127   0.0215   0.0277  -0.0049   0.0193   0.0067  11.00    3.1
2021/03/26 02:00:18.000    455570.3524   3639410.8776   5200656.7443   2   8   0.1058   0.1838   0.2167   0.0289   0.1530   0.0464  18.00    2.5
2021/03/26 02:00:20.000    455570.3712   3639410.8605   5200656.7424   2   8   0.1045   0.1815   0.2141   0.0280   0.1512   0.0459  20.00    1.9
2021/03/26 02:00:22.000    455570.3859   3639410.8448   5200656.7296   2   8   0.1034   0.1794   0.2118   0.0271   0.1495   0.0455  22.00    1.6
2021/03/26 02:00:24.000    455570.3974   3639410.8366   5200656.7193   2   8   0.1023   0.1775   0.2098   0.0261   0.1481   0.0451  24.00    1.3
2021/03/26 02:00:29.000    455570.4205   3639410.8197   5200656.7069   2   8   0.1022   0.1771   0.2097   0.0242   0.1479   0.0453  29.00    1.0
2021/03/26 02:00:31.000    455570.1995   3639410.5676   5200656.3808   2   8   0.0965   0.1660   0.1902   0.0261   0.1347   0.0397   1.00    1.3
2021/03/26 02:00:33.000    455570.0944   3639410.5664   5200656.2503   2   8   0.0951   0.1625   0.1830   0.0249   0.1301   0.0375   3.00    2.0
2021/03/26 02:00:35.000    455570.0378   3639410.5927   5200656.1814   2   8   0.0938   0.1598   0.1782   0.0242   0.1270   0.0360   5.00    1.0
2021/03/26 02:00:38.000    455570.0206   3639410.6271   5200656.1620   2   8   0.0928   0.1578   0.1752   0.0235   0.1250   0.0352   8.00    1.1
2021/03/26 02:00:40.000    455570.0145   3639410.6505   5200656.1493   2   8   0.0918   0.1560   0.1728   0.0229   0.1234   0.0347  10.00    1.0
2021/03/26 02:00:42.000    455570.0153   3639410.6603   5200656.1519   2   8   0.0909   0.1544   0.1710   0.0222   0.1221   0.0343  12.00    1.1
2021/03/26 02:00:44.000    455570.0219   3639410.6740   5200656.1686   2   8   0.0901   0.1530   0.1695   0.0216   0.1210   0.0340  14.00    1.2
2021/03/26 02:00:48.000    455570.0414   3639410.6985   5200656.1979   2   8   0.0897   0.1523   0.1692   0.0204   0.1208   0.0341  18.00    1.0
2021/03/26 02:00:51.000    455570.0582   3639410.7012   5200656.2222   2   8   0.0894   0.1517   0.1690   0.0193   0.1205   0.0342  21.00    1.1
2021/03/26 02:00:53.000    455570.0762   3639410.6831   5200656.2438   2   8   0.0889   0.1509   0.1685   0.0184   0.1201   0.0343  23.00    1.2
2021/03/26 02:00:55.000    455570.0909   3639410.6826   5200656.2640   2   8   0.0886   0.1503   0.1682   0.0174   0.1199   0.0344  25.00    1.3
2021/03/26 02:00:57.000    455570.1053   3639410.6857   5200656.2831   2   8   0.0883   0.1498   0.1681   0.0163   0.1198   0.0345  27.00    1.4
2021/03/26 02:00:58.000    455570.1204   3639410.6904   5200656.2977   2   8   0.0878   0.1489   0.1675   0.0156   0.1193   0.0345  28.00    1.4
2021/03/26 02:01:01.000    455570.0200   3639410.4222   5200656.3063   2   8   0.0822   0.1385   0.1498   0.0195   0.1072   0.0292   1.00    1.6
2021/03/26 02:01:03.000    455570.0417   3639410.4656   5200656.4370   2   8   0.0813   0.1362   0.1448   0.0188   0.1040   0.0276   3.00    1.4
2021/03/26 02:01:05.000    455570.0649   3639410.4922   5200656.5100   2   8   0.0805   0.1345   0.1416   0.0183   0.1020   0.0265   5.00    1.3
2021/03/26 02:01:10.000    455570.0856   3639410.5107   5200656.5517   2   8   0.0802   0.1339   0.1407   0.0175   0.1015   0.0263  10.00    1.3
2021/03/26 02:01:12.000    455570.1115   3639410.5162   5200656.5817   2   8   0.0797   0.1330   0.1398   0.0170   0.1008   0.0261  12.00    1.3
2021/03/26 02:01:15.000    455570.1351   3639410.5245   5200656.6029   2   8   0.0795   0.1326   0.1397   0.0161   0.1007   0.0263  15.00    1.2
2021/03/26 02:01:17.000    455570.1542   3639410.5262   5200656.6131   2   8   0.0792   0.1321   0.1395   0.0153   0.1005   0.0264  17.00    1.2
2021/03/26 02:01:19.000    455570.1738   3639410.5283   5200656.6374   2   8   0.0790   0.1317   0.1395   0.0145   0.1005   0.0265  19.00    1.2
2021/03/26 02:01:25.000    455570.1900   3639410.5348   5200656.6522   2   8   0.0800   0.1334   0.1425   0.0113   0.1025   0.0277  25.00    1.2
2021/03/26 02:01:28.000    455570.2068   3639410.5361   5200656.6731   2   8   0.0804   0.1340   0.1440   0.0088   0.1034   0.0283  28.00    1.2
2021/03/26 02:01:30.000    455570.2920   3639410.2558   5200657.0235   2   8   0.0745   0.1232   0.1256   0.0156   0.0909   0.0225   0.00    1.7
2021/03/26 02:01:32.000    455570.5003   3639410.3517   5200657.4630   2   8   0.0738   0.1212   0.1210   0.0151   0.0881   0.0209   2.00    1.4
2021/03/26 02:01:34.000    455570.6529   3639410.3716   5200657.7318   2   8   0.0732   0.1198   0.1182   0.0148   0.0863   0.0198   4.00    1.5
2021/03/26 02:01:36.000    455570.7689   3639410.3689   5200657.9115   2   8   0.0727   0.1188   0.1164   0.0144   0.0852   0.0192   6.00    1.1
2021/03/26 02:01:39.000    455570.8421   3639410.3450   5200658.0043   2   8   0.0724   0.1183   0.1158   0.0139   0.0848   0.0190   9.00    1.2
2021/03/26 02:01:41.000    455570.8985   3639410.3438   5200658.0807   2   8   0.0721   0.1178   0.1155   0.0134   0.0846   0.0190  11.00    1.2
2021/03/26 02:01:43.000    455570.9461   3639410.3403   5200658.1347   2   8   0.0719   0.1174   0.1154   0.0127   0.0845   0.0191  13.00    1.4
2021/03/26 02:01:47.000    455570.9780   3639410.3357   5200658.1736   2   8   0.0722   0.1180   0.1169   0.0112   0.0854   0.0198  17.00    1.4
2021/03/26 02:01:49.000    455571.0069   3639410.3385   5200658.2066   2   8   0.0722   0.1180   0.1175   0.0100   0.0858   0.0202  19.00    1.4
2021/03/26 02:01:54.000    455571.0320   3639410.3340   5200658.2245   2   8   0.0733   0.1197   0.1207   0.0059   0.0879   0.0215  24.00    1.3
2021/03/26 02:01:56.000    455571.0497   3639410.3433   5200658.2480   2   8   0.0735   0.1201   0.1219   0.0020   0.0886   0.0221  26.00    1.2
2021/03/26 02:02:00.000    455571.3732   3639410.1831   5200658.7273   2   8   0.0680   0.1102   0.1048   0.0126   0.0771   0.0162   0.00    1.6
2021/03/26 02:02:02.000    455571.7289   3639410.2489   5200659.2152   2   8   0.0675   0.1087   0.1014   0.0124   0.0750   0.0148   2.00    1.2
2021/03/26 02:02:03.000    455572.0268   3639410.2785   5200659.5896   2   8   0.0669   0.1074   0.0989   0.0124   0.0735   0.0138   3.00    1.3
2021/03/26 02:02:05.000    455572.2344   3639410.2393   5200659.8329   2   8   0.0666   0.1066   0.0975   0.0122   0.0726   0.0132   5.00    1.5
2021/03/26 02:02:07.000    455572.3791   3639410.1976   5200660.0014   2   8   0.0663   0.1060   0.0969   0.0119   0.0721   0.0129   7.00    2.2
2021/03/26 02:02:11.000    455572.4496   3639410.1317   5200660.0671   2   8   0.0664   0.1063   0.0977   0.0110   0.0726   0.0134  11.00    1.3
2021/03/26 02:02:13.000    455572.5135   3639410.1291   5200660.1424   2   8   0.0663   0.1062   0.0981   0.0103   0.0729   0.0138  13.00    1.0
2021/03/26 02:02:16.000    455572.5522   3639410.1310   5200660.2031   2   8   0.0666   0.1067   0.0994   0.0088   0.0737   0.0145  16.00    1.2
2021/03/26 02:02:18.000    455572.5840   3639410.1376   5200660.2497   2   8   0.0667   0.1069   0.1004   0.0075   0.0743   0.0151  18.00    1.5
2021/03/26 02:02:20.000    455572.6104   3639410.1449   5200660.2880   2   8   0.0669   0.1073   0.1016   0.0057   0.0750   0.0157  20.00    1.8
2021/03/26 02:02:24.000    455572.6284   3639410.1586   5200660.3188   2   8   0.0679   0.1090   0.1048  -0.0047   0.0771   0.0171  24.00    2.1
2021/03/26 02:02:26.000    455572.6403   3639410.1762   5200660.3476   2   8   0.0683   0.1097   0.1064  -0.0073   0.0782   0.0179  26.00    2.4
2021/03/26 02:02:29.000    455572.6485   3639410.1895   5200660.3654   2   8   0.0692   0.1112   0.1093  -0.0102   0.0800   0.0191  29.00    2.6
2021/03/26 02:02:31.000    455573.1227   3639409.9892   5200660.8145   2   8   0.0621   0.0989   0.0883   0.0108   0.0660   0.0108   1.00    1.0
2021/03/26 02:02:33.000    455573.5129   3639409.9442   5200661.1795   1   8   0.0067   0.0115   0.0148   0.0015   0.0102   0.0034   3.00    4.7
2021/03/26 02:02:34.000    455573.9552   3639409.8849   5200661.5845   2   8   0.0614   0.0970   0.0847   0.0108   0.0638   0.0090   4.00    1.0
2021/03/26 02:02:37.000    455574.1559   3639409.7131   5200661.7396   2   8   0.0613   0.0968   0.0845   0.0105   0.0637   0.0089   7.00    1.1
2021/03/26 02:02:44.000    455574.1870   3639409.5086   5200661.7329   2   8   0.0622   0.0983   0.0876   0.0082   0.0657   0.0107  14.00    1.3
2021/03/26 02:02:46.000    455574.2479   3639409.5004   5200661.8035   2   8   0.0623   0.0987   0.0887   0.0069   0.0663   0.0114  16.00    1.8
2021/03/26 02:02:48.000    455574.2926   3639409.5026   5200661.8634   2   8   0.0626   0.0991   0.0899   0.0052   0.0671   0.0121  18.00    1.5
2021/03/26 02:02:51.000    455574.3174   3639409.5089   5200661.9029   2   8   0.0632   0.1003   0.0923  -0.0032   0.0686   0.0134  21.00    1.2
2021/03/26 02:02:53.000    455574.3352   3639409.5207   5200661.9423   2   8   0.0636   0.1010   0.0940  -0.0062   0.0697   0.0142  23.00    1.0
2021/03/26 02:02:57.000    455574.3402   3639409.5344   5200661.9673   2   8   0.0650   0.1033   0.0980  -0.0100   0.0724   0.0160  27.00    1.3
2021/03/26 02:02:59.000    455574.3476   3639409.5542   5200661.9850   2   8   0.0656   0.1043   0.1001  -0.0116   0.0737   0.0169  29.00    1.6
2021/03/26 02:03:01.000    455575.1085   3639409.5609   5200662.5713   2   8   0.0581   0.0913   0.0778   0.0096   0.0589   0.0070   1.00    1.0
2021/03/26 02:03:04.000    455575.6088   3639409.3200   5200662.8869   2   8   0.0579   0.0906   0.0765   0.0098   0.0581   0.0060   4.00    2.1
2021/03/26 02:03:06.000    455575.9742   3639409.1387   5200663.1424   2   8   0.0577   0.0903   0.0760   0.0097   0.0578   0.0056   6.00    1.3
2021/03/26 02:03:10.000    455576.1296   3639408.8908   5200663.2184   2   8   0.0580   0.0907   0.0771   0.0088   0.0585   0.0065  10.00    1.3
2021/03/26 02:03:12.000    455576.2717   3639408.8291   5200663.3443   2   8   0.0581   0.0909   0.0778   0.0080   0.0590   0.0072  12.00    1.0
2021/03/26 02:03:14.000    455576.5458   3639408.6777   5200663.4020   1   8   0.0156   0.0258   0.0324  -0.0073   0.0225   0.0079  14.00    3.5
2021/03/26 02:03:16.000    455576.5349   3639408.6362   5200663.3789   1   8   0.0175   0.0288   0.0361  -0.0085   0.0251   0.0088  16.00   17.0
2021/03/26 02:03:23.000    455576.5162   3639408.5542   5200663.3357   1   8   0.0244   0.0398   0.0494  -0.0125   0.0346   0.0122  23.00   14.0
2021/03/26 02:03:25.000    455576.5117   3639408.5400   5200663.3260   1   8   0.0264   0.0430   0.0533  -0.0136   0.0373   0.0132  25.00    7.3
2021/03/26 02:03:27.000    455576.5080   3639408.5323   5200663.3199   1   8   0.0284   0.0462   0.0572  -0.0148   0.0401   0.0142  27.00    4.5
2021/03/26 02:03:29.000    455576.5036   3639408.5266   5200663.3143   1   8   0.0304   0.0494   0.0611  -0.0159   0.0429   0.0152  29.00    3.2
2021/03/26 02:03:30.000    455577.5071   3639409.0177   5200664.3379   2   8   0.0547   0.0850   0.0694   0.0091   0.0532   0.0022   0.00    2.9
2021/03/26 02:03:34.000    455578.1078   3639408.6305   5200664.5674   2   8   0.0546   0.0845   0.0684   0.0093   0.0526  -0.0022   4.00    1.3
2021/03/26 02:03:36.000    455578.5586   3639408.3579   5200664.7887   2   8   0.0545   0.0842   0.0681   0.0092   0.0524  -0.0028   6.00    1.3
2021/03/26 02:03:41.000    455578.6897   3639407.9752   5200664.7827   2   8   0.0550   0.0851   0.0702   0.0079   0.0537   0.0033  11.00    1.2
2021/03/26 02:03:43.000    455578.8364   3639407.8969   5200664.8968   2   8   0.0552   0.0855   0.0712   0.0069   0.0544   0.0047  13.00    1.0
2021/03/26 02:03:47.000    455578.8952   3639407.8115   5200664.9416   2   8   0.0561   0.0871   0.0744   0.0032   0.0564   0.0073  17.00    1.2
2021/03/26 02:03:49.000    455578.9483   3639407.8078   5200665.0077   2   8   0.0566   0.0879   0.0761  -0.0036   0.0575   0.0085  19.00    1.6
2021/03/26 02:03:50.000    455578.9941   3639407.8198   5200665.0742   2   8   0.0567   0.0882   0.0770  -0.0051   0.0580   0.0091  20.00    1.1
2021/03/26 02:03:52.000    455579.0187   3639407.8255   5200665.1229   2   8   0.0573   0.0892   0.0790  -0.0073   0.0593   0.0102  22.00    1.2
2021/03/26 02:04:01.000    455580.2676   3639408.2069   5200665.8456   2   8   0.0523   0.0802   0.0627   0.0089   0.0486  -0.0052   1.00    2.2
2021/03/26 02:04:03.000    455581.1165   3639407.8885   5200666.0938   2   8   0.0520   0.0794   0.0614   0.0092   0.0479  -0.0060   3.00    1.2
2021/03/26 02:04:05.000    455581.7255   3639407.5073   5200666.2531   2   8   0.0519   0.0791   0.0610   0.0094   0.0476  -0.0062   5.00    1.2
2021/03/26 02:04:06.000    455582.2595   3639407.2911   5200666.4655   2   8   0.0518   0.0788   0.0606   0.0094   0.0474  -0.0064   6.00    1.0
2021/03/26 02:04:08.000    455582.6054   3639407.0165   5200666.5702   2   8   0.0518   0.0788   0.0611   0.0091   0.0477  -0.0060   8.00    1.0
2021/03/26 02:04:11.000    455582.7916   3639406.7698   5200666.6116   2   8   0.0522   0.0795   0.0627   0.0082   0.0487  -0.0048  11.00    2.0
2021/03/26 02:04:13.000    455582.9379   3639406.6652   5200666.6824   2   8   0.0524   0.0800   0.0640   0.0072   0.0494  -0.0034  13.00    1.8
2021/03/26 02:04:15.000    455583.0397   3639406.5954   5200666.7413   2   8   0.0528   0.0806   0.0655   0.0058   0.0504   0.0016  15.00    1.1
2021/03/26 02:04:17.000    455583.1050   3639406.5538   5200666.7921   2   8   0.0532   0.0814   0.0673   0.0036   0.0515   0.0044  17.00    1.1
2021/03/26 02:04:21.000    455583.1184   3639406.5053   5200666.8095   2   8   0.0545   0.0837   0.0716  -0.0061   0.0543   0.0077  21.00    1.4
2021/03/26 02:04:28.000    455583.0871   3639406.4820   5200666.8070   2   8   0.0576   0.0888   0.0805  -0.0122   0.0601   0.0122  28.00    1.5
2021/03/26 02:04:30.000    455584.4440   3639407.2356   5200667.5570   2   8   0.0495   0.0747   0.0554   0.0093   0.0438  -0.0074   0.00    1.2
2021/03/26 02:04:34.000    455585.1394   3639406.6972   5200667.5242   2   8   0.0495   0.0744   0.0550   0.0095   0.0436  -0.0076   4.00    1.3
2021/03/26 02:04:35.000    455585.7857   3639406.4386   5200667.6729   2   8   0.0493   0.0740   0.0546   0.0097   0.0433  -0.0077   5.00    1.0
2021/03/26 02:04:43.000    455585.7900   3639405.7118   5200667.3953   2   8   0.0507   0.0764   0.0596   0.0073   0.0464  -0.0050  13.00    1.2
2021/03/26 02:04:46.000    455585.8716   3639405.6113   5200667.4262   2   8   0.0514   0.0777   0.0623   0.0050   0.0481  -0.0015  16.00    1.5
2021/03/26 02:04:47.000    455585.9518   3639405.5962   5200667.4933   2   8   0.0515   0.0780   0.0632   0.0037   0.0486   0.0025  17.00    1.2
2021/03/26 02:04:51.000    455585.9655   3639405.5413   5200667.5011   2   8   0.0529   0.0804   0.0677  -0.0061   0.0515   0.0068  21.00    2.0
2021/03/26 02:04:54.000    455585.9582   3639405.5427   5200667.5278   2   8   0.0541   0.0824   0.0715  -0.0091   0.0539   0.0090  24.00    1.9
2021/03/26 02:04:57.000    455585.9343   3639405.5513   5200667.5441   2   8   0.0554   0.0847   0.0755  -0.0116   0.0566   0.0110  27.00    1.6
2021/03/26 02:04:58.000    455585.9156   3639405.5783   5200667.5722   2   8   0.0558   0.0854   0.0769  -0.0124   0.0574   0.0116  28.00    1.2
2021/03/26 02:05:01.000    455587.3436   3639406.0556   5200668.2346   1   8   0.0059   0.0103   0.0130   0.0016   0.0089   0.0027   1.00    4.6
2021/03/26 02:05:04.000    455588.1183   3639405.8788   5200668.2184   2   8   0.0474   0.0705   0.0505   0.0097   0.0404  -0.0081   4.00    1.0
2021/03/26 02:05:06.000    455588.6661   3639405.4470   5200668.2118   2   8   0.0474   0.0704   0.0508   0.0097   0.0405  -0.0080   6.00    1.2
2021/03/26 02:05:07.000    455589.1508   3639405.2171   5200668.3050   2   8   0.0473   0.0703   0.0509   0.0097   0.0406  -0.0079   7.00    1.3
2021/03/26 02:05:09.000    455589.4593   3639404.9423   5200668.3257   2   8   0.0475   0.0706   0.0519   0.0093   0.0412  -0.0074   9.00    1.1
2021/03/26 02:05:12.000    455589.6177   3639404.7008   5200668.3208   2   8   0.0480   0.0715   0.0541   0.0082   0.0425  -0.0063  12.00    1.0
2021/03/26 02:05:15.000    455589.6998   3639404.5660   5200668.3281   2   8   0.0488   0.0728   0.0568   0.0063   0.0442  -0.0044  15.00    1.3
2021/03/26 02:05:18.000    455589.7347   3639404.4964   5200668.3416   2   8   0.0497   0.0745   0.0601   0.0026   0.0463   0.0024  18.00    1.2
2021/03/26 02:05:20.000    455589.7540   3639404.4745   5200668.3677   2   8   0.0503   0.0757   0.0624  -0.0044   0.0478   0.0050  20.00    1.1
2021/03/26 02:05:22.000    455589.7538   3639404.4662   5200668.3914   2   8   0.0511   0.0770   0.0650  -0.0069   0.0494   0.0069  22.00    1.2
2021/03/26 02:05:25.000    455589.7248   3639404.4654   5200668.4064   2   8   0.0524   0.0792   0.0690  -0.0098   0.0520   0.0091  25.00    1.4
2021/03/26 02:05:28.000    455589.6802   3639404.4769   5200668.4145   2   8   0.0539   0.0818   0.0733  -0.0123   0.0548   0.0112  28.00    1.3
2021/03/26 02:05:33.000    455590.9271   3639405.3942   5200669.1138   2   8   0.0453   0.0669   0.0467   0.0097   0.0377  -0.0083   3.00    1.4
2021/03/26 02:05:35.000    455591.5240   3639404.9478   5200668.9894   2   8   0.0453   0.0667   0.0468   0.0099   0.0377  -0.0083   5.00    1.5
2021/03/26 02:05:38.000    455591.8376   3639404.4743   5200668.8590   2   8   0.0455   0.0672   0.0482   0.0095   0.0385  -0.0078   8.00    1.3
2021/03/26 02:05:41.000    455592.0108   3639404.1866   5200668.8066   2   8   0.0461   0.0681   0.0503   0.0086   0.0398  -0.0069  11.00    1.2
2021/03/26 02:05:42.000    455592.1897   3639404.1021   5200668.8553   2   8   0.0462   0.0683   0.0510   0.0081   0.0403  -0.0065  12.00    1.9
2021/03/26 02:05:44.000    455592.2926   3639403.9970   5200668.8689   2   8   0.0466   0.0692   0.0529   0.0070   0.0414  -0.0054  14.00    2.5
2021/03/26 02:05:47.000    455592.3309   3639403.9122   5200668.8721   2   8   0.0475   0.0708   0.0561   0.0042   0.0434  -0.0024  17.00    1.3
2021/03/26 02:05:49.000    455592.3483   3639403.8840   5200668.8911   2   8   0.0482   0.0720   0.0585  -0.0027   0.0449   0.0036  19.00    1.8
2021/03/26 02:05:53.000    455592.3191   3639403.8523   5200668.8919   2   8   0.0499   0.0749   0.0638  -0.0081   0.0483   0.0074  23.00    2.3
2021/03/26 02:05:55.000    455592.2877   3639403.8622   5200668.9106   2   8   0.0508   0.0765   0.0666  -0.0100   0.0501   0.0089  25.00    2.5
2021/03/26 02:05:57.000    455592.2408   3639403.8758   5200668.9241   2   8   0.0518   0.0782   0.0695  -0.0117   0.0520   0.0103  27.00    2.5
2021/03/26 02:06:00.000    455593.6794   3639405.2595   5200669.6481   2   8   0.0433   0.0633   0.0428   0.0099   0.0349  -0.0086   0.00    1.5
2021/03/26 02:06:02.000    455594.4827   3639405.0434   5200669.3910   2   8   0.0431   0.0626   0.0420   0.0103   0.0344  -0.0086   2.00    1.0
2021/03/26 02:06:06.000    455593.1499   3639403.8012   5200667.6457   2   8   0.0442   0.0631   0.0438   0.0114   0.0354  -0.0033   6.00    1.2
2021/03/26 02:06:13.000    455592.8943   3639403.6986   5200667.4028   2   8   0.0463   0.0658   0.0494   0.0100   0.0388   0.0064  13.00    1.1
2021/03/26 02:06:15.000    455592.8259   3639403.7805   5200667.2909   2   8   0.0471   0.0668   0.0515   0.0092   0.0401   0.0081  15.00    1.4
2021/03/26 02:06:19.000    455592.7313   3639403.8458   5200667.2233   2   8   0.0492   0.0693   0.0564   0.0070   0.0432   0.0110  19.00    1.8
2021/03/26 02:06:21.000    455592.6483   3639403.9125   5200667.1654   2   8   0.0503   0.0708   0.0590   0.0053   0.0449   0.0124  21.00    1.9
2021/03/26 02:06:23.000    455592.5616   3639403.9779   5200667.1144   2   8   0.0515   0.0723   0.0618   0.0024   0.0467   0.0138  23.00    1.8
2021/03/26 02:06:26.000    455592.4681   3639404.0348   5200667.0746   2   8   0.0535   0.0749   0.0662  -0.0057   0.0496   0.0159  26.00    1.4
2021/03/26 02:06:28.000    455592.3776   3639404.0939   5200667.0426   2   8   0.0550   0.0767   0.0693  -0.0077   0.0516   0.0173  28.00    1.1
2021/03/26 02:06:32.000    455593.5450   3639405.6869   5200666.9610   2   8   0.0426   0.0604   0.0407   0.0105   0.0328  -0.0016   2.00    2.2
2021/03/26 02:06:34.000    455593.4954   3639405.8548   5200666.2111   2   8   0.0427   0.0603   0.0408   0.0106   0.0327   0.0024   4.00    1.5
2021/03/26 02:06:36.000    455593.4147   3639405.9482   5200665.7273   2   8   0.0430   0.0605   0.0415   0.0105   0.0331   0.0039   6.00    1.2
2021/03/26 02:06:39.000    455593.2929   3639405.9777   5200665.4493   2   8   0.0437   0.0613   0.0435   0.0100   0.0342   0.0058   9.00    1.5
2021/03/26 02:06:41.000    455593.2186   3639406.0462   5200665.2874   2   8   0.0443   0.0620   0.0451   0.0095   0.0352   0.0071  11.00    1.0
2021/03/26 02:06:44.000    455593.1235   3639406.0984   5200665.1827   2   8   0.0455   0.0635   0.0482   0.0085   0.0371   0.0090  14.00    1.4
2021/03/26 02:06:46.000    455593.0423   3639406.1564   5200665.1033   2   8   0.0464   0.0646   0.0505   0.0075   0.0386   0.0103  16.00    1.1
2021/03/26 02:06:49.000    455592.9431   3639406.2006   5200665.0447   2   8   0.0480   0.0667   0.0543   0.0053   0.0410   0.0123  19.00    1.1
2021/03/26 02:06:54.000    455592.8355   3639406.2550   5200665.0195   2   8   0.0512   0.0708   0.0614  -0.0052   0.0457   0.0155  24.00    1.4
2021/03/26 02:06:57.000    455592.7341   3639406.2942   5200664.9903   2   8   0.0534   0.0736   0.0660  -0.0082   0.0488   0.0174  27.00    1.7
2021/03/26 02:06:59.000    455592.6375   3639406.3330   5200664.9692   2   8   0.0549   0.0756   0.0692  -0.0098   0.0509   0.0187  29.00    2.1
2021/03/26 02:07:02.000    455593.7823   3639408.0506   5200665.3135   2   8   0.0414   0.0577   0.0383   0.0097   0.0304   0.0046   2.00    1.4
2021/03/26 02:07:05.000    455593.6259   3639408.0660   5200664.7660   2   8   0.0417   0.0579   0.0390   0.0097   0.0307   0.0056   5.00    1.0
2021/03/26 02:07:08.000    455593.4938   3639408.0798   5200664.4935   2   8   0.0423   0.0587   0.0408   0.0093   0.0318   0.0069   8.00    1.1
2021/03/26 02:07:13.000    455593.3535   3639408.0823   5200664.3820   2   8   0.0441   0.0609   0.0455   0.0078   0.0347   0.0095  13.00    1.3
2021/03/26 02:07:14.000    455593.2726   3639408.1319   5200664.3054   2   8   0.0445   0.0614   0.0466   0.0073   0.0354   0.0101  14.00    1.4
2021/03/26 02:07:17.000    455593.1755   3639408.1698   5200664.2560   2   8   0.0460   0.0633   0.0502   0.0054   0.0378   0.0118  17.00    1.4
2021/03/26 02:07:20.000    455593.0768   3639408.2014   5200664.2154   2   8   0.0477   0.0656   0.0542   0.0005   0.0404   0.0137  20.00    1.4
2021/03/26 02:07:23.000    455592.9750   3639408.2373   5200664.1921   2   8   0.0497   0.0681   0.0586  -0.0058   0.0433   0.0155  23.00    1.3
2021/03/26 02:07:25.000    455592.8767   3639408.2679   5200664.1661   2   8   0.0511   0.0699   0.0616  -0.0077   0.0453   0.0168  25.00    1.2
2021/03/26 02:07:28.000    455592.7743   3639408.2988   5200664.1463   2   8   0.0533   0.0728   0.0663  -0.0100   0.0485   0.0187  28.00    1.1
2021/03/26 02:07:31.000    455594.8350   3639411.7048   5200666.4378   2   8   0.0402   0.0553   0.0361   0.0087   0.0283   0.0061   1.00    1.0
2021/03/26 02:07:32.000    455594.1470   3639411.4031   5200665.6777   2   8   0.0393   0.0549   0.0349   0.0082   0.0277  -0.0045   2.00    1.0
2021/03/26 02:07:34.000    455593.8456   3639411.4809   5200665.3571   2   8   0.0393   0.0548   0.0352   0.0086   0.0280  -0.0046   4.00    1.4
2021/03/26 02:07:37.000    455593.6190   3639411.5788   5200665.1697   2   8   0.0396   0.0553   0.0369   0.0085   0.0290  -0.0042   7.00    1.0
2021/03/26 02:07:40.000    455593.4380   3639411.6478   5200665.0600   2   8   0.0402   0.0564   0.0394   0.0076   0.0306  -0.0029  10.00    1.3
2021/03/26 02:07:43.000    455593.2857   3639411.6928   5200664.9876   2   8   0.0410   0.0579   0.0425   0.0059   0.0326   0.0027  13.00    1.5
2021/03/26 02:07:45.000    455593.1449   3639411.7197   5200664.9381   2   8   0.0416   0.0590   0.0449   0.0040   0.0341   0.0045  15.00    1.3
2021/03/26 02:07:47.000    455593.0141   3639411.7417   5200664.9031   2   8   0.0424   0.0604   0.0474  -0.0027   0.0358   0.0059  17.00    1.1
2021/03/26 02:07:50.000    455592.8895   3639411.7583   5200664.8674   2   8   0.0437   0.0627   0.0516  -0.0069   0.0385   0.0078  20.00    1.1
2021/03/26 02:07:53.000    455592.7705   3639411.7697   5200664.8410   2   8   0.0452   0.0653   0.0560  -0.0098   0.0415   0.0096  23.00    1.0
2021/03/26 02:07:56.000    455592.6548   3639411.7764   5200664.8202   2   8   0.0468   0.0682   0.0606  -0.0123   0.0446   0.0113  26.00    1.0
2021/03/26 02:07:58.000    455592.5425   3639411.7825   5200664.7989   2   8   0.0480   0.0702   0.0638  -0.0138   0.0467   0.0124  28.00    1.1
2021/03/26 02:08:00.000    455592.2465   3639411.7224   5200664.6456   2   8   0.0378   0.0522   0.0324   0.0093   0.0263  -0.0058   0.00    1.2
2021/03/26 02:08:03.000    455591.9234   3639411.7907   5200664.3359   2   8   0.0377   0.0520   0.0325   0.0097   0.0264  -0.0059   3.00    1.1
2021/03/26 02:08:06.000    455591.6842   3639411.8924   5200664.1448   2   8   0.0380   0.0524   0.0340   0.0097   0.0273  -0.0056   6.00    1.1
2021/03/26 02:08:09.000    455591.4988   3639411.9729   5200664.0342   2   8   0.0385   0.0534   0.0365   0.0091   0.0288  -0.0048   9.00    1.1
2021/03/26 02:08:11.000    455591.3390   3639412.0108   5200663.9585   2   8   0.0390   0.0543   0.0384   0.0084   0.0300  -0.0038  11.00    1.1
2021/03/26 02:08:13.000    455591.1974   3639412.0389   5200663.8999   2   8   0.0395   0.0553   0.0407   0.0073   0.0314  -0.0019  13.00    1.0
2021/03/26 02:08:22.000    455591.0790   3639412.0922   5200663.8724   2   8   0.0436   0.0624   0.0530  -0.0080   0.0395   0.0084  22.00    1.1
2021/03/26 02:08:24.000    455590.9764   3639412.0944   5200663.8556   2   8   0.0446   0.0643   0.0561  -0.0100   0.0416   0.0097  24.00    1.1
2021/03/26 02:08:26.000    455590.8755   3639412.1026   5200663.8401   2   8   0.0458   0.0663   0.0592  -0.0117   0.0437   0.0108  26.00    1.0
2021/03/26 02:08:27.000    455590.7808   3639412.1006   5200663.8301   2   8   0.0463   0.0673   0.0608  -0.0126   0.0447   0.0114  27.00    1.1
2021/03/26 02:08:28.000    455590.6857   3639412.1041   5200663.8218   2   8   0.0469   0.0683   0.0624  -0.0134   0.0458   0.0120  28.00    1.2
2021/03/26 02:08:36.000    455590.5424   3639412.6002   5200664.0128   2   8   0.0371   0.0512   0.0331   0.0097   0.0267  -0.0057   6.00    1.2
2021/03/26 02:08:38.000    455590.2762   3639412.7310   5200663.8835   2   8   0.0373   0.0517   0.0346   0.0094   0.0276  -0.0054   8.00    1.0
2021/03/26 02:08:41.000    455590.0784   3639412.8542   5200663.8014   2   8   0.0381   0.0530   0.0376   0.0084   0.0294  -0.0040  11.00    1.4
2021/03/26 02:08:43.000    455589.9046   3639412.9183   5200663.7423   2   8   0.0386   0.0541   0.0398   0.0073   0.0308  -0.0024  13.00    1.0
2021/03/26 02:08:46.000    455589.7609   3639412.9825   5200663.7038   2   8   0.0398   0.0561   0.0436   0.0047   0.0332   0.0038  16.00    1.3
2021/03/26 02:08:48.000    455589.6110   3639413.1216   5200664.1628   2   7   0.0407   0.0584   0.0616  -0.0043   0.0399  -0.0058  18.00    1.1
2021/03/26 02:08:54.000    455589.4987   3639413.1810   5200664.1623   2   7   0.0439   0.0643   0.0773  -0.0114   0.0482  -0.0063  24.00    1.0
2021/03/26 02:08:55.000    455589.3990   3639413.1863   5200664.1429   2   7   0.0445   0.0653   0.0800  -0.0123   0.0496  -0.0064  25.00    1.1
2021/03/26 02:08:57.000    455589.3018   3639413.1988   5200664.1284   2   7   0.0457   0.0676   0.0854  -0.0141   0.0525  -0.0065  27.00    1.2
2021/03/26 02:08:59.000    455589.2101   3639413.2108   5200664.1202   2   7   0.0470   0.0699   0.0908  -0.0157   0.0555  -0.0067  29.00    1.2
2021/03/26 02:09:00.000    455588.7207   3639413.1787   5200663.7680   2   7   0.0354   0.0484   0.0304   0.0104   0.0247  -0.0061   0.00    1.3
2021/03/26 02:09:04.000    455588.2649   3639413.4828   5200663.6170   2   7   0.0356   0.0485   0.0322   0.0106   0.0254  -0.0059   4.00    1.1
2021/03/26 02:09:06.000    455587.9051   3639413.7108   5200663.5162   2   7   0.0358   0.0489   0.0346   0.0105   0.0265  -0.0059   6.00    1.2
2021/03/26 02:09:13.000    455587.7471   3639414.0707   5200663.6259   2   7   0.0377   0.0526   0.0483   0.0077   0.0329  -0.0058  13.00    1.1
2021/03/26 02:09:17.000    455587.6110   3639414.1739   5200663.6257   2   7   0.0394   0.0558   0.0580   0.0026   0.0378  -0.0060  17.00    1.2
2021/03/26 02:09:19.000    455587.4831   3639414.2129   5200663.6037   2   7   0.0403   0.0576   0.0631  -0.0050   0.0404  -0.0061  19.00    1.0
2021/03/26 02:09:20.000    455587.3642   3639414.2348   5200663.5788   2   7   0.0408   0.0585   0.0657  -0.0065   0.0417  -0.0062  20.00    1.0
2021/03/26 02:09:22.000    455587.2566   3639414.2637   5200663.5601   2   7   0.0418   0.0605   0.0709  -0.0090   0.0445  -0.0063  22.00    1.0
2021/03/26 02:09:26.000    455587.1511   3639414.2991   5200663.5534   2   7   0.0443   0.0649   0.0816  -0.0129   0.0503  -0.0066  26.00    1.0
2021/03/26 02:09:28.000    455587.0604   3639414.3109   5200663.5411   2   7   0.0456   0.0672   0.0870  -0.0147   0.0532  -0.0068  28.00    1.1
2021/03/26 02:09:31.000    455586.4334   3639414.0333   5200663.0792   2   7   0.0345   0.0464   0.0291   0.0109   0.0237  -0.0062   1.00    1.1
2021/03/26 02:09:34.000    455585.9079   3639414.3813   5200662.9815   2   7   0.0346   0.0466   0.0308   0.0111   0.0244  -0.0060   4.00    2.0
2021/03/26 02:09:37.000    455585.5512   3639414.7487   5200662.9921   2   7   0.0350   0.0474   0.0350   0.0108   0.0262  -0.0059   7.00    1.5
2021/03/26 02:09:42.000    455585.3513   3639415.0795   5200663.0787   2   7   0.0364   0.0502   0.0450   0.0088   0.0310  -0.0059  12.00    1.0
2021/03/26 02:09:45.000    455585.1854   3639415.2018   5200663.0753   2   7   0.0376   0.0524   0.0521   0.0065   0.0344  -0.0060  15.00    1.2
2021/03/26 02:09:48.000    455585.0478   3639415.2799   5200663.0638   2   7   0.0390   0.0550   0.0595  -0.0013   0.0383  -0.0061  18.00    1.5
2021/03/26 02:09:49.000    455584.9194   3639415.3070   5200663.0340   2   7   0.0394   0.0559   0.0621  -0.0043   0.0396  -0.0062  19.00    1.2
2021/03/26 02:09:52.000    455584.8129   3639415.3553   5200663.0238   2   7   0.0411   0.0590   0.0699  -0.0086   0.0437  -0.0064  22.00    1.2
2021/03/26 02:09:55.000    455584.7148   3639415.3911   5200663.0182   2   7   0.0429   0.0623   0.0779  -0.0118   0.0480  -0.0066  25.00    1.7
2021/03/26 02:09:58.000    455584.6270   3639415.4157   5200663.0065   2   7   0.0449   0.0659   0.0861  -0.0145   0.0524  -0.0069  28.00    1.6
2021/03/26 02:10:00.000    455583.8506   3639414.8904   5200662.4319   2   7   0.0335   0.0445   0.0276   0.0113   0.0226  -0.0062   0.00    2.3
2021/03/26 02:10:03.000    455582.9210   3639415.0492   5200662.2450   1   7   0.0068   0.0116   0.0173  -0.0014   0.0106   0.0019   3.00    3.1
2021/03/26 02:10:04.000    455582.4673   3639415.5492   5200662.3096   1   7   0.0074   0.0125   0.0190  -0.0022   0.0116   0.0020   4.00    3.9
2021/03/26 02:10:06.000    455582.1463   3639415.6832   5200662.1692   2   7   0.0338   0.0448   0.0320   0.0115   0.0244  -0.0060   6.00    1.7
2021/03/26 02:10:09.000    455581.8483   3639416.0087   5200662.2253   2   7   0.0344   0.0462   0.0373   0.0107   0.0269  -0.0059   9.00    1.9
2021/03/26 02:10:11.000    455581.6068   3639416.1725   5200662.2184   2   7   0.0350   0.0473   0.0416   0.0100   0.0288  -0.0059  11.00    2.5
2021/03/26 02:10:14.000    455581.4286   3639416.3177   5200662.2319   2   7   0.0361   0.0495   0.0485   0.0081   0.0323  -0.0060  14.00    1.4
2021/03/26 02:10:16.000    455581.2757   3639416.3943   5200662.2204   2   7   0.0370   0.0512   0.0534   0.0062   0.0347  -0.0061  16.00    1.1
2021/03/26 02:10:18.000    455581.1461   3639416.4487   5200662.2029   2   7   0.0379   0.0530   0.0585   0.0028   0.0374  -0.0062  18.00    1.0
2021/03/26 02:10:21.000    455581.0374   3639416.5016   5200662.2042   2   7   0.0396   0.0561   0.0663  -0.0068   0.0415  -0.0064  21.00    1.0
2021/03/26 02:10:23.000    455580.9424   3639416.5239   5200662.1891   2   7   0.0408   0.0582   0.0716  -0.0093   0.0443  -0.0065  23.00    1.1
2021/03/26 02:10:26.000    455580.8553   3639416.5564   5200662.1856   2   7   0.0427   0.0617   0.0796  -0.0124   0.0486  -0.0067  26.00    1.1
2021/03/26 02:10:28.000    455580.7776   3639416.5679   5200662.1689   2   7   0.0440   0.0642   0.0850  -0.0143   0.0516  -0.0069  28.00    1.0
2021/03/26 02:10:30.000    455579.8981   3639416.1368   5200661.7213   1   7   0.0060   0.0102   0.0148   0.0007   0.0091   0.0018   0.00    5.5
2021/03/26 02:10:33.000    455579.2540   3639416.1592   5200661.5336   2   7   0.0324   0.0422   0.0272   0.0119   0.0219  -0.0060   3.00    1.1
2021/03/26 02:10:35.000    455578.7180   3639416.5083   5200661.5535   2   7   0.0326   0.0425   0.0294   0.0118   0.0228  -0.0059   5.00    1.3
2021/03/26 02:10:38.000    455578.3668   3639416.9210   5200661.6508   2   7   0.0332   0.0438   0.0344   0.0113   0.0250  -0.0058   8.00    1.3
2021/03/26 02:10:40.000    455578.0818   3639417.1401   5200661.6699   2   7   0.0337   0.0449   0.0384   0.0106   0.0269  -0.0058  10.00    1.0
2021/03/26 02:10:45.000    455577.9232   3639417.3982   5200661.7494   2   7   0.0357   0.0487   0.0501   0.0075   0.0327  -0.0059  15.00    1.6
2021/03/26 02:10:47.000    455577.7816   3639417.4706   5200661.7449   2   7   0.0366   0.0505   0.0551   0.0052   0.0353  -0.0060  17.00    2.2
2021/03/26 02:10:50.000    455577.6711   3639417.5365   5200661.7443   2   7   0.0382   0.0535   0.0628  -0.0049   0.0393  -0.0062  20.00    1.7
2021/03/26 02:10:52.000    455577.5736   3639417.5707   5200661.7335   2   7   0.0394   0.0557   0.0681  -0.0080   0.0421  -0.0063  22.00    1.1
2021/03/26 02:10:53.000    455577.4817   3639417.5847   5200661.7157   2   7   0.0400   0.0568   0.0707  -0.0092   0.0436  -0.0064  23.00    1.4
2021/03/26 02:10:56.000    455577.4059   3639417.6135   5200661.7148   2   7   0.0420   0.0604   0.0787  -0.0124   0.0479  -0.0066  26.00    2.0
2021/03/26 02:10:58.000    455577.3366   3639417.6243   5200661.6989   2   7   0.0434   0.0629   0.0841  -0.0143   0.0509  -0.0068  28.00    2.2
2021/03/26 02:11:01.000    455576.4459   3639413.7429   5200659.4839   2   7   0.0314   0.0405   0.0251   0.0120   0.0206  -0.0059   1.00    1.8
2021/03/26 02:11:03.000    455576.4457   3639413.6636   5200659.4941   2   7   0.0315   0.0404   0.0261   0.0121   0.0210  -0.0058   3.00    1.6
2021/03/26 02:11:05.000    455576.4462   3639413.6073   5200659.5003   2   7   0.0317   0.0408   0.0284   0.0120   0.0219  -0.0058   5.00    1.4
2021/03/26 02:11:08.000    455576.4409   3639413.5785   5200659.5066   2   7   0.0323   0.0421   0.0335   0.0114   0.0242  -0.0056   8.00    1.3
2021/03/26 02:11:10.000    455576.4319   3639413.5550   5200659.5061   2   7   0.0328   0.0433   0.0376   0.0107   0.0262  -0.0057  10.00    1.2
2021/03/26 02:11:13.000    455576.4185   3639413.5382   5200659.5044   2   7   0.0339   0.0455   0.0444   0.0092   0.0295  -0.0057  13.00    1.2
2021/03/26 02:11:15.000    455576.4083   3639413.5255   5200659.5096   2   7   0.0348   0.0472   0.0493   0.0076   0.0320  -0.0058  15.00    1.1
2021/03/26 02:11:17.000    455576.3961   3639413.5086   5200659.5112   2   7   0.0358   0.0490   0.0543   0.0053   0.0346  -0.0059  17.00    1.1
2021/03/26 02:11:20.000    455576.3799   3639413.4964   5200659.5056   2   7   0.0375   0.0522   0.0620  -0.0050   0.0387  -0.0060  20.00    1.1
2021/03/26 02:11:22.000    455576.3638   3639413.4864   5200659.5032   2   7   0.0387   0.0544   0.0673  -0.0080   0.0415  -0.0062  22.00    1.1
2021/03/26 02:11:25.000    455576.3469   3639413.4772   5200659.5044   2   7   0.0406   0.0580   0.0752  -0.0115   0.0458  -0.0064  25.00    1.0
2021/03/26 02:11:27.000    455576.3301   3639413.4647   5200659.5042   2   7   0.0420   0.0605   0.0806  -0.0135   0.0487  -0.0066  27.00    1.0
2021/03/26 02:11:29.000    455576.3137   3639413.4543   5200659.5052   2   7   0.0435   0.0630   0.0860  -0.0153   0.0517  -0.0068  29.00    1.0
2021/03/26 02:11:32.000    455576.3043   3639413.6993   5200659.6647   2   7   0.0306   0.0389   0.0246   0.0121   0.0200  -0.0057   2.00    1.1
2021/03/26 02:11:34.000    455576.2325   3639413.6858   5200659.6739   2   7   0.0307   0.0392   0.0263   0.0121   0.0207  -0.0056   4.00    1.2
2021/03/26 02:11:37.000    455576.1818   3639413.7100   5200659.6913   2   7   0.0312   0.0403   0.0309   0.0116   0.0227  -0.0055   7.00    1.1
2021/03/26 02:11:39.000    455576.1374   3639413.7131   5200659.6957   2   7   0.0317   0.0414   0.0348   0.0111   0.0245  -0.0054   9.00    1.0
2021/03/26 02:11:41.000    455576.0974   3639413.7187   5200659.6988   2   7   0.0324   0.0427   0.0391   0.0102   0.0266  -0.0055  11.00    1.1
2021/03/26 02:11:44.000    455576.0642   3639413.7248   5200659.7019   2   7   0.0336   0.0451   0.0462   0.0084   0.0301  -0.0056  14.00    1.1
2021/03/26 02:11:46.000    455576.0356   3639413.7227   5200659.7026   2   7   0.0346   0.0469   0.0511   0.0065   0.0327  -0.0056  16.00    1.1
2021/03/26 02:11:48.000    455576.0108   3639413.7185   5200659.7032   2   7   0.0356   0.0489   0.0562   0.0030   0.0353  -0.0058  18.00    1.0
2021/03/26 02:11:51.000    455575.9858   3639413.7171   5200659.7011   2   7   0.0374   0.0522   0.0640  -0.0069   0.0395  -0.0060  21.00    1.0
2021/03/26 02:11:53.000    455575.9594   3639413.7137   5200659.6986   2   7   0.0387   0.0545   0.0692  -0.0095   0.0423  -0.0061  23.00    1.1
2021/03/26 02:11:55.000    455575.9348   3639413.7109   5200659.6941   2   7   0.0400   0.0570   0.0745  -0.0117   0.0452  -0.0063  25.00    1.1
2021/03/26 02:11:57.000    455575.9133   3639413.7094   5200659.6930   2   7   0.0415   0.0595   0.0799  -0.0137   0.0481  -0.0065  27.00    1.2
2021/03/26 02:12:00.000    455575.7986   3639413.1403   5200659.4252   2   6   0.0297   0.0381   0.0235   0.0121   0.0198  -0.0057   0.00    1.1
2021/03/26 02:12:04.000    455575.7975   3639413.1012   5200659.4323   2   6   0.0300   0.0392   0.0262   0.0124   0.0214  -0.0049   4.00    1.1
2021/03/26 02:12:07.000    455575.7927   3639413.0837   5200659.4376   2   6   0.0307   0.0415   0.0312   0.0127   0.0244  -0.0034   7.00    1.1
2021/03/26 02:12:09.000    455575.7795   3639413.0587   5200659.4312   2   6   0.0313   0.0436   0.0354   0.0129   0.0270  -0.0008   9.00    1.1
2021/03/26 02:12:11.000    455575.7684   3639413.0406   5200659.4271   2   6   0.0321   0.0461   0.0401   0.0131   0.0300   0.0035  11.00    1.1
2021/03/26 02:12:13.000    455575.7541   3639413.0299   5200659.4240   2   6   0.0330   0.0489   0.0450   0.0134   0.0332   0.0053  13.00    1.1
2021/03/26 02:12:15.000    455575.7433   3639413.0164   5200659.4203   2   6   0.0340   0.0521   0.0502   0.0136   0.0365   0.0068  15.00    1.1
2021/03/26 02:12:16.999    455575.7300   3639413.0033   5200659.4159   2   6   0.0352   0.0554   0.0555   0.0139   0.0400   0.0081  17.00    1.2
2021/03/26 02:12:19.000    455575.7152   3639412.9906   5200659.4096   2   6   0.0364   0.0590   0.0609   0.0142   0.0436   0.0094  19.00    1.2
2021/03/26 02:12:22.000    455575.7018   3639412.9750   5200659.4051   2   6   0.0385   0.0647   0.0691   0.0147   0.0492   0.0113  22.00    1.2
2021/03/26 02:12:27.000    455575.6811   3639412.9640   5200659.3962   2   6   0.0423   0.0747   0.0831   0.0155   0.0586   0.0142  27.00    1.2
2021/03/26 02:12:29.000    455575.6680   3639412.9530   5200659.3946   2   6   0.0439   0.0788   0.0887   0.0159   0.0624   0.0154  29.00    1.2
2021/03/26 02:12:31.000    455575.6865   3639412.9065   5200659.4368   2   6   0.0293   0.0371   0.0230   0.0122   0.0192  -0.0051   1.00    1.2
2021/03/26 02:12:34.000    455575.6863   3639412.8655   5200659.4411   2   6   0.0296   0.0381   0.0256   0.0124   0.0208  -0.0043   4.00    1.1
2021/03/26 02:12:35.000    455575.6817   3639412.8327   5200659.4419   2   6   0.0298   0.0386   0.0270   0.0125   0.0216  -0.0038   5.00    1.1
2021/03/26 02:12:37.000    455575.6736   3639412.8093   5200659.4386   2   6   0.0303   0.0403   0.0305   0.0127   0.0238  -0.0025   7.00    1.1
2021/03/26 02:12:39.000    455575.6650   3639412.7920   5200659.4376   2   6   0.0309   0.0424   0.0348   0.0129   0.0264   0.0021   9.00    1.1
2021/03/26 02:12:41.000    455575.6574   3639412.7769   5200659.4352   2   6   0.0317   0.0450   0.0394   0.0131   0.0294   0.0042  11.00    1.1
2021/03/26 02:12:44.000    455575.6487   3639412.7627   5200659.4322   2   6   0.0331   0.0495   0.0469   0.0134   0.0343   0.0063  14.00    1.1
2021/03/26 02:12:46.000    455575.6380   3639412.7589   5200659.4361   2   6   0.0343   0.0528   0.0522   0.0136   0.0377   0.0076  16.00    1.1
2021/03/26 02:12:49.000    455575.6267   3639412.7553   5200659.4348   2   6   0.0361   0.0582   0.0602   0.0140   0.0431   0.0095  19.00    1.2
2021/03/26 02:12:51.000    455575.6154   3639412.7499   5200659.4317   2   6   0.0375   0.0620   0.0657   0.0142   0.0467   0.0107  21.00    1.2
2021/03/26 02:12:53.000    455575.6076   3639412.7424   5200659.4304   2   6   0.0389   0.0659   0.0712   0.0145   0.0504   0.0118  23.00    1.2
2021/03/26 02:12:56.000    455575.5938   3639412.7341   5200659.4281   2   6   0.0412   0.0719   0.0795   0.0149   0.0561   0.0135  26.00    1.3
2021/03/26 02:12:58.000    455575.5818   3639412.7308   5200659.4254   2   6   0.0428   0.0761   0.0851   0.0152   0.0599   0.0146  28.00    1.3
2021/03/26 02:13:00.000    455575.5765   3639412.6861   5200659.4378   2   6   0.0289   0.0357   0.0221   0.0122   0.0185  -0.0045   0.00    1.1
2021/03/26 02:13:12.000    455575.5828   3639412.6887   5200659.4455   2   6   0.0319   0.0460   0.0414   0.0130   0.0306   0.0051  12.00    1.1
2021/03/26 02:13:14.000    455575.5753   3639412.6763   5200659.4416   2   6   0.0329   0.0490   0.0464   0.0132   0.0339   0.0064  14.00    1.1
2021/03/26 02:13:15.000    455575.5682   3639412.6702   5200659.4437   2   6   0.0334   0.0507   0.0490   0.0133   0.0355   0.0070  15.00    1.1
2021/03/26 02:13:18.000    455575.5573   3639412.6574   5200659.4403   2   6   0.0352   0.0559   0.0569   0.0135   0.0408   0.0088  18.00    1.1
2021/03/26 02:13:21.000    455575.5460   3639412.6499   5200659.4358   2   6   0.0373   0.0616   0.0650   0.0139   0.0462   0.0106  21.00    1.2
2021/03/26 02:13:24.000    455575.5371   3639412.6410   5200659.4321   2   6   0.0395   0.0675   0.0733   0.0142   0.0518   0.0122  24.00    1.2
2021/03/26 02:13:25.000    455575.5301   3639412.6347   5200659.4353   2   6   0.0402   0.0695   0.0760   0.0143   0.0536   0.0128  25.00    1.2
2021/03/26 02:13:27.000    455575.5229   3639412.6283   5200659.4331   2   6   0.0418   0.0736   0.0816   0.0145   0.0574   0.0139  27.00    1.2
2021/03/26 02:13:30.000    455575.5092   3639412.5701   5200659.4388   2   6   0.0287   0.0351   0.0217   0.0121   0.0181  -0.0041   0.00    1.0
2021/03/26 02:13:33.000    455575.5084   3639412.5313   5200659.4398   2   6   0.0288   0.0356   0.0233   0.0123   0.0190  -0.0035   3.00    1.1
2021/03/26 02:13:35.000    455575.5061   3639412.5086   5200659.4414   2   6   0.0292   0.0368   0.0260   0.0125   0.0207  -0.0025   5.00    1.1
2021/03/26 02:13:41.000    455575.5014   3639412.5074   5200659.4443   2   6   0.0312   0.0436   0.0385   0.0128   0.0285   0.0047  11.00    1.1
2021/03/26 02:13:43.000    455575.4931   3639412.4990   5200659.4467   2   6   0.0321   0.0466   0.0434   0.0129   0.0317   0.0060  13.00    1.1
2021/03/26 02:13:46.000    455575.4841   3639412.4975   5200659.4500   2   6   0.0338   0.0517   0.0511   0.0132   0.0368   0.0077  16.00    1.1
2021/03/26 02:13:47.000    455575.4780   3639412.4926   5200659.4471   2   6   0.0343   0.0534   0.0537   0.0132   0.0385   0.0083  17.00    1.1
2021/03/26 02:13:50.000    455575.4688   3639412.4907   5200659.4504   2   6   0.0363   0.0590   0.0617   0.0135   0.0439   0.0099  20.00    1.1
2021/03/26 02:13:52.000    455575.4601   3639412.4907   5200659.4465   2   6   0.0377   0.0629   0.0671   0.0136   0.0475   0.0110  22.00    1.1
2021/03/26 02:13:53.000    455575.4498   3639412.4904   5200659.4497   2   6   0.0384   0.0649   0.0698   0.0137   0.0494   0.0116  23.00    1.0
2021/03/26 02:13:55.000    455575.4425   3639412.4847   5200659.4488   2   6   0.0400   0.0689   0.0753   0.0139   0.0531   0.0126  25.00    1.0
2021/03/26 02:14:00.000    455575.4275   3639412.4002   5200659.4332   2   6   0.0284   0.0340   0.0212   0.0121   0.0176  -0.0036   0.00    1.1
2021/03/26 02:14:06.000    455575.4325   3639412.3940   5200659.4389   2   6   0.0291   0.0370   0.0273   0.0124   0.0213   0.0001   6.00    1.1
2021/03/26 02:14:07.000    455575.4259   3639412.3791   5200659.4388   2   6   0.0294   0.0379   0.0291   0.0125   0.0225   0.0019   7.00    1.2
2021/03/26 02:14:08.000    455575.4202   3639412.3632   5200659.4364   2   6   0.0297   0.0389   0.0312   0.0126   0.0238   0.0029   8.00    1.2
2021/03/26 02:14:10.000    455575.4133   3639412.3516   5200659.4339   2   6   0.0304   0.0414   0.0356   0.0127   0.0266   0.0043  10.00    1.2
2021/03/26 02:14:12.000    455575.4031   3639412.3443   5200659.4353   2   6   0.0313   0.0443   0.0404   0.0127   0.0297   0.0055  12.00    1.1
2021/03/26 02:14:14.000    455575.3977   3639412.3351   5200659.4310   2   6   0.0323   0.0475   0.0454   0.0128   0.0329   0.0067  14.00    1.1
2021/03/26 02:14:16.000    455575.3893   3639412.3317   5200659.4302   2   6   0.0335   0.0510   0.0505   0.0129   0.0363   0.0078  16.00    1.1
2021/03/26 02:14:18.000    455575.3809   3639412.3246   5200659.4291   2   6   0.0347   0.0546   0.0557   0.0130   0.0398   0.0088  18.00    1.1
2021/03/26 02:14:20.000    455575.3712   3639412.3218   5200659.4257   2   6   0.0360   0.0584   0.0611   0.0131   0.0434   0.0099  20.00    1.1
2021/03/26 02:14:23.000    455575.3608   3639412.3215   5200659.4255   2   6   0.0382   0.0644   0.0691   0.0133   0.0488   0.0114  23.00    1.1
2021/03/26 02:14:26.000    455575.3506   3639412.3219   5200659.4251   2   6   0.0405   0.0705   0.0773   0.0135   0.0544   0.0130  26.00    1.1
2021/03/26 02:14:28.000    455575.3430   3639412.3150   5200659.4222   2   6   0.0422   0.0747   0.0828   0.0136   0.0581   0.0140  28.00    1.1
2021/03/26 02:14:30.000    455575.3377   3639412.2552   5200659.4322   2   6   0.0280   0.0330   0.0207   0.0120   0.0171  -0.0030   0.00    1.1
2021/03/26 02:14:32.000    455575.3348   3639412.2171   5200659.4291   2   6   0.0281   0.0332   0.0213   0.0122   0.0175  -0.0027   2.00    1.2
2021/03/26 02:14:35.000    455575.3346   3639412.2055   5200659.4300   2   6   0.0285   0.0349   0.0250   0.0124   0.0197   0.0006   5.00    1.2
2021/03/26 02:14:38.000    455575.3305   3639412.1985   5200659.4314   2   6   0.0294   0.0379   0.0307   0.0125   0.0233   0.0034   8.00    1.2
2021/03/26 02:14:40.000    455575.3249   3639412.1910   5200659.4307   2   6   0.0301   0.0405   0.0351   0.0126   0.0261   0.0046  10.00    1.1
2021/03/26 02:14:44.000    455575.3165   3639412.1941   5200659.4333   2   6   0.0320   0.0468   0.0448   0.0127   0.0325   0.0067  14.00    1.1
2021/03/26 02:14:47.000    455575.3076   3639412.1947   5200659.4401   2   6   0.0338   0.0521   0.0526   0.0127   0.0376   0.0083  17.00    1.1
2021/03/26 02:14:51.000    455575.2988   3639412.1881   5200659.4405   2   6   0.0365   0.0598   0.0631   0.0128   0.0447   0.0103  21.00    1.1
2021/03/26 02:14:52.000    455575.2890   3639412.1860   5200659.4437   2   6   0.0372   0.0618   0.0658   0.0129   0.0465   0.0108  22.00    1.1
2021/03/26 02:14:54.000    455575.2807   3639412.1797   5200659.4404   2   6   0.0387   0.0659   0.0712   0.0129   0.0502   0.0118  24.00    1.1
2021/03/26 02:15:00.000    455575.2675   3639412.1044   5200659.4218   2   6   0.0277   0.0321   0.0202   0.0120   0.0167  -0.0023   0.00    1.0
2021/03/26 02:15:02.000    455575.2646   3639412.0709   5200659.4185   2   6   0.0278   0.0322   0.0209   0.0121   0.0171  -0.0020   2.00    1.0
2021/03/26 02:15:04.000    455575.2627   3639412.0526   5200659.4178   2   6   0.0281   0.0332   0.0230   0.0123   0.0184   0.0004   4.00    1.1
2021/03/26 02:15:06.000    455575.2593   3639412.0420   5200659.4194   2   6   0.0285   0.0348   0.0263   0.0124   0.0204   0.0025   6.00    1.1
2021/03/26 02:15:10.000    455575.2547   3639412.0298   5200659.4189   2   6   0.0299   0.0397   0.0347   0.0125   0.0257   0.0047  10.00    1.1
2021/03/26 02:15:12.000    455575.2459   3639412.0208   5200659.4124   2   6   0.0308   0.0427   0.0394   0.0125   0.0288   0.0058  12.00    1.1
2021/03/26 02:15:14.000    455575.2362   3639412.0184   5200659.4129   2   6   0.0318   0.0460   0.0443   0.0125   0.0320   0.0068  14.00    1.1
2021/03/26 02:15:17.000    455575.2276   3639412.0121   5200659.4097   2   6   0.0336   0.0514   0.0520   0.0125   0.0371   0.0083  17.00    1.1
2021/03/26 02:15:18.000    455575.2197   3639412.0094   5200659.4110   2   6   0.0342   0.0533   0.0546   0.0125   0.0389   0.0088  18.00    1.1
2021/03/26 02:15:20.000    455575.2123   3639412.0040   5200659.4090   2   6   0.0356   0.0572   0.0599   0.0125   0.0424   0.0097  20.00    1.1
2021/03/26 02:15:22.000    455575.2027   3639411.9977   5200659.4061   2   6   0.0370   0.0612   0.0652   0.0125   0.0460   0.0107  22.00    1.1
2021/03/26 02:15:24.000    455575.1968   3639411.9933   5200659.4004   2   6   0.0385   0.0653   0.0705   0.0124   0.0496   0.0117  24.00    1.0
2021/03/26 02:15:27.000    455575.1883   3639411.9921   5200659.3980   2   6   0.0409   0.0716   0.0786   0.0124   0.0551   0.0131  27.00    1.0
2021/03/26 02:15:30.000    455575.1834   3639411.9609   5200659.4098   2   6   0.0274   0.0310   0.0197   0.0120   0.0162  -0.0018   0.00    1.1
2021/03/26 02:15:32.000    455575.1791   3639411.9268   5200659.4043   2   6   0.0275   0.0312   0.0205   0.0121   0.0166  -0.0011   2.00    1.1
2021/03/26 02:15:34.000    455575.1748   3639411.9076   5200659.3977   2   6   0.0277   0.0322   0.0226   0.0122   0.0180   0.0017   4.00    1.0
2021/03/26 02:15:36.000    455575.1688   3639411.8936   5200659.3980   2   6   0.0282   0.0339   0.0259   0.0123   0.0200   0.0029   6.00    1.0
2021/03/26 02:15:39.000    455575.1619   3639411.8826   5200659.3905   2   6   0.0292   0.0375   0.0320   0.0124   0.0238   0.0044   9.00    1.0
2021/03/26 02:15:42.000    455575.1565   3639411.8733   5200659.3820   2   6   0.0305   0.0420   0.0390   0.0123   0.0284   0.0059  12.00    1.0
2021/03/26 02:15:44.000    455575.1476   3639411.8650   5200659.3796   2   6   0.0315   0.0454   0.0439   0.0123   0.0316   0.0068  14.00    1.0
2021/03/26 02:15:48.000    455575.1367   3639411.8571   5200659.3714   2   6   0.0340   0.0527   0.0541   0.0122   0.0384   0.0087  18.00    1.0
2021/03/26 02:15:51.000    455575.1289   3639411.8494   5200659.3678   2   6   0.0361   0.0587   0.0619   0.0121   0.0437   0.0101  21.00    1.0
2021/03/26 02:15:56.000    455575.1165   3639411.8355   5200659.3626   2   6   0.0399   0.0691   0.0752   0.0118   0.0528   0.0124  26.00    1.0
2021/03/26 02:15:58.000    455575.1061   3639411.8333   5200659.3607   2   6   0.0416   0.0734   0.0806   0.0117   0.0564   0.0133  28.00    1.0
2021/03/26 02:15:59.000    455575.0993   3639411.8297   5200659.3612   2   6   0.0424   0.0755   0.0832   0.0116   0.0582   0.0138  29.00    1.0
2021/03/26 02:16:01.000    455575.1011   3639411.8378   5200659.3935   2   6   0.0272   0.0302   0.0195   0.0120   0.0159  -0.0008   1.00    1.1
2021/03/26 02:16:02.000    455575.0958   3639411.8124   5200659.3855   2   6   0.0272   0.0303   0.0201   0.0121   0.0162   0.0009   2.00    1.1
2021/03/26 02:16:05.000    455575.0930   3639411.7988   5200659.3775   2   6   0.0277   0.0323   0.0238   0.0122   0.0185   0.0027   5.00    1.1
2021/03/26 02:16:07.000    455575.0888   3639411.7882   5200659.3750   2   6   0.0282   0.0343   0.0274   0.0123   0.0208   0.0037   7.00    1.1
2021/03/26 02:16:09.000    455575.0824   3639411.7803   5200659.3722   2   6   0.0289   0.0368   0.0316   0.0122   0.0235   0.0046   9.00    1.1
2021/03/26 02:16:11.000    455575.0738   3639411.7719   5200659.3682   2   6   0.0298   0.0398   0.0362   0.0122   0.0264   0.0055  11.00    1.1
2021/03/26 02:16:13.000    455575.0668   3639411.7682   5200659.3657   2   6   0.0307   0.0430   0.0410   0.0122   0.0296   0.0064  13.00    1.1
2021/03/26 02:16:17.000    455575.0590   3639411.7622   5200659.3618   2   6   0.0331   0.0503   0.0510   0.0120   0.0363   0.0082  17.00    1.1
2021/03/26 02:16:19.000    455575.0499   3639411.7614   5200659.3632   2   6   0.0344   0.0542   0.0562   0.0118   0.0398   0.0091  19.00    1.1
2021/03/26 02:16:21.000    455575.0428   3639411.7596   5200659.3600   2   6   0.0358   0.0582   0.0614   0.0117   0.0433   0.0100  21.00    1.1
2021/03/26 02:16:23.000    455575.0353   3639411.7590   5200659.3537   2   6   0.0373   0.0624   0.0666   0.0115   0.0469   0.0109  23.00    1.1
2021/03/26 02:16:25.000    455575.0245   3639411.7551   5200659.3527   2   6   0.0389   0.0666   0.0719   0.0113   0.0504   0.0118  25.00    1.1
2021/03/26 02:16:29.000    455575.0171   3639411.7504   5200659.3533   2   6   0.0422   0.0752   0.0825   0.0108   0.0577   0.0135  29.00    1.1
2021/03/26 02:16:33.000    455575.0233   3639411.7498   5200659.3812   2   6   0.0270   0.0303   0.0208   0.0120   0.0165   0.0022   3.00    1.1
2021/03/26 02:16:34.000    455575.0184   3639411.7401   5200659.3769   2   6   0.0272   0.0309   0.0220   0.0121   0.0173   0.0025   4.00    1.1
2021/03/26 02:16:37.000    455575.0133   3639411.7336   5200659.3701   2   6   0.0280   0.0338   0.0271   0.0121   0.0205   0.0038   7.00    1.1
2021/03/26 02:16:38.000    455575.0067   3639411.7300   5200659.3703   2   6   0.0283   0.0350   0.0291   0.0121   0.0218   0.0043   8.00    1.1
