% program   : rnx2rtkp ver.2.4.3 b33
% inp file  : /home/danisimo/post/R1_193.2020-111.2021/R00109818.21o
% inp file  : /home/danisimo/post/NSK1_193.2020-111.2021/NSK10980.21o
% inp file  : /home/danisimo/post/NSK1_193.2020-111.2021/NSK10980.21N
% obs start : 2021/04/08 01:30:07.5 GPST (week2152 351007.5s)
% obs end   : 2021/04/08 11:37:13.0 GPST (week2152 387433.0s)
% ref pos   :   447670.3040   3638117.3850   5202281.5640
%
% (x/y/z-ecef=WGS84,Q=1:fix,2:float,3:sbas,4:dgps,5:single,6:ppp,ns=# of satellites)
%  GPST                      x-ecef(m)      y-ecef(m)      z-ecef(m)   Q  ns   sdx(m)   sdy(m)   sdz(m)  sdxy(m)  sdyz(m)  sdzx(m) age(s)  ratio
2021/04/08 01:30:07.496    455571.1129   3639411.0126   5200658.2017   2   7   0.6154   1.0067   1.3850  -0.0937   0.8118   0.1148   7.50    0.0
2021/04/08 01:30:07.996    455571.1084   3639410.9396   5200658.2681   2   7   0.4379   0.7172   0.9851  -0.0556   0.5777   0.0826   8.00    0.0
2021/04/08 01:30:08.496    455571.0969   3639411.0201   5200658.4120   2   7   0.3583   0.5871   0.8060  -0.0421   0.4727   0.0678   8.50    0.0
2021/04/08 01:30:08.996    455571.1014   3639411.0764   5200658.4839   2   7   0.3107   0.5092   0.6988  -0.0352   0.4098   0.0589   9.00    0.0
2021/04/08 01:30:09.496    455571.1113   3639411.1005   5200658.5221   2   7   0.2781   0.4559   0.6255  -0.0309   0.3668   0.0528   9.50    0.0
2021/04/08 01:30:09.996    455571.1100   3639411.1253   5200658.5198   2   7   0.2541   0.4165   0.5713  -0.0280   0.3351   0.0482  10.00    0.0
2021/04/08 01:30:11.996    455571.0992   3639411.1689   5200658.5497   2   7   0.2355   0.3859   0.5291  -0.0265   0.3103   0.0446  12.00    0.0
2021/04/08 01:30:12.996    455571.1007   3639411.1795   5200658.5766   2   7   0.2204   0.3612   0.4952  -0.0251   0.2904   0.0417  13.00    0.0
2021/04/08 01:30:15.496    455571.0613   3639411.2502   5200658.6982   2   7   0.2081   0.3410   0.4672  -0.0249   0.2740   0.0392  15.50    0.0
2021/04/08 01:30:16.996    455571.0441   3639411.2835   5200658.7760   2   7   0.1977   0.3238   0.4435  -0.0245   0.2601   0.0372  17.00    0.0
2021/04/08 01:30:21.000    455570.9947   3639411.4129   5200659.4283   2   7   0.6138   0.9852   1.3835  -0.1458   0.8021   0.0964  21.00    1.2
2021/04/08 01:30:25.000    455570.9732   3639411.4714   5200659.2880   2   7   0.4380   0.7101   0.9849  -0.0837   0.5738   0.0753  25.00    1.3
2021/04/08 01:30:29.000    455570.9594   3639411.4923   5200659.1688   2   7   0.3593   0.5842   0.8067  -0.0628   0.4707   0.0634  29.00    1.0
2021/04/08 01:30:33.000    455570.9615   3639411.6489   5200659.4647   2   7   0.3111   0.5067   0.6973  -0.0496   0.4073   0.0555   3.00    1.0
2021/04/08 01:30:36.000    455570.9925   3639411.6662   5200659.5646   2   7   0.2785   0.4541   0.6237  -0.0423   0.3645   0.0500   6.00    1.1
2021/04/08 01:30:39.000    455571.0306   3639411.6913   5200659.6650   2   7   0.2545   0.4151   0.5694  -0.0377   0.3328   0.0458   9.00    1.2
2021/04/08 01:30:43.000    455571.0308   3639411.7256   5200659.7348   2   7   0.2359   0.3849   0.5272  -0.0349   0.3083   0.0424  13.00    1.1
2021/04/08 01:30:47.000    455571.0350   3639411.7709   5200659.8232   2   7   0.2211   0.3607   0.4935  -0.0334   0.2886   0.0396  17.00    1.0
2021/04/08 01:30:49.000    455571.0285   3639411.7998   5200659.8830   2   7   0.2088   0.3407   0.4657  -0.0320   0.2724   0.0373  19.00    1.1
2021/04/08 01:30:50.000    455571.0412   3639411.8363   5200659.9725   2   7   0.1984   0.3236   0.4423  -0.0306   0.2587   0.0354  20.00    1.2
2021/04/08 01:30:53.000    455571.0686   3639411.8822   5200660.0535   2   7   0.1897   0.3093   0.4225  -0.0307   0.2471   0.0337  23.00    1.2
2021/04/08 01:30:56.000    455571.0843   3639411.9138   5200660.1020   2   7   0.1823   0.2970   0.4055  -0.0311   0.2372   0.0322  26.00    1.1
2021/04/08 01:30:58.000    455571.1015   3639411.9534   5200660.1187   2   7   0.1757   0.2862   0.3906  -0.0313   0.2284   0.0308  28.00    1.1
2021/04/08 01:31:01.000    455571.1293   3639411.9919   5200660.1043   2   7   0.1670   0.2722   0.3679  -0.0236   0.2163   0.0281   1.00    1.0
2021/04/08 01:31:03.000    455571.1338   3639412.0259   5200660.0638   2   7   0.1614   0.2629   0.3540  -0.0225   0.2085   0.0261   3.00    1.0
2021/04/08 01:31:05.000    455571.1393   3639412.0630   5200660.0548   2   7   0.1563   0.2546   0.3422  -0.0218   0.2018   0.0248   5.00    1.1
2021/04/08 01:31:09.000    455571.1444   3639412.1137   5200660.0489   2   7   0.1519   0.2473   0.3319  -0.0219   0.1958   0.0237   9.00    1.1
2021/04/08 01:31:11.000    455571.1486   3639412.1596   5200660.0354   2   7   0.1478   0.2406   0.3228  -0.0218   0.1904   0.0229  11.00    1.1
2021/04/08 01:31:16.000    455571.1732   3639412.2144   5200660.0421   2   7   0.1444   0.2349   0.3151  -0.0232   0.1858   0.0221  16.00    1.0
2021/04/08 01:31:22.000    455571.1851   3639412.2397   5200660.0281   2   7   0.1418   0.2303   0.3089  -0.0257   0.1820   0.0214  22.00    1.0
2021/04/08 01:31:24.000    455571.2048   3639412.2652   5200660.0265   2   7   0.1389   0.2254   0.3025  -0.0264   0.1782   0.0209  24.00    1.0
2021/04/08 01:31:25.000    455571.2203   3639412.2998   5200660.0299   2   7   0.1360   0.2207   0.2963  -0.0266   0.1745   0.0204  25.00    1.1
2021/04/08 01:31:27.000    455571.2378   3639412.3277   5200660.0316   2   7   0.1337   0.2167   0.2910  -0.0275   0.1713   0.0200  27.00    1.1
2021/04/08 01:31:29.000    455571.2482   3639412.3617   5200660.0461   2   7   0.1315   0.2130   0.2862  -0.0285   0.1684   0.0195  29.00    1.0
2021/04/08 01:31:33.000    455571.2609   3639412.3233   5200660.0485   2   7   0.1252   0.2034   0.2694  -0.0187   0.1597   0.0172   3.00    1.1
2021/04/08 01:31:38.000    455571.2807   3639412.3268   5200660.0444   2   7   0.1230   0.1996   0.2631  -0.0189   0.1565   0.0154   8.00    1.2
2021/04/08 01:31:40.000    455571.2948   3639412.3296   5200660.0325   2   7   0.1209   0.1961   0.2578  -0.0189   0.1536   0.0144  10.00    1.3
2021/04/08 01:31:42.000    455571.3043   3639412.3305   5200660.0272   2   7   0.1190   0.1928   0.2533  -0.0192   0.1509   0.0136  12.00    1.4
2021/04/08 01:31:46.000    455571.3220   3639412.3271   5200660.0380   2   7   0.1175   0.1902   0.2498  -0.0207   0.1489   0.0130  16.00    1.5
2021/04/08 01:31:49.000    455571.3354   3639412.3226   5200660.0349   2   7   0.1161   0.1878   0.2466  -0.0220   0.1469   0.0126  19.00    1.6
2021/04/08 01:31:51.000    455571.3550   3639412.3199   5200660.0426   2   7   0.1147   0.1854   0.2436  -0.0228   0.1451   0.0123  21.00    1.6
2021/04/08 01:31:53.000    455571.3654   3639412.3220   5200660.0564   2   7   0.1135   0.1832   0.2408  -0.0238   0.1434   0.0120  23.00    1.6
2021/04/08 01:31:55.000    455571.3745   3639412.3254   5200660.0701   2   7   0.1124   0.1812   0.2384  -0.0249   0.1418   0.0118  25.00    1.6
2021/04/08 01:31:59.000    455571.3881   3639412.3375   5200660.0899   2   7   0.1120   0.1802   0.2374  -0.0273   0.1411   0.0115  29.00    1.6
2021/04/08 01:32:02.000    455571.3958   3639412.3334   5200660.1040   2   7   0.1059   0.1709   0.2197  -0.0165   0.1324   0.0075   2.00    1.5
2021/04/08 01:32:04.000    455571.4121   3639412.3210   5200660.1049   2   7   0.1044   0.1682   0.2139  -0.0159   0.1298  -0.0023   4.00    1.4
2021/04/08 01:32:06.000    455571.4308   3639412.3151   5200660.1227   2   7   0.1031   0.1658   0.2097  -0.0156   0.1278  -0.0062   6.00    1.4
2021/04/08 01:32:08.000    455571.4505   3639412.3095   5200660.1249   2   7   0.1019   0.1637   0.2065  -0.0157   0.1261  -0.0076   8.00    1.3
2021/04/08 01:32:12.000    455571.4594   3639412.3179   5200660.1423   2   7   0.1011   0.1622   0.2045  -0.0169   0.1249  -0.0082  12.00    1.3
2021/04/08 01:32:19.000    455571.4733   3639412.3036   5200660.1334   2   7   0.1011   0.1619   0.2045  -0.0205   0.1247  -0.0084  19.00    1.3
2021/04/08 01:32:21.000    455571.4840   3639412.2889   5200660.1227   2   7   0.1005   0.1607   0.2032  -0.0215   0.1238  -0.0083  21.00    1.2
2021/04/08 01:32:33.000    455571.4862   3639412.2683   5200660.0854   2   7   0.0966   0.1545   0.1905  -0.0153   0.1177  -0.0113   3.00    1.3
2021/04/08 01:32:36.000    455571.4896   3639412.2476   5200660.0518   2   7   0.0956   0.1525   0.1865  -0.0149   0.1159  -0.0129   6.00    1.3
2021/04/08 01:32:38.000    455571.4959   3639412.2345   5200660.0271   2   7   0.0947   0.1508   0.1836  -0.0149   0.1145  -0.0137   8.00    1.3
2021/04/08 01:32:41.000    455571.5003   3639412.2067   5200659.9945   2   7   0.0940   0.1496   0.1818  -0.0157   0.1136  -0.0140  11.00    1.3
2021/04/08 01:32:44.000    455571.5018   3639412.1947   5200659.9796   2   7   0.0935   0.1486   0.1807  -0.0169   0.1128  -0.0141  14.00    1.3
2021/04/08 01:32:48.000    455571.5006   3639412.1774   5200659.9557   2   7   0.0934   0.1481   0.1806  -0.0190   0.1125  -0.0141  18.00    1.3
2021/04/08 01:32:51.000    455571.4946   3639412.1699   5200659.9395   2   7   0.0932   0.1477   0.1805  -0.0207   0.1123  -0.0140  21.00    1.3
2021/04/08 01:32:54.000    455571.4904   3639412.1704   5200659.9261   2   7   0.0932   0.1474   0.1808  -0.0226   0.1122  -0.0139  24.00    1.3
2021/04/08 01:33:01.000    455571.4853   3639412.1590   5200659.8924   2   7   0.0884   0.1397   0.1650  -0.0137   0.1048  -0.0156   1.00    1.3
2021/04/08 01:33:04.000    455571.4799   3639412.1350   5200659.8411   2   7   0.0876   0.1379   0.1605  -0.0129   0.1031  -0.0168   4.00    1.3
2021/04/08 01:33:05.000    455571.4760   3639412.1125   5200659.8112   2   7   0.0868   0.1363   0.1573  -0.0123   0.1016  -0.0174   5.00    1.3
2021/04/08 01:33:08.000    455571.4758   3639412.0981   5200659.7847   2   7   0.0862   0.1352   0.1556  -0.0126   0.1008  -0.0177   8.00    1.3
2021/04/08 01:33:11.000    455571.4773   3639412.0825   5200659.7644   2   7   0.0858   0.1344   0.1547  -0.0135   0.1002  -0.0178  11.00    1.4
2021/04/08 01:33:13.000    455571.4784   3639412.0740   5200659.7549   2   7   0.0854   0.1336   0.1540  -0.0144   0.0997  -0.0177  13.00    1.4
2021/04/08 01:33:16.000    455571.4807   3639412.0649   5200659.7445   2   7   0.0853   0.1333   0.1541  -0.0161   0.0996  -0.0176  16.00    1.4
2021/04/08 01:33:18.000    455571.4782   3639412.0489   5200659.7340   2   7   0.0851   0.1329   0.1541  -0.0173   0.0993  -0.0175  18.00    1.4
2021/04/08 01:33:20.000    455571.4755   3639412.0409   5200659.7243   2   7   0.0850   0.1326   0.1542  -0.0185   0.0992  -0.0174  20.00    1.4
2021/04/08 01:33:22.000    455571.4679   3639412.0350   5200659.7146   2   7   0.0849   0.1324   0.1546  -0.0199   0.0991  -0.0172  22.00    1.4
2021/04/08 01:33:25.000    455571.4655   3639412.0280   5200659.7031   2   7   0.0853   0.1328   0.1559  -0.0220   0.0996  -0.0170  25.00    1.4
2021/04/08 01:33:28.000    455571.4660   3639412.0175   5200659.6942   2   7   0.0859   0.1334   0.1575  -0.0242   0.1002  -0.0168  28.00    1.4
2021/04/08 01:33:30.000    455571.4500   3639412.0176   5200659.6919   2   7   0.0793   0.1235   0.1392  -0.0109   0.0914  -0.0175   0.00    1.4
2021/04/08 01:33:33.000    455571.4462   3639411.9999   5200659.6695   2   7   0.0787   0.1220   0.1355  -0.0101   0.0899  -0.0181   3.00    1.4
2021/04/08 01:33:35.000    455571.4470   3639411.9870   5200659.6539   2   7   0.0782   0.1209   0.1333  -0.0096   0.0889  -0.0185   5.00    1.4
2021/04/08 01:33:38.000    455571.4460   3639411.9780   5200659.6511   2   7   0.0779   0.1202   0.1324  -0.0101   0.0885  -0.0186   8.00    1.4
2021/04/08 01:33:41.000    455571.4401   3639411.9767   5200659.6522   2   7   0.0778   0.1199   0.1322  -0.0114   0.0883  -0.0186  11.00    1.4
2021/04/08 01:33:43.000    455571.4366   3639411.9688   5200659.6576   2   7   0.0776   0.1195   0.1321  -0.0125   0.0881  -0.0185  13.00    1.3
2021/04/08 01:33:46.000    455571.4339   3639411.9643   5200659.6573   2   7   0.0777   0.1196   0.1329  -0.0145   0.0882  -0.0184  16.00    1.3
2021/04/08 01:33:48.000    455571.4288   3639411.9542   5200659.6597   2   7   0.0778   0.1196   0.1334  -0.0159   0.0883  -0.0183  18.00    1.3
2021/04/08 01:33:51.000    455571.4260   3639411.9551   5200659.6621   2   7   0.0782   0.1201   0.1349  -0.0181   0.0888  -0.0181  21.00    1.2
2021/04/08 01:33:54.000    455571.4248   3639411.9523   5200659.6686   2   7   0.0788   0.1208   0.1367  -0.0203   0.0895  -0.0180  24.00    1.2
2021/04/08 01:33:56.000    455571.4236   3639411.9525   5200659.6726   2   7   0.0791   0.1212   0.1379  -0.0218   0.0899  -0.0178  26.00    1.2
2021/04/08 01:34:01.000    455571.4297   3639411.8975   5200659.6389   2   7   0.0731   0.1120   0.1210  -0.0087   0.0818  -0.0181   1.00    1.2
2021/04/08 01:34:04.000    455571.4285   3639411.8861   5200659.6255   2   7   0.0726   0.1110   0.1186  -0.0078   0.0809  -0.0185   4.00    1.1
2021/04/08 01:34:07.000    455571.4286   3639411.8713   5200659.6174   2   7   0.0724   0.1104   0.1176  -0.0081   0.0804  -0.0186   7.00    1.1
2021/04/08 01:34:09.000    455571.4321   3639411.8599   5200659.6158   2   7   0.0722   0.1099   0.1172  -0.0087   0.0801  -0.0186   9.00    1.1
2021/04/08 01:34:14.000    455571.4316   3639411.8397   5200659.6120   2   7   0.0727   0.1106   0.1187  -0.0120   0.0807  -0.0186  14.00    1.1
2021/04/08 01:34:17.000    455571.4324   3639411.8202   5200659.5977   2   7   0.0731   0.1110   0.1200  -0.0143   0.0812  -0.0185  17.00    1.0
2021/04/08 01:34:20.000    455571.4348   3639411.8026   5200659.5950   2   7   0.0736   0.1117   0.1217  -0.0166   0.0818  -0.0184  20.00    1.0
2021/04/08 01:34:22.000    455571.4350   3639411.7832   5200659.5861   2   7   0.0739   0.1120   0.1229  -0.0181   0.0822  -0.0182  22.00    1.0
2021/04/08 01:34:25.000    455571.4370   3639411.7649   5200659.5821   2   7   0.0748   0.1131   0.1252  -0.0205   0.0831  -0.0181  25.00    1.0
2021/04/08 01:34:27.000    455571.4423   3639411.7449   5200659.5767   2   7   0.0753   0.1137   0.1268  -0.0221   0.0837  -0.0180  27.00    1.0
2021/04/08 01:34:30.000    455571.4515   3639411.7103   5200659.5583   2   7   0.0684   0.1034   0.1081  -0.0068   0.0749  -0.0182   0.00    1.1
2021/04/08 01:34:33.000    455571.4548   3639411.6818   5200659.5215   2   7   0.0681   0.1024   0.1055  -0.0056   0.0739  -0.0184   3.00    1.1
2021/04/08 01:34:35.000    455571.4589   3639411.6627   5200659.5025   2   7   0.0678   0.1016   0.1042  -0.0048   0.0732  -0.0185   5.00    1.1
2021/04/08 01:34:38.000    455571.4609   3639411.6443   5200659.4884   2   7   0.0677   0.1014   0.1040  -0.0059   0.0731  -0.0186   8.00    1.1
2021/04/08 01:34:40.000    455571.4687   3639411.6299   5200659.4829   2   7   0.0677   0.1012   0.1040  -0.0072   0.0730  -0.0185  10.00    1.1
2021/04/08 01:34:43.000    455571.4742   3639411.6108   5200659.4730   2   7   0.0679   0.1015   0.1050  -0.0096   0.0734  -0.0185  13.00    1.2
2021/04/08 01:34:46.000    455571.4785   3639411.5944   5200659.4651   2   7   0.0684   0.1021   0.1065  -0.0121   0.0739  -0.0184  16.00    1.2
2021/04/08 01:34:48.000    455571.4834   3639411.5747   5200659.4598   2   7   0.0687   0.1024   0.1077  -0.0138   0.0743  -0.0183  18.00    1.2
2021/04/08 01:34:51.000    455571.4885   3639411.5632   5200659.4595   2   7   0.0694   0.1034   0.1099  -0.0164   0.0752  -0.0182  21.00    1.2
2021/04/08 01:34:53.000    455571.4945   3639411.5471   5200659.4525   2   7   0.0699   0.1041   0.1115  -0.0180   0.0758  -0.0181  23.00    1.3
2021/04/08 01:34:56.000    455571.4993   3639411.5354   5200659.4480   2   7   0.0709   0.1054   0.1144  -0.0206   0.0770  -0.0180  26.00    1.3
2021/04/08 01:35:01.000    455571.4930   3639411.5057   5200659.4174   2   7   0.0642   0.0953   0.0960  -0.0031   0.0684  -0.0181   1.00    1.3
2021/04/08 01:35:04.000    455571.4962   3639411.4818   5200659.3844   2   7   0.0640   0.0946   0.0944   0.0012   0.0677  -0.0182   4.00    1.2
2021/04/08 01:35:06.000    455571.4961   3639411.4656   5200659.3689   2   7   0.0638   0.0941   0.0936   0.0016   0.0673  -0.0182   6.00    1.2
2021/04/08 01:35:09.000    455571.4983   3639411.4524   5200659.3511   2   7   0.0639   0.0942   0.0940  -0.0041   0.0674  -0.0182   9.00    1.2
2021/04/08 01:35:12.000    455571.5015   3639411.4432   5200659.3429   2   7   0.0642   0.0945   0.0950  -0.0072   0.0678  -0.0182  12.00    1.2
2021/04/08 01:35:14.000    455571.5051   3639411.4306   5200659.3347   2   7   0.0644   0.0948   0.0959  -0.0092   0.0681  -0.0181  14.00    1.3
2021/04/08 01:35:17.000    455571.5058   3639411.4288   5200659.3269   2   7   0.0650   0.0956   0.0979  -0.0120   0.0688  -0.0180  17.00    1.2
2021/04/08 01:35:19.000    455571.5088   3639411.4227   5200659.3173   2   7   0.0655   0.0962   0.0993  -0.0138   0.0693  -0.0179  19.00    1.2
2021/04/08 01:35:22.000    455571.5122   3639411.4166   5200659.3140   2   7   0.0664   0.0974   0.1020  -0.0165   0.0704  -0.0178  22.00    1.2
2021/04/08 01:35:25.000    455571.5148   3639411.4063   5200659.3051   2   7   0.0675   0.0989   0.1050  -0.0192   0.0717  -0.0177  25.00    1.2
2021/04/08 01:35:27.000    455571.5141   3639411.4053   5200659.2992   2   7   0.0682   0.0999   0.1072  -0.0209   0.0726  -0.0176  27.00    1.2
2021/04/08 01:35:30.000    455571.5164   3639411.3951   5200659.3108   2   7   0.0606   0.0886   0.0867   0.0039   0.0631  -0.0177   0.00    1.2
2021/04/08 01:35:32.000    455571.5171   3639411.3793   5200659.2889   2   7   0.0603   0.0876   0.0846   0.0053   0.0622  -0.0177   2.00    1.2
2021/04/08 01:35:35.000    455571.5149   3639411.3724   5200659.2769   2   7   0.0603   0.0872   0.0839   0.0057   0.0619  -0.0178   5.00    1.2
2021/04/08 01:35:38.000    455571.5121   3639411.3688   5200659.2648   2   7   0.0604   0.0872   0.0842   0.0043   0.0620  -0.0177   8.00    1.2
2021/04/08 01:35:40.000    455571.5132   3639411.3663   5200659.2582   2   7   0.0605   0.0873   0.0847   0.0006   0.0621  -0.0177  10.00    1.2
2021/04/08 01:35:43.000    455571.5097   3639411.3743   5200659.2526   2   7   0.0609   0.0879   0.0863  -0.0065   0.0627  -0.0176  13.00    1.2
2021/04/08 01:35:45.000    455571.5085   3639411.3749   5200659.2500   2   7   0.0613   0.0884   0.0875  -0.0088   0.0631  -0.0175  15.00    1.2
2021/04/08 01:35:51.000    455571.5066   3639411.3782   5200659.2395   2   7   0.0632   0.0912   0.0930  -0.0149   0.0654  -0.0174  21.00    1.2
2021/04/08 01:35:53.000    455571.5040   3639411.3804   5200659.2397   2   7   0.0639   0.0921   0.0950  -0.0168   0.0662  -0.0174  23.00    1.2
2021/04/08 01:35:56.000    455571.5021   3639411.3796   5200659.2325   2   7   0.0651   0.0938   0.0985  -0.0195   0.0677  -0.0173  26.00    1.2
2021/04/08 01:35:58.000    455571.5006   3639411.3742   5200659.2240   2   7   0.0660   0.0950   0.1009  -0.0213   0.0687  -0.0172  28.00    1.2
2021/04/08 01:36:01.000    455571.5122   3639411.3606   5200659.2360   2   7   0.0576   0.0825   0.0782   0.0064   0.0583  -0.0172   1.00    1.1
2021/04/08 01:36:04.000    455571.5121   3639411.3526   5200659.2101   2   7   0.0575   0.0820   0.0772   0.0070   0.0579  -0.0172   4.00    1.0
2021/04/08 01:36:06.000    455571.5103   3639411.3468   5200659.1954   2   7   0.0574   0.0817   0.0769   0.0070   0.0577  -0.0172   6.00    1.0
2021/04/08 01:36:09.000    455571.5091   3639411.3387   5200659.1818   2   7   0.0577   0.0820   0.0777   0.0053   0.0580  -0.0171   9.00    1.0
2021/04/08 01:36:14.000    455571.5060   3639411.3371   5200659.1696   2   7   0.0587   0.0834   0.0808  -0.0067   0.0592  -0.0171  14.00    1.1
2021/04/08 01:36:17.000    455571.5039   3639411.3369   5200659.1651   2   7   0.0595   0.0846   0.0833  -0.0103   0.0602  -0.0170  17.00    1.1
2021/04/08 01:36:19.000    455571.5035   3639411.3292   5200659.1584   2   7   0.0601   0.0854   0.0851  -0.0124   0.0609  -0.0169  19.00    1.1
2021/04/08 01:36:22.000    455571.5005   3639411.3256   5200659.1536   2   7   0.0612   0.0869   0.0883  -0.0154   0.0622  -0.0168  22.00    1.1
2021/04/08 01:36:24.000    455571.4983   3639411.3220   5200659.1464   2   7   0.0619   0.0880   0.0906  -0.0173   0.0631  -0.0168  24.00    1.1
2021/04/08 01:36:30.000    455571.5163   3639411.3162   5200659.1719   2   7   0.0554   0.0779   0.0721   0.0076   0.0548  -0.0168   0.00    1.1
2021/04/08 01:36:32.000    455571.5157   3639411.3075   5200659.1636   2   7   0.0551   0.0770   0.0706   0.0082   0.0540  -0.0168   2.00    1.0
2021/04/08 01:36:35.000    455571.5150   3639411.3009   5200659.1572   2   7   0.0551   0.0768   0.0702   0.0084   0.0539  -0.0167   5.00    1.1
2021/04/08 01:36:40.000    455571.5171   3639411.2955   5200659.1519   2   7   0.0558   0.0777   0.0722   0.0057   0.0546  -0.0166  10.00    1.1
2021/04/08 01:36:43.000    455571.5213   3639411.2932   5200659.1548   2   7   0.0563   0.0785   0.0741  -0.0032   0.0553  -0.0166  13.00    1.1
2021/04/08 01:36:45.000    455571.5232   3639411.2910   5200659.1560   2   7   0.0568   0.0792   0.0757  -0.0068   0.0559  -0.0165  15.00    1.1
2021/04/08 01:36:48.000    455571.5198   3639411.2961   5200659.1550   2   7   0.0577   0.0805   0.0785  -0.0106   0.0570  -0.0164  18.00    1.1
2021/04/08 01:36:50.000    455571.5181   3639411.2901   5200659.1533   2   7   0.0584   0.0815   0.0806  -0.0128   0.0579  -0.0164  20.00    1.1
2021/04/08 01:36:53.000    455571.5214   3639411.2789   5200659.1522   2   7   0.0596   0.0833   0.0841  -0.0159   0.0593  -0.0163  23.00    1.1
2021/04/08 01:36:56.000    455571.5207   3639411.2681   5200659.1517   2   7   0.0610   0.0853   0.0880  -0.0188   0.0610  -0.0162  26.00    1.1
2021/04/08 01:36:58.000    455571.5190   3639411.2588   5200659.1494   2   7   0.0620   0.0867   0.0908  -0.0207   0.0622  -0.0161  28.00    1.2
2021/04/08 01:37:01.000    455571.5115   3639411.2503   5200659.1577   2   7   0.0530   0.0730   0.0660   0.0087   0.0511  -0.0162   1.00    1.3
2021/04/08 01:37:03.000    455571.5100   3639411.2354   5200659.1379   2   7   0.0528   0.0724   0.0650   0.0092   0.0506  -0.0161   3.00    1.3
2021/04/08 01:37:06.000    455571.5093   3639411.2235   5200659.1229   2   7   0.0529   0.0725   0.0652   0.0090   0.0506  -0.0161   6.00    1.3
2021/04/08 01:37:09.000    455571.5059   3639411.2107   5200659.1078   2   7   0.0533   0.0729   0.0664   0.0076   0.0510  -0.0160   9.00    1.4
2021/04/08 01:37:11.000    455571.5036   3639411.2022   5200659.0967   2   7   0.0536   0.0733   0.0675   0.0060   0.0514  -0.0160  11.00    1.4
2021/04/08 01:37:14.000    455571.5048   3639411.1907   5200659.0836   2   7   0.0543   0.0744   0.0698  -0.0036   0.0523  -0.0159  14.00    1.4
2021/04/08 01:37:16.000    455571.5012   3639411.1855   5200659.0787   2   7   0.0548   0.0752   0.0716  -0.0073   0.0530  -0.0158  16.00    1.4
2021/04/08 01:37:19.000    455571.4980   3639411.1797   5200659.0671   2   7   0.0559   0.0767   0.0748  -0.0112   0.0542  -0.0158  19.00    1.4
2021/04/08 01:37:22.000    455571.4967   3639411.1702   5200659.0534   2   7   0.0572   0.0786   0.0784  -0.0145   0.0558  -0.0157  22.00    1.4
2021/04/08 01:37:24.000    455571.4933   3639411.1641   5200659.0519   2   7   0.0581   0.0799   0.0810  -0.0165   0.0568  -0.0156  24.00    1.4
2021/04/08 01:37:27.000    455571.4926   3639411.1549   5200659.0420   2   7   0.0596   0.0822   0.0852  -0.0195   0.0586  -0.0155  27.00    1.4
2021/04/08 01:37:29.000    455571.4891   3639411.1556   5200659.0382   2   7   0.0607   0.0837   0.0881  -0.0214   0.0599  -0.0155  29.00    1.4
2021/04/08 01:37:32.000    455571.4907   3639411.1886   5200659.0769   2   7   0.0507   0.0687   0.0610   0.0095   0.0479  -0.0156   2.00    1.5
2021/04/08 01:37:35.000    455571.4894   3639411.1862   5200659.0586   2   7   0.0508   0.0686   0.0609   0.0096   0.0478  -0.0155   5.00    1.5
2021/04/08 01:37:37.000    455571.4856   3639411.1858   5200659.0520   2   7   0.0509   0.0686   0.0613   0.0092   0.0479  -0.0154   7.00    1.6
2021/04/08 01:37:40.000    455571.4832   3639411.1865   5200659.0431   2   7   0.0514   0.0693   0.0629   0.0075   0.0484  -0.0154  10.00    1.6
2021/04/08 01:37:45.000    455571.4759   3639411.1861   5200659.0431   2   7   0.0528   0.0714   0.0671  -0.0051   0.0501  -0.0153  15.00    1.6
2021/04/08 01:37:48.000    455571.4769   3639411.1888   5200659.0421   2   7   0.0538   0.0730   0.0703  -0.0097   0.0514  -0.0152  18.00    1.6
2021/04/08 01:37:50.000    455571.4758   3639411.1857   5200659.0354   2   7   0.0546   0.0741   0.0726  -0.0121   0.0523  -0.0151  20.00    1.6
2021/04/08 01:37:54.000    455571.4780   3639411.1840   5200659.0325   2   7   0.0565   0.0769   0.0779  -0.0164   0.0546  -0.0151  24.00    1.6
2021/04/08 01:37:57.000    455571.4755   3639411.1812   5200659.0297   2   7   0.0582   0.0793   0.0822  -0.0194   0.0564  -0.0150  27.00    1.6
2021/04/08 01:38:00.000    455571.4715   3639411.1652   5200659.0392   2   7   0.0491   0.0653   0.0572   0.0100   0.0454  -0.0151   0.00    1.8
2021/04/08 01:38:02.000    455571.4655   3639411.1539   5200659.0237   2   7   0.0489   0.0646   0.0561   0.0103   0.0448  -0.0150   2.00    1.8
2021/04/08 01:38:05.000    455571.4616   3639411.1480   5200659.0114   2   7   0.0490   0.0646   0.0562   0.0103   0.0448  -0.0149   5.00    1.9
2021/04/08 01:38:07.000    455571.4559   3639411.1459   5200659.0076   2   7   0.0491   0.0647   0.0568   0.0099   0.0449  -0.0148   7.00    1.9
2021/04/08 01:38:10.000    455571.4522   3639411.1422   5200659.0004   2   7   0.0497   0.0655   0.0585   0.0083   0.0455  -0.0148  10.00    2.0
2021/04/08 01:38:13.000    455571.4481   3639411.1367   5200658.9911   2   7   0.0504   0.0666   0.0610   0.0050   0.0465  -0.0147  13.00    2.0
2021/04/08 01:38:15.000    455571.4431   3639411.1371   5200658.9893   2   7   0.0510   0.0675   0.0629  -0.0036   0.0472  -0.0146  15.00    2.0
2021/04/08 01:38:18.000    455571.4360   3639411.1301   5200658.9842   2   7   0.0521   0.0692   0.0663  -0.0090   0.0486  -0.0146  18.00    2.0
2021/04/08 01:38:20.000    455571.4355   3639411.1270   5200658.9754   2   7   0.0530   0.0705   0.0687  -0.0116   0.0496  -0.0145  20.00    2.1
2021/04/08 01:38:23.000    455571.4305   3639411.1236   5200658.9735   2   7   0.0544   0.0726   0.0728  -0.0150   0.0513  -0.0144  23.00    2.1
2021/04/08 01:38:26.000    455571.4270   3639411.1196   5200658.9691   2   7   0.0561   0.0751   0.0772  -0.0181   0.0532  -0.0143  26.00    2.1
2021/04/08 01:38:28.000    455571.4246   3639411.1126   5200658.9632   2   7   0.0572   0.0768   0.0802  -0.0201   0.0545  -0.0143  28.00    2.1
2021/04/08 01:38:31.000    455571.4278   3639411.1204   5200658.9954   2   7   0.0471   0.0613   0.0527   0.0107   0.0425  -0.0145   1.00    2.3
2021/04/08 01:38:33.000    455571.4251   3639411.1108   5200658.9798   2   7   0.0471   0.0609   0.0522   0.0109   0.0421  -0.0143   3.00    2.4
2021/04/08 01:38:36.000    455571.4254   3639411.1024   5200658.9669   2   7   0.0473   0.0611   0.0528   0.0106   0.0423  -0.0142   6.00    2.4
2021/04/08 01:38:39.000    455571.4200   3639411.0992   5200658.9606   2   7   0.0478   0.0618   0.0544   0.0094   0.0428  -0.0142   9.00    2.5
2021/04/08 01:38:41.000    455571.4161   3639411.0954   5200658.9533   2   7   0.0482   0.0624   0.0558   0.0080   0.0433  -0.0141  11.00    2.5
2021/04/08 01:38:44.000    455571.4117   3639411.0832   5200658.9456   2   7   0.0491   0.0638   0.0586   0.0036   0.0444  -0.0140  14.00    2.6
2021/04/08 01:38:46.000    455571.4095   3639411.0791   5200658.9418   2   7   0.0497   0.0648   0.0608  -0.0053   0.0453  -0.0140  16.00    2.6
2021/04/08 01:38:49.000    455571.4043   3639411.0806   5200658.9363   2   7   0.0510   0.0668   0.0645  -0.0101   0.0468  -0.0139  19.00    2.6
2021/04/08 01:38:52.000    455571.3998   3639411.0789   5200658.9335   2   7   0.0525   0.0690   0.0686  -0.0137   0.0485  -0.0138  22.00    2.6
2021/04/08 01:38:54.000    455571.3951   3639411.0755   5200658.9275   2   7   0.0535   0.0705   0.0714  -0.0159   0.0497  -0.0138  24.00    2.6
2021/04/08 01:38:57.000    455571.3933   3639411.0706   5200658.9202   2   7   0.0553   0.0732   0.0760  -0.0190   0.0518  -0.0137  27.00    2.7
2021/04/08 01:38:59.000    455571.3885   3639411.0697   5200658.9162   2   7   0.0565   0.0750   0.0792  -0.0210   0.0532  -0.0136  29.00    2.7
2021/04/08 01:39:02.000    455571.3960   3639411.0831   5200658.9488   2   8   0.0455   0.0580   0.0494   0.0111   0.0401  -0.0138   2.00    1.8
2021/04/08 01:39:05.000    455571.3936   3639411.0805   5200658.9402   2   8   0.0455   0.0581   0.0494   0.0115   0.0399  -0.0131   5.00    2.4
2021/04/08 01:39:07.000    455571.3898   3639411.0761   5200658.9361   2   8   0.0456   0.0582   0.0499   0.0117   0.0398  -0.0124   7.00    2.9
2021/04/08 01:39:10.000    455571.3079   3639410.9441   5200658.7907   1   8   0.0118   0.0178   0.0233  -0.0043   0.0105   0.0086  10.00    3.2
2021/04/08 01:39:12.000    455571.3058   3639410.9495   5200658.7915   1   8   0.0133   0.0201   0.0265  -0.0052   0.0118   0.0100  12.00    3.4
2021/04/08 01:39:15.000    455571.3060   3639410.9536   5200658.7901   1   8   0.0158   0.0237   0.0317  -0.0064   0.0140   0.0122  15.00    3.4
2021/04/08 01:39:18.000    455571.3076   3639410.9561   5200658.7914   1   8   0.0184   0.0275   0.0370  -0.0076   0.0162   0.0145  18.00    3.5
2021/04/08 01:39:20.000    455571.3068   3639410.9549   5200658.7891   1   8   0.0201   0.0300   0.0406  -0.0084   0.0177   0.0160  20.00    3.5
2021/04/08 01:39:23.000    455571.3084   3639410.9612   5200658.7855   1   8   0.0228   0.0339   0.0461  -0.0096   0.0200   0.0183  23.00    3.5
2021/04/08 01:39:25.000    455571.3086   3639410.9631   5200658.7864   1   8   0.0245   0.0365   0.0498  -0.0103   0.0216   0.0198  25.00    3.5
2021/04/08 01:39:28.000    455571.3089   3639410.9661   5200658.7836   1   8   0.0272   0.0405   0.0553  -0.0115   0.0239   0.0221  28.00    3.5
2021/04/08 01:39:31.000    455571.3085   3639410.9494   5200658.8057   1   8   0.0063   0.0101   0.0129   0.0023   0.0064   0.0036   1.00    3.9
2021/04/08 01:39:33.000    455571.3088   3639410.9470   5200658.8028   1   8   0.0070   0.0111   0.0141   0.0017   0.0069   0.0043   3.00    4.2
2021/04/08 01:39:36.000    455571.3086   3639410.9473   5200658.8027   1   8   0.0088   0.0136   0.0174  -0.0022   0.0081   0.0059   6.00    4.4
2021/04/08 01:39:38.000    455571.3073   3639410.9468   5200658.8023   1   8   0.0102   0.0156   0.0201  -0.0033   0.0092   0.0072   8.00    4.5
2021/04/08 01:39:41.000    455571.3070   3639410.9556   5200658.8022   1   8   0.0125   0.0189   0.0248  -0.0047   0.0111   0.0093  11.00    4.6
2021/04/08 01:39:44.000    455571.3060   3639410.9570   5200658.7998   1   8   0.0150   0.0225   0.0299  -0.0060   0.0132   0.0115  14.00    4.7
2021/04/08 01:39:46.000    455571.3067   3639410.9583   5200658.7999   1   8   0.0167   0.0250   0.0333  -0.0068   0.0146   0.0129  16.00    4.8
2021/04/08 01:39:49.000    455571.3075   3639410.9614   5200658.8033   1   8   0.0192   0.0287   0.0387  -0.0080   0.0169   0.0152  19.00    4.8
2021/04/08 01:39:51.000    455571.3099   3639410.9641   5200658.8070   1   8   0.0210   0.0313   0.0423  -0.0088   0.0184   0.0167  21.00    4.9
2021/04/08 01:39:54.000    455571.3128   3639410.9649   5200658.8048   1   8   0.0236   0.0352   0.0478  -0.0100   0.0207   0.0190  24.00    4.9
2021/04/08 01:40:02.000    455571.3080   3639410.9494   5200658.8008   1   8   0.0066   0.0105   0.0134   0.0021   0.0066   0.0039   2.00    5.0
2021/04/08 01:40:04.000    455571.3067   3639410.9492   5200658.8005   1   8   0.0076   0.0118   0.0150   0.0009   0.0072   0.0048   4.00    5.0
2021/04/08 01:40:08.000    455571.3079   3639410.9476   5200658.7971   1   8   0.0102   0.0156   0.0201  -0.0032   0.0091   0.0072   8.00    5.1
2021/04/08 01:40:11.000    455571.3084   3639410.9433   5200658.7917   1   8   0.0125   0.0189   0.0248  -0.0048   0.0110   0.0093  11.00    5.1
2021/04/08 01:40:13.000    455571.3104   3639410.9461   5200658.7862   1   8   0.0142   0.0213   0.0281  -0.0056   0.0124   0.0107  13.00    5.1
2021/04/08 01:40:14.000    455571.3095   3639410.9477   5200658.7882   1   8   0.0150   0.0225   0.0298  -0.0061   0.0131   0.0114  14.00    5.1
2021/04/08 01:40:15.000    455571.3087   3639410.9448   5200658.7873   1   8   0.0158   0.0237   0.0315  -0.0065   0.0138   0.0122  15.00    5.1
2021/04/08 01:40:18.000    455571.3114   3639410.9448   5200658.7827   1   8   0.0184   0.0275   0.0368  -0.0077   0.0160   0.0144  18.00    5.1
2021/04/08 01:40:21.000    455571.3113   3639410.9463   5200658.7811   1   8   0.0210   0.0313   0.0422  -0.0089   0.0183   0.0166  21.00    5.1
2021/04/08 01:40:23.000    455571.3113   3639410.9493   5200658.7736   1   8   0.0227   0.0339   0.0458  -0.0097   0.0198   0.0181  23.00    5.2
2021/04/08 01:40:25.000    455571.3092   3639410.9486   5200658.7746   1   8   0.0245   0.0365   0.0494  -0.0105   0.0214   0.0196  25.00    5.2
2021/04/08 01:40:28.000    455571.3104   3639410.9487   5200658.7726   1   8   0.0272   0.0405   0.0549  -0.0118   0.0237   0.0219  28.00    5.2
2021/04/08 01:40:34.000    455571.3070   3639410.9468   5200658.7927   1   8   0.0075   0.0118   0.0150   0.0012   0.0071   0.0048   4.00    5.2
2021/04/08 01:40:36.000    455571.3072   3639410.9463   5200658.7956   1   8   0.0088   0.0136   0.0173  -0.0021   0.0080   0.0059   6.00    5.1
2021/04/08 01:40:38.000    455571.3049   3639410.9490   5200658.7884   1   8   0.0102   0.0156   0.0200  -0.0033   0.0091   0.0072   8.00    5.1
2021/04/08 01:40:41.000    455571.3037   3639410.9490   5200658.7883   1   8   0.0126   0.0190   0.0247  -0.0048   0.0109   0.0093  11.00    5.1
2021/04/08 01:40:42.000    455571.3036   3639410.9458   5200658.7817   1   8   0.0134   0.0201   0.0263  -0.0052   0.0116   0.0100  12.00    5.1
2021/04/08 01:40:50.000    455571.3019   3639410.9525   5200658.7741   1   8   0.0201   0.0300   0.0402  -0.0086   0.0175   0.0158  20.00    5.1
2021/04/08 01:40:53.000    455571.3003   3639410.9518   5200658.7742   1   8   0.0227   0.0339   0.0456  -0.0098   0.0198   0.0180  23.00    5.0
2021/04/08 01:40:55.000    455571.2968   3639410.9541   5200658.7753   1   8   0.0245   0.0365   0.0493  -0.0106   0.0213   0.0195  25.00    5.0
2021/04/08 01:40:57.000    455571.2946   3639410.9580   5200658.7745   1   8   0.0263   0.0392   0.0529  -0.0115   0.0229   0.0210  27.00    5.1
2021/04/08 01:41:00.000    455571.3083   3639410.9491   5200658.8037   1   8   0.0061   0.0099   0.0128   0.0024   0.0063   0.0035   0.00    5.1
2021/04/08 01:41:05.000    455571.3068   3639410.9458   5200658.7902   1   8   0.0081   0.0127   0.0161  -0.0012   0.0074   0.0054   5.00    5.1
2021/04/08 01:41:08.000    455571.3040   3639410.9440   5200658.7839   1   8   0.0102   0.0156   0.0200  -0.0033   0.0090   0.0072   8.00    5.0
2021/04/08 01:41:11.000    455571.3039   3639410.9475   5200658.7853   1   8   0.0126   0.0190   0.0246  -0.0048   0.0109   0.0092  11.00    5.0
2021/04/08 01:41:12.000    455571.3048   3639410.9479   5200658.7830   1   8   0.0134   0.0201   0.0263  -0.0053   0.0115   0.0099  12.00    4.9
2021/04/08 01:41:21.000    455571.2991   3639410.9502   5200658.7719   1   8   0.0210   0.0313   0.0419  -0.0091   0.0181   0.0165  21.00    4.9
2021/04/08 01:41:24.000    455571.3004   3639410.9469   5200658.7721   1   8   0.0236   0.0352   0.0473  -0.0103   0.0205   0.0187  24.00    4.9
2021/04/08 01:41:28.000    455571.2963   3639410.9480   5200658.7706   1   8   0.0272   0.0405   0.0546  -0.0120   0.0236   0.0217  28.00    4.9
2021/04/08 01:41:31.000    455571.3096   3639410.9480   5200658.8007   1   8   0.0063   0.0101   0.0129   0.0025   0.0063   0.0038   1.00    4.9
2021/04/08 01:41:34.000    455571.3086   3639410.9475   5200658.7983   1   8   0.0077   0.0119   0.0150   0.0010   0.0070   0.0049   4.00    4.9
2021/04/08 01:41:44.000    455571.3005   3639410.9495   5200658.7874   1   8   0.0150   0.0225   0.0295  -0.0062   0.0129   0.0113  14.00    4.9
2021/04/08 01:41:45.000    455571.3021   3639410.9459   5200658.7862   1   8   0.0158   0.0237   0.0312  -0.0066   0.0136   0.0121  15.00    4.9
2021/04/08 01:41:46.000    455571.3013   3639410.9474   5200658.7881   1   8   0.0167   0.0250   0.0330  -0.0070   0.0143   0.0128  16.00    4.9
2021/04/08 01:41:49.000    455571.2966   3639410.9505   5200658.7826   1   8   0.0192   0.0287   0.0382  -0.0083   0.0165   0.0149  19.00    4.8
2021/04/08 01:41:50.000    455571.2972   3639410.9495   5200658.7849   1   8   0.0201   0.0300   0.0400  -0.0087   0.0173   0.0157  20.00    4.8
2021/04/08 01:41:52.000    455571.2958   3639410.9497   5200658.7827   1   8   0.0219   0.0326   0.0436  -0.0096   0.0188   0.0171  22.00    4.8
2021/04/08 01:41:54.000    455571.2954   3639410.9504   5200658.7834   1   8   0.0236   0.0352   0.0472  -0.0104   0.0204   0.0186  24.00    4.8
2021/04/08 01:41:56.000    455571.2957   3639410.9478   5200658.7786   1   8   0.0254   0.0378   0.0508  -0.0113   0.0219   0.0201  26.00    4.8
2021/04/08 01:41:59.000    455571.2986   3639410.9505   5200658.7703   1   8   0.0281   0.0418   0.0562  -0.0125   0.0243   0.0223  29.00    4.8
2021/04/08 01:42:02.000    455571.3079   3639410.9506   5200658.7996   1   8   0.0066   0.0105   0.0134   0.0020   0.0064   0.0040   2.00    4.7
2021/04/08 01:42:05.000    455571.3074   3639410.9513   5200658.7983   1   8   0.0082   0.0127   0.0160  -0.0012   0.0074   0.0054   5.00    4.7
2021/04/08 01:42:07.000    455571.3067   3639410.9498   5200658.7911   1   8   0.0096   0.0146   0.0185  -0.0027   0.0083   0.0066   7.00    4.7
2021/04/08 01:42:09.000    455571.3075   3639410.9512   5200658.7911   1   8   0.0110   0.0167   0.0214  -0.0039   0.0095   0.0079   9.00    4.7
2021/04/08 01:42:12.000    455571.3089   3639410.9529   5200658.7885   1   8   0.0134   0.0201   0.0261  -0.0053   0.0114   0.0099  12.00    4.6
2021/04/08 01:42:15.000    455571.3091   3639410.9538   5200658.7833   1   8   0.0158   0.0237   0.0311  -0.0067   0.0135   0.0120  15.00    4.6
2021/04/08 01:42:17.000    455571.3091   3639410.9547   5200658.7842   1   8   0.0175   0.0262   0.0346  -0.0075   0.0150   0.0134  17.00    4.6
2021/04/08 01:42:19.000    455571.3090   3639410.9560   5200658.7826   1   8   0.0192   0.0287   0.0381  -0.0084   0.0165   0.0149  19.00    4.6
2021/04/08 01:42:22.000    455571.3076   3639410.9510   5200658.7783   1   8   0.0219   0.0326   0.0434  -0.0096   0.0188   0.0170  22.00    4.6
2021/04/08 01:42:24.000    455571.3100   3639410.9517   5200658.7804   1   8   0.0236   0.0352   0.0470  -0.0105   0.0203   0.0185  24.00    4.6
2021/04/08 01:42:30.000    455571.3081   3639410.9481   5200658.7991   1   8   0.0063   0.0100   0.0129   0.0024   0.0062   0.0038   0.00    4.6
2021/04/08 01:42:32.000    455571.3066   3639410.9461   5200658.7966   1   8   0.0067   0.0105   0.0134   0.0021   0.0064   0.0040   2.00    4.6
2021/04/08 01:42:34.000    455571.3067   3639410.9454   5200658.7930   1   8   0.0077   0.0119   0.0150   0.0011   0.0069   0.0050   4.00    4.6
2021/04/08 01:42:36.000    455571.3062   3639410.9473   5200658.7941   1   8   0.0089   0.0137   0.0172  -0.0019   0.0077   0.0060   6.00    4.6
2021/04/08 01:42:39.000    455571.3047   3639410.9452   5200658.7993   1   8   0.0110   0.0167   0.0214  -0.0039   0.0094   0.0079   9.00    4.6
2021/04/08 01:42:42.000    455571.3031   3639410.9456   5200658.7997   1   8   0.0134   0.0202   0.0261  -0.0054   0.0113   0.0099  12.00    4.6
2021/04/08 01:42:44.000    455571.3024   3639410.9454   5200658.7945   1   8   0.0150   0.0225   0.0294  -0.0062   0.0127   0.0113  14.00    4.6
2021/04/08 01:42:47.000    455571.2992   3639410.9444   5200658.7929   1   8   0.0175   0.0262   0.0345  -0.0076   0.0149   0.0134  17.00    4.6
2021/04/08 01:42:49.000    455571.2968   3639410.9408   5200658.7895   1   8   0.0192   0.0287   0.0380  -0.0084   0.0164   0.0148  19.00    4.6
2021/04/08 01:42:52.000    455571.2955   3639410.9445   5200658.7938   1   8   0.0219   0.0326   0.0433  -0.0097   0.0187   0.0170  22.00    4.6
2021/04/08 01:42:55.000    455571.2918   3639410.9490   5200658.7942   1   8   0.0245   0.0365   0.0487  -0.0110   0.0210   0.0191  25.00    4.7
2021/04/08 01:42:57.000    455571.2903   3639410.9511   5200658.7923   1   8   0.0263   0.0391   0.0523  -0.0119   0.0225   0.0206  27.00    4.7
2021/04/08 01:43:00.000    455571.3086   3639410.9479   5200658.8003   1   8   0.0062   0.0100   0.0128   0.0023   0.0061   0.0037   0.00    4.7
2021/04/08 01:43:02.000    455571.3076   3639410.9473   5200658.7965   1   8   0.0066   0.0106   0.0134   0.0022   0.0063   0.0040   2.00    4.7
2021/04/08 01:43:05.000    455571.3053   3639410.9477   5200658.7962   1   8   0.0083   0.0128   0.0160  -0.0012   0.0073   0.0055   5.00    4.7
2021/04/08 01:43:08.000    455571.3021   3639410.9461   5200658.7940   1   8   0.0103   0.0157   0.0199  -0.0034   0.0088   0.0073   8.00    4.7
2021/04/08 01:43:10.000    455571.2996   3639410.9490   5200658.7875   1   8   0.0118   0.0179   0.0228  -0.0044   0.0100   0.0085  10.00    4.7
2021/04/08 01:43:13.000    455571.2977   3639410.9501   5200658.7899   1   8   0.0142   0.0213   0.0276  -0.0058   0.0120   0.0106  13.00    4.8
2021/04/08 01:43:15.000    455571.2949   3639410.9489   5200658.7863   1   8   0.0158   0.0238   0.0310  -0.0067   0.0134   0.0119  15.00    4.8
2021/04/08 01:43:18.000    455571.2929   3639410.9573   5200658.7839   1   8   0.0184   0.0275   0.0361  -0.0081   0.0156   0.0140  18.00    4.8
2021/04/08 01:43:21.000    455571.2917   3639410.9653   5200658.7810   1   8   0.0210   0.0313   0.0414  -0.0094   0.0178   0.0162  21.00    4.8
2021/04/08 01:43:23.000    455571.2910   3639410.9687   5200658.7767   1   8   0.0227   0.0339   0.0449  -0.0102   0.0194   0.0176  23.00    4.8
2021/04/08 01:43:26.000    455571.2914   3639410.9730   5200658.7722   1   8   0.0254   0.0378   0.0503  -0.0115   0.0217   0.0197  26.00    4.8
2021/04/08 01:43:28.000    455571.2909   3639410.9754   5200658.7709   1   8   0.0272   0.0405   0.0539  -0.0124   0.0232   0.0212  28.00    4.8
2021/04/08 01:43:31.000    455571.3107   3639410.9480   5200658.7963   1   8   0.0064   0.0102   0.0130   0.0024   0.0061   0.0038   1.00    4.8
2021/04/08 01:43:33.000    455571.3112   3639410.9463   5200658.7955   1   8   0.0071   0.0112   0.0141   0.0017   0.0066   0.0046   3.00    4.8
2021/04/08 01:43:35.000    455571.3116   3639410.9437   5200658.7910   1   8   0.0082   0.0128   0.0160  -0.0011   0.0072   0.0055   5.00    4.8
2021/04/08 01:43:38.000    455571.3130   3639410.9411   5200658.7854   1   8   0.0103   0.0157   0.0198  -0.0033   0.0087   0.0073   8.00    4.8
2021/04/08 01:43:40.000    455571.3144   3639410.9451   5200658.7830   1   8   0.0118   0.0179   0.0228  -0.0044   0.0099   0.0085  10.00    4.8
2021/04/08 01:43:43.000    455571.3156   3639410.9421   5200658.7790   1   8   0.0142   0.0213   0.0276  -0.0059   0.0119   0.0105  13.00    4.8
2021/04/08 01:43:46.000    455571.3146   3639410.9432   5200658.7773   1   8   0.0167   0.0250   0.0326  -0.0072   0.0140   0.0126  16.00    4.8
2021/04/08 01:43:48.000    455571.3159   3639410.9424   5200658.7747   1   8   0.0184   0.0275   0.0360  -0.0081   0.0155   0.0140  18.00    4.8
2021/04/08 01:43:55.000    455571.3117   3639410.9493   5200658.7694   1   8   0.0245   0.0365   0.0483  -0.0112   0.0208   0.0189  25.00    4.8
2021/04/08 01:43:58.000    455571.3113   3639410.9489   5200658.7684   1   8   0.0272   0.0405   0.0537  -0.0125   0.0232   0.0210  28.00    4.8
2021/04/08 01:44:00.000    455571.3084   3639410.9495   5200658.8008   1   8   0.0063   0.0100   0.0129   0.0022   0.0061   0.0039   0.00    4.8
2021/04/08 01:44:02.000    455571.3083   3639410.9483   5200658.8004   1   8   0.0066   0.0106   0.0134   0.0022   0.0063   0.0042   2.00    4.8
2021/04/08 01:44:05.000    455571.3067   3639410.9447   5200658.7953   1   8   0.0082   0.0128   0.0160  -0.0009   0.0071   0.0055   5.00    4.8
2021/04/08 01:44:08.000    455571.3036   3639410.9450   5200658.7941   1   8   0.0103   0.0157   0.0198  -0.0034   0.0086   0.0073   8.00    4.9
2021/04/08 01:44:10.000    455571.3020   3639410.9453   5200658.7915   1   8   0.0118   0.0179   0.0227  -0.0045   0.0098   0.0085  10.00    4.9
2021/04/08 01:44:13.000    455571.2992   3639410.9454   5200658.7911   1   8   0.0142   0.0214   0.0275  -0.0059   0.0118   0.0105  13.00    4.9
2021/04/08 01:44:14.000    455571.2993   3639410.9433   5200658.7904   1   8   0.0150   0.0226   0.0291  -0.0064   0.0125   0.0112  14.00    4.9
2021/04/08 01:44:16.000    455571.2970   3639410.9429   5200658.7886   1   8   0.0167   0.0250   0.0325  -0.0073   0.0140   0.0125  16.00    4.9
2021/04/08 01:44:19.000    455571.2948   3639410.9424   5200658.7880   1   8   0.0192   0.0288   0.0376  -0.0086   0.0162   0.0146  19.00    4.9
2021/04/08 01:44:21.000    455571.2939   3639410.9410   5200658.7899   1   8   0.0210   0.0313   0.0411  -0.0095   0.0177   0.0160  21.00    5.0
2021/04/08 01:44:24.000    455571.2915   3639410.9390   5200658.7863   1   8   0.0236   0.0352   0.0464  -0.0108   0.0200   0.0181  24.00    5.0
2021/04/08 01:44:27.000    455571.2905   3639410.9413   5200658.7837   1   8   0.0263   0.0391   0.0518  -0.0122   0.0223   0.0202  27.00    5.0
2021/04/08 01:44:31.000    455571.3097   3639410.9489   5200658.7979   1   8   0.0063   0.0102   0.0131   0.0023   0.0061   0.0040   1.00    5.0
2021/04/08 01:44:33.000    455571.3080   3639410.9475   5200658.7915   1   8   0.0072   0.0112   0.0141   0.0017   0.0064   0.0046   3.00    5.0
2021/04/08 01:44:39.000    455571.3025   3639410.9431   5200658.7815   1   8   0.0111   0.0168   0.0212  -0.0039   0.0092   0.0079   9.00    5.0
2021/04/08 01:44:40.000    455571.3026   3639410.9439   5200658.7825   1   8   0.0118   0.0179   0.0227  -0.0045   0.0098   0.0085  10.00    5.0
2021/04/08 01:44:42.000    455571.3035   3639410.9416   5200658.7786   1   8   0.0134   0.0202   0.0258  -0.0054   0.0111   0.0098  12.00    5.0
2021/04/08 01:44:44.000    455571.3044   3639410.9406   5200658.7763   1   8   0.0150   0.0226   0.0291  -0.0064   0.0125   0.0112  14.00    5.0
2021/04/08 01:44:46.000    455571.3044   3639410.9367   5200658.7714   1   8   0.0167   0.0250   0.0324  -0.0073   0.0139   0.0125  16.00    5.0
2021/04/08 01:44:48.000    455571.3046   3639410.9358   5200658.7702   1   8   0.0184   0.0275   0.0358  -0.0082   0.0154   0.0139  18.00    5.0
2021/04/08 01:44:51.000    455571.3036   3639410.9337   5200658.7644   1   8   0.0210   0.0313   0.0410  -0.0096   0.0176   0.0159  21.00    5.0
2021/04/08 01:44:53.000    455571.3043   3639410.9348   5200658.7605   1   8   0.0227   0.0339   0.0445  -0.0105   0.0192   0.0173  23.00    5.0
2021/04/08 01:44:55.000    455571.3043   3639410.9342   5200658.7576   1   8   0.0245   0.0365   0.0480  -0.0114   0.0207   0.0187  25.00    5.0
2021/04/08 01:44:58.000    455571.3046   3639410.9345   5200658.7548   1   8   0.0272   0.0405   0.0534  -0.0127   0.0230   0.0208  28.00    5.0
2021/04/08 01:45:01.000    455571.3100   3639410.9509   5200658.7963   1   8   0.0064   0.0102   0.0131   0.0025   0.0060   0.0039   1.00    5.0
2021/04/08 01:45:03.000    455571.3067   3639410.9490   5200658.7912   1   8   0.0071   0.0113   0.0141   0.0018   0.0064   0.0046   3.00    5.0
2021/04/08 01:45:05.000    455571.3062   3639410.9522   5200658.7912   1   8   0.0082   0.0128   0.0160  -0.0011   0.0070   0.0056   5.00    5.0
2021/04/08 01:45:07.000    455571.3052   3639410.9524   5200658.7876   1   8   0.0096   0.0147   0.0184  -0.0027   0.0080   0.0067   7.00    5.1
2021/04/08 01:45:10.000    455571.3060   3639410.9523   5200658.7838   1   8   0.0118   0.0179   0.0227  -0.0045   0.0097   0.0085  10.00    5.1
2021/04/08 01:45:13.000    455571.3047   3639410.9542   5200658.7805   1   8   0.0142   0.0214   0.0274  -0.0060   0.0117   0.0105  13.00    5.1
2021/04/08 01:45:16.000    455571.3044   3639410.9563   5200658.7781   1   8   0.0167   0.0250   0.0323  -0.0073   0.0138   0.0125  16.00    5.1
2021/04/08 01:45:18.000    455571.3062   3639410.9569   5200658.7788   1   8   0.0184   0.0275   0.0357  -0.0083   0.0153   0.0138  18.00    5.2
2021/04/08 01:45:20.000    455571.3059   3639410.9583   5200658.7795   1   8   0.0201   0.0300   0.0392  -0.0092   0.0168   0.0152  20.00    5.2
2021/04/08 01:45:23.000    455571.3067   3639410.9622   5200658.7816   1   8   0.0227   0.0339   0.0444  -0.0105   0.0191   0.0172  23.00    5.2
2021/04/08 01:45:26.000    455571.3089   3639410.9672   5200658.7820   1   8   0.0254   0.0378   0.0497  -0.0119   0.0214   0.0193  26.00    5.2
2021/04/08 01:45:28.000    455571.3064   3639410.9632   5200658.7765   1   8   0.0272   0.0405   0.0532  -0.0128   0.0229   0.0207  28.00    5.2
2021/04/08 01:45:30.000    455571.3090   3639410.9502   5200658.7941   1   8   0.0062   0.0101   0.0129   0.0024   0.0060   0.0039   0.00    5.2
2021/04/08 01:45:32.000    455571.3101   3639410.9473   5200658.7946   1   8   0.0067   0.0107   0.0135   0.0022   0.0062   0.0043   2.00    5.3
2021/04/08 01:45:35.000    455571.3090   3639410.9508   5200658.7939   1   8   0.0083   0.0129   0.0160  -0.0010   0.0070   0.0056   5.00    5.3
2021/04/08 01:45:38.000    455571.3046   3639410.9503   5200658.7893   1   8   0.0103   0.0158   0.0198  -0.0034   0.0084   0.0073   8.00    5.2
2021/04/08 01:45:40.000    455571.3029   3639410.9525   5200658.7868   1   8   0.0118   0.0179   0.0226  -0.0045   0.0096   0.0085  10.00    5.2
2021/04/08 01:45:42.000    455571.3008   3639410.9521   5200658.7850   1   8   0.0134   0.0202   0.0257  -0.0055   0.0110   0.0098  12.00    5.2
2021/04/08 01:45:44.000    455571.2968   3639410.9499   5200658.7780   1   8   0.0150   0.0226   0.0289  -0.0065   0.0123   0.0111  14.00    5.2
2021/04/08 01:45:47.000    455571.2914   3639410.9514   5200658.7723   1   8   0.0175   0.0263   0.0339  -0.0079   0.0145   0.0131  17.00    5.2
2021/04/08 01:45:50.000    455571.2892   3639410.9509   5200658.7699   1   8   0.0201   0.0300   0.0390  -0.0092   0.0167   0.0151  20.00    5.2
2021/04/08 01:45:53.000    455571.2862   3639410.9558   5200658.7698   1   8   0.0227   0.0339   0.0442  -0.0106   0.0190   0.0171  23.00    5.2
2021/04/08 01:45:55.000    455571.2852   3639410.9576   5200658.7640   1   8   0.0245   0.0365   0.0477  -0.0115   0.0205   0.0185  25.00    5.2
2021/04/08 01:45:57.000    455571.2824   3639410.9631   5200658.7651   1   8   0.0263   0.0391   0.0513  -0.0124   0.0221   0.0199  27.00    5.2
2021/04/08 01:46:00.000    455571.3103   3639410.9499   5200658.7930   1   8   0.0063   0.0101   0.0130   0.0025   0.0059   0.0038   0.00    5.2
2021/04/08 01:46:03.000    455571.3063   3639410.9505   5200658.7898   1   8   0.0071   0.0113   0.0142   0.0021   0.0063   0.0047   3.00    5.2
2021/04/08 01:46:05.000    455571.3039   3639410.9528   5200658.7863   1   8   0.0083   0.0129   0.0160  -0.0008   0.0069   0.0056   5.00    5.2
2021/04/08 01:46:07.000    455571.3025   3639410.9578   5200658.7894   1   8   0.0096   0.0148   0.0184  -0.0027   0.0079   0.0067   7.00    5.2
2021/04/08 01:46:09.000    455571.2989   3639410.9570   5200658.7829   1   8   0.0111   0.0169   0.0211  -0.0040   0.0090   0.0079   9.00    5.2
2021/04/08 01:46:12.000    455571.2958   3639410.9630   5200658.7827   1   8   0.0134   0.0202   0.0257  -0.0055   0.0109   0.0098  12.00    5.2
2021/04/08 01:46:15.000    455571.2939   3639410.9644   5200658.7809   1   8   0.0159   0.0238   0.0305  -0.0070   0.0130   0.0117  15.00    5.2
2021/04/08 01:46:21.000    455571.2866   3639410.9691   5200658.7768   1   8   0.0210   0.0313   0.0406  -0.0098   0.0174   0.0157  21.00    5.2
2021/04/08 01:46:28.000    455571.2787   3639410.9716   5200658.7687   1   8   0.0272   0.0404   0.0529  -0.0130   0.0228   0.0204  28.00    5.2
2021/04/08 01:46:29.000    455571.2774   3639410.9716   5200658.7666   1   8   0.0280   0.0418   0.0546  -0.0135   0.0235   0.0211  29.00    5.2
2021/04/08 01:46:31.000    455571.3111   3639410.9538   5200658.7904   1   8   0.0064   0.0103   0.0132   0.0024   0.0060   0.0040   1.00    5.3
2021/04/08 01:46:32.000    455571.3112   3639410.9545   5200658.7872   1   8   0.0066   0.0107   0.0135   0.0024   0.0061   0.0043   2.00    5.3
2021/04/08 01:46:36.000    455571.3077   3639410.9557   5200658.7857   1   8   0.0089   0.0138   0.0171  -0.0020   0.0073   0.0062   6.00    5.4
2021/04/08 01:46:38.000    455571.3056   3639410.9552   5200658.7811   1   8   0.0104   0.0158   0.0197  -0.0034   0.0083   0.0073   8.00    5.4
2021/04/08 01:46:41.000    455571.3042   3639410.9527   5200658.7744   1   8   0.0126   0.0191   0.0241  -0.0050   0.0102   0.0092  11.00    5.4
2021/04/08 01:46:43.000    455571.3044   3639410.9548   5200658.7730   1   8   0.0142   0.0214   0.0272  -0.0060   0.0115   0.0104  13.00    5.4
2021/04/08 01:46:47.000    455571.2933   3639410.9601   5200658.7775   1   8   0.0175   0.0263   0.0337  -0.0080   0.0144   0.0130  17.00    5.5
2021/04/08 01:46:49.000    455571.2907   3639410.9575   5200658.7720   1   8   0.0192   0.0288   0.0371  -0.0089   0.0159   0.0143  19.00    5.5
2021/04/08 01:46:54.000    455571.2921   3639410.9572   5200658.7688   1   8   0.0236   0.0352   0.0457  -0.0112   0.0196   0.0176  24.00    5.5
2021/04/08 01:46:56.000    455571.2924   3639410.9573   5200658.7642   1   8   0.0254   0.0378   0.0492  -0.0122   0.0212   0.0190  26.00    5.5
2021/04/08 01:46:58.000    455571.2948   3639410.9573   5200658.7686   1   8   0.0271   0.0404   0.0527  -0.0131   0.0227   0.0203  28.00    5.5
2021/04/08 01:47:00.000    455571.3119   3639410.9529   5200658.7919   1   7   0.0066   0.0129   0.0132   0.0048   0.0072   0.0045   0.00    4.4
2021/04/08 01:47:01.000    455571.3135   3639410.9563   5200658.7934   1   7   0.0067   0.0132   0.0133   0.0049   0.0072   0.0046   1.00    4.5
2021/04/08 01:47:03.000    455571.3117   3639410.9610   5200658.7927   1   7   0.0075   0.0149   0.0144   0.0051   0.0077   0.0052   3.00    4.5
2021/04/08 01:47:07.000    455571.3161   3639410.9702   5200658.7941   1   7   0.0101   0.0206   0.0185   0.0057   0.0094   0.0072   7.00    4.6
2021/04/08 01:47:09.000    455571.3180   3639410.9762   5200658.7967   1   7   0.0115   0.0239   0.0212   0.0060   0.0105   0.0083   9.00    4.6
2021/04/08 01:47:11.000    455571.3207   3639410.9842   5200658.8014   1   7   0.0131   0.0274   0.0241   0.0063   0.0118   0.0095  11.00    4.7
2021/04/08 01:47:13.000    455571.3204   3639410.9845   5200658.8002   1   7   0.0147   0.0310   0.0272   0.0066   0.0131   0.0107  13.00    4.7
2021/04/08 01:47:16.000    455571.3218   3639410.9936   5200658.8014   1   7   0.0172   0.0366   0.0321   0.0072   0.0152   0.0126  16.00    4.8
2021/04/08 01:47:19.000    455571.3237   3639410.9977   5200658.8017   1   7   0.0198   0.0424   0.0371   0.0078   0.0175   0.0145  19.00    4.8
2021/04/08 01:47:21.000    455571.3252   3639410.9938   5200658.8015   1   7   0.0215   0.0463   0.0405   0.0082   0.0190   0.0158  21.00    4.8
2021/04/08 01:47:23.000    455571.3231   3639410.9902   5200658.7935   1   7   0.0233   0.0502   0.0439   0.0086   0.0205   0.0171  23.00    4.8
2021/04/08 01:47:28.000    455571.3249   3639410.9892   5200658.7899   1   7   0.0278   0.0602   0.0526   0.0098   0.0245   0.0205  28.00    4.9
2021/04/08 01:47:32.000    455571.3126   3639410.9509   5200658.7889   1   7   0.0070   0.0139   0.0138   0.0051   0.0074   0.0049   2.00    4.9
2021/04/08 01:47:36.000    455571.3072   3639410.9532   5200658.7840   1   7   0.0094   0.0190   0.0173   0.0056   0.0089   0.0067   6.00    4.9
2021/04/08 01:47:38.000    455571.3072   3639410.9525   5200658.7786   1   7   0.0108   0.0223   0.0198   0.0058   0.0099   0.0077   8.00    4.9
2021/04/08 01:47:40.000    455571.3072   3639410.9538   5200658.7804   1   7   0.0123   0.0257   0.0226   0.0061   0.0111   0.0089  10.00    4.9
2021/04/08 01:47:48.000    455571.3048   3639410.9537   5200658.7758   1   7   0.0189   0.0405   0.0353   0.0074   0.0166   0.0138  18.00    5.0
2021/04/08 01:47:50.000    455571.3053   3639410.9561   5200658.7692   1   7   0.0206   0.0444   0.0386   0.0078   0.0181   0.0151  20.00    5.0
2021/04/08 01:47:55.000    455571.3047   3639410.9457   5200658.7624   1   7   0.0251   0.0543   0.0472   0.0088   0.0220   0.0183  25.00    5.0
2021/04/08 01:47:57.000    455571.3027   3639410.9453   5200658.7587   1   7   0.0269   0.0583   0.0507   0.0092   0.0236   0.0197  27.00    5.0
2021/04/08 01:48:00.000    455571.3115   3639410.9516   5200658.7933   1   7   0.0067   0.0130   0.0133   0.0047   0.0071   0.0046   0.00    5.0
2021/04/08 01:48:04.000    455571.3110   3639410.9443   5200658.7893   1   7   0.0080   0.0162   0.0152   0.0053   0.0080   0.0057   4.00    5.0
2021/04/08 01:48:07.000    455571.3061   3639410.9392   5200658.7815   1   7   0.0101   0.0207   0.0185   0.0057   0.0093   0.0072   7.00    5.0
2021/04/08 01:48:08.999    455571.3053   3639410.9379   5200658.7786   1   7   0.0115   0.0240   0.0211   0.0060   0.0104   0.0083   9.00    5.0
2021/04/08 01:48:13.000    455571.3065   3639410.9475   5200658.7809   1   7   0.0147   0.0311   0.0271   0.0065   0.0130   0.0106  13.00    5.0
2021/04/08 01:48:14.000    455571.3025   3639410.9463   5200658.7743   1   7   0.0155   0.0330   0.0287   0.0066   0.0137   0.0112  14.00    5.0
2021/04/08 01:48:16.000    455571.3023   3639410.9484   5200658.7757   1   7   0.0172   0.0368   0.0319   0.0069   0.0151   0.0125  16.00    5.0
2021/04/08 01:48:25.000    455571.3026   3639410.9661   5200658.7775   1   7   0.0251   0.0544   0.0470   0.0085   0.0219   0.0182  25.00    5.1
2021/04/08 01:48:28.000    455571.3035   3639410.9690   5200658.7770   1   7   0.0278   0.0604   0.0522   0.0090   0.0242   0.0202  28.00    5.1
2021/04/08 01:48:30.000    455571.3110   3639410.9498   5200658.7949   1   7   0.0066   0.0130   0.0133   0.0049   0.0071   0.0046   0.00    5.1
2021/04/08 01:48:35.000    455571.3103   3639410.9428   5200658.7918   1   7   0.0087   0.0176   0.0162   0.0055   0.0083   0.0062   5.00    5.1
2021/04/08 01:48:36.000    455571.3095   3639410.9445   5200658.7884   1   7   0.0094   0.0191   0.0173   0.0056   0.0088   0.0067   6.00    5.1
2021/04/08 01:48:39.000    455571.3105   3639410.9401   5200658.7842   1   7   0.0115   0.0241   0.0211   0.0059   0.0104   0.0083   9.00    5.2
2021/04/08 01:48:40.000    455571.3110   3639410.9400   5200658.7824   1   7   0.0123   0.0258   0.0225   0.0060   0.0110   0.0088  10.00    5.2
2021/04/08 01:48:43.000    455571.3099   3639410.9388   5200658.7823   1   7   0.0147   0.0312   0.0270   0.0064   0.0129   0.0106  13.00    5.2
2021/04/08 01:48:45.000    455571.3087   3639410.9413   5200658.7810   1   7   0.0163   0.0350   0.0302   0.0067   0.0143   0.0118  15.00    5.2
2021/04/08 01:48:48.000    455571.3090   3639410.9374   5200658.7734   1   7   0.0189   0.0407   0.0351   0.0071   0.0165   0.0136  18.00    5.2
2021/04/08 01:48:51.000    455571.3098   3639410.9400   5200658.7737   1   7   0.0215   0.0466   0.0401   0.0075   0.0187   0.0155  21.00    5.2
2021/04/08 01:48:54.000    455571.3086   3639410.9405   5200658.7704   1   7   0.0241   0.0525   0.0452   0.0080   0.0210   0.0175  24.00    5.2
2021/04/08 01:48:56.000    455571.3058   3639410.9415   5200658.7692   1   7   0.0259   0.0565   0.0486   0.0083   0.0226   0.0188  26.00    5.3
2021/04/08 01:49:00.000    455571.3131   3639410.9534   5200658.8004   1   7   0.0066   0.0130   0.0133   0.0048   0.0071   0.0046   0.00    5.3
2021/04/08 01:49:02.000    455571.3134   3639410.9497   5200658.7979   1   7   0.0071   0.0140   0.0139   0.0050   0.0073   0.0050   2.00    5.4
2021/04/08 01:49:03.000    455571.3120   3639410.9506   5200658.7976   1   7   0.0076   0.0150   0.0144   0.0052   0.0076   0.0054   3.00    5.4
2021/04/08 01:49:05.000    455571.3117   3639410.9454   5200658.7964   1   7   0.0087   0.0177   0.0162   0.0055   0.0083   0.0062   5.00    5.4
2021/04/08 01:49:07.000    455571.3132   3639410.9458   5200658.7958   1   7   0.0101   0.0208   0.0185   0.0057   0.0092   0.0072   7.00    5.5
