% program   : rnx2rtkp ver.2.4.3 b33
% inp file  : /home/danisimo/post/R1_193.2020-111.2021/R00120118.20o
% inp file  : /home/danisimo/post/NSK1_193.2020-111.2021/NSK12010.20o
% inp file  : /home/danisimo/post/NSK1_193.2020-111.2021/NSK12010.20N
% obs start : 2020/07/19 00:00:06.5 GPST (week2115      6.5s)
% obs end   : 2020/07/19 12:26:05.0 GPST (week2115  44765.0s)
% ref pos   :   447670.3040   3638117.3850   5202281.5640
%
% (x/y/z-ecef=WGS84,Q=1:fix,2:float,3:sbas,4:dgps,5:single,6:ppp,ns=# of satellites)
%  GPST                      x-ecef(m)      y-ecef(m)      z-ecef(m)   Q  ns   sdx(m)   sdy(m)   sdz(m)  sdxy(m)  sdyz(m)  sdzx(m) age(s)  ratio
2020/07/19 01:14:43.364    455571.6589   3639412.3655   5200660.3320   2   9   0.5503   1.0984   1.1638   0.3043   0.8501   0.4613  13.40    0.0
2020/07/19 01:14:45.999    455571.6433   3639412.1715   5200660.3571   2   9   0.3917   0.7821   0.8280   0.2139   0.6042   0.3278  16.00    0.0
2020/07/19 01:14:47.499    455571.6210   3639412.2065   5200660.4077   2   9   0.3207   0.6403   0.6777   0.1744   0.4944   0.2682  17.50    0.0
2020/07/19 01:14:53.499    455571.6501   3639412.1505   5200660.3061   2   9   0.2784   0.5557   0.5879   0.1508   0.4288   0.2327  23.50    0.0
2020/07/19 01:15:02.000    455572.4026   3639411.4494   5200659.9784   2   9   0.5507   1.0977   1.1627   0.3013   0.8481   0.4621   2.00    1.5
2020/07/19 01:15:05.000    455572.4429   3639411.3489   5200660.0978   2   9   0.3918   0.7812   0.8262   0.2112   0.6022   0.3279   5.00    1.3
2020/07/19 01:15:09.000    455572.4198   3639411.3483   5200660.1480   2   9   0.3206   0.6391   0.6750   0.1716   0.4919   0.2679   9.00    1.2
2020/07/19 01:15:14.000    455572.4106   3639411.3457   5200660.1783   2   9   0.2781   0.5541   0.5845   0.1480   0.4259   0.2320  14.00    1.1
2020/07/19 01:15:16.000    455572.3919   3639411.2471   5200660.1175   2   9   0.2491   0.4962   0.5230   0.1323   0.3811   0.2076  16.00    1.1
2020/07/19 01:15:19.000    455572.3596   3639411.2407   5200660.1485   2   9   0.2277   0.4535   0.4777   0.1208   0.3481   0.1897  19.00    1.0
2020/07/19 01:15:20.000    455572.3411   3639411.1963   5200660.1394   2   9   0.2111   0.4204   0.4426   0.1119   0.3225   0.1758  20.00    1.1
2020/07/19 01:15:26.000    455572.3410   3639411.1785   5200660.1143   2   9   0.1982   0.3943   0.4150   0.1052   0.3025   0.1650  26.00    1.1
2020/07/19 01:15:28.000    455572.3237   3639411.1234   5200660.0905   2   9   0.1873   0.3726   0.3920   0.0996   0.2858   0.1560  28.00    1.1
2020/07/19 01:15:31.000    455572.2710   3639411.0655   5200659.9907   2   9   0.1758   0.3493   0.3608   0.0903   0.2643   0.1432   1.00    1.2
2020/07/19 01:15:32.000    455572.2324   3639411.0402   5200659.9177   2   9   0.1675   0.3326   0.3410   0.0852   0.2504   0.1353   2.00    1.3
2020/07/19 01:15:33.000    455572.2068   3639411.0532   5200659.8879   2   9   0.1603   0.3183   0.3252   0.0812   0.2390   0.1290   3.00    1.4
2020/07/19 01:15:40.000    455572.1584   3639411.0107   5200659.8326   2   9   0.1542   0.3060   0.3125   0.0779   0.2297   0.1240  10.00    1.4
2020/07/19 01:15:46.000    455572.1102   3639410.9306   5200659.7557   2   9   0.1491   0.2957   0.3020   0.0754   0.2219   0.1199  16.00    1.5
2020/07/19 01:15:48.000    455572.0693   3639410.8934   5200659.6972   2   9   0.1443   0.2861   0.2924   0.0731   0.2148   0.1162  18.00    1.5
2020/07/19 01:15:50.000    455572.0349   3639410.8661   5200659.6411   2   9   0.1400   0.2776   0.2838   0.0712   0.2085   0.1129  20.00    1.5
2020/07/19 01:15:53.000    455572.0142   3639410.8638   5200659.6239   2   9   0.1363   0.2702   0.2764   0.0696   0.2031   0.1101  23.00    1.5
2020/07/19 01:15:56.000    455572.0054   3639410.8507   5200659.6220   2   9   0.1331   0.2636   0.2700   0.0684   0.1984   0.1077  26.00    1.5
2020/07/19 01:15:59.000    455571.9877   3639410.8309   5200659.6009   2   9   0.1302   0.2578   0.2643   0.0675   0.1942   0.1056  29.00    1.5
2020/07/19 01:16:01.000    455571.9651   3639410.8266   5200659.5737   2   9   0.1239   0.2451   0.2445   0.0600   0.1808   0.0971   1.00    1.7
2020/07/19 01:16:03.000    455571.9445   3639410.8189   5200659.5465   2   9   0.1207   0.2385   0.2346   0.0574   0.1743   0.0931   3.00    1.9
2020/07/19 01:16:06.000    455571.9223   3639410.8251   5200659.5238   2   9   0.1179   0.2329   0.2276   0.0556   0.1694   0.0903   6.00    1.9
2020/07/19 01:16:09.000    455571.9118   3639410.8445   5200659.5188   2   9   0.1155   0.2279   0.2221   0.0543   0.1655   0.0881   9.00    1.8
2020/07/19 01:16:14.000    455571.9013   3639410.8665   5200659.5200   2   9   0.1135   0.2239   0.2182   0.0536   0.1626   0.0866  14.00    1.7
2020/07/19 01:16:16.000    455571.8972   3639410.9074   5200659.5309   2   9   0.1114   0.2198   0.2144   0.0528   0.1598   0.0852  16.00    1.6
2020/07/19 01:16:19.000    455571.8842   3639410.9368   5200659.5358   2   9   0.1097   0.2164   0.2113   0.0524   0.1575   0.0841  19.00    1.6
2020/07/19 01:16:22.000    455571.8682   3639410.9559   5200659.5520   2   9   0.1082   0.2134   0.2087   0.0522   0.1555   0.0832  22.00    1.5
2020/07/19 01:16:25.000    455571.8553   3639410.9832   5200659.5544   2   9   0.1070   0.2108   0.2066   0.0522   0.1539   0.0825  25.00    1.5
2020/07/19 01:16:27.000    455571.8395   3639411.0155   5200659.5556   2   9   0.1056   0.2081   0.2043   0.0521   0.1523   0.0818  27.00    1.4
2020/07/19 01:16:29.000    455571.8279   3639411.0373   5200659.5537   2   9   0.1045   0.2057   0.2024   0.0521   0.1508   0.0812  29.00    1.4
2020/07/19 01:16:32.000    455571.8090   3639411.0592   5200659.5070   2   9   0.0990   0.1948   0.1850   0.0442   0.1389   0.0735   2.00    1.5
2020/07/19 01:16:35.000    455571.7895   3639411.0800   5200659.4933   2   9   0.0974   0.1914   0.1793   0.0427   0.1352   0.0711   5.00    1.5
2020/07/19 01:16:38.000    455571.7699   3639411.0971   5200659.4802   2   9   0.0960   0.1885   0.1755   0.0418   0.1327   0.0695   8.00    1.4
2020/07/19 01:16:40.000    455571.7604   3639411.1084   5200659.4772   2   9   0.0947   0.1859   0.1724   0.0412   0.1305   0.0684  10.00    1.4
2020/07/19 01:16:42.000    455571.7477   3639411.1237   5200659.4807   2   9   0.0935   0.1836   0.1700   0.0408   0.1288   0.0674  12.00    1.4
2020/07/19 01:16:45.000    455571.7322   3639411.1239   5200659.4805   2   9   0.0926   0.1817   0.1684   0.0407   0.1276   0.0669  15.00    1.3
2020/07/19 01:16:55.000    455571.7202   3639411.1401   5200659.4753   2   9   0.0932   0.1827   0.1707   0.0431   0.1294   0.0683  25.00    1.3
2020/07/19 01:16:58.000    455571.7116   3639411.1551   5200659.4788   2   9   0.0928   0.1819   0.1705   0.0438   0.1292   0.0685  28.00    1.3
2020/07/19 01:17:01.000    455571.6943   3639411.1294   5200659.4137   2   9   0.0877   0.1714   0.1528   0.0353   0.1173   0.0605   1.00    1.3
2020/07/19 01:17:02.000    455571.6842   3639411.1275   5200659.3912   2   9   0.0863   0.1686   0.1465   0.0337   0.1136   0.0578   2.00    1.4
2020/07/19 01:17:07.000    455571.6768   3639411.1512   5200659.3843   2   9   0.0853   0.1667   0.1437   0.0330   0.1118   0.0567   7.00    1.4
2020/07/19 01:17:10.000    455571.6752   3639411.1774   5200659.3897   2   9   0.0845   0.1651   0.1419   0.0328   0.1106   0.0560  10.00    1.4
2020/07/19 01:17:13.000    455571.6718   3639411.1900   5200659.3885   2   9   0.0839   0.1638   0.1409   0.0329   0.1098   0.0557  13.00    1.4
2020/07/19 01:17:17.000    455571.6677   3639411.2053   5200659.3868   2   9   0.0836   0.1631   0.1409   0.0336   0.1098   0.0559  17.00    1.4
2020/07/19 01:17:20.000    455571.6676   3639411.2278   5200659.3992   2   9   0.0833   0.1625   0.1410   0.0343   0.1098   0.0561  20.00    1.4
2020/07/19 01:17:23.000    455571.6609   3639411.2430   5200659.4070   2   9   0.0831   0.1621   0.1415   0.0352   0.1101   0.0565  23.00    1.4
2020/07/19 01:17:25.000    455571.6583   3639411.2458   5200659.4047   2   9   0.0828   0.1614   0.1416   0.0358   0.1101   0.0567  25.00    1.4
2020/07/19 01:17:26.000    455571.6504   3639411.2482   5200659.4020   2   9   0.0823   0.1604   0.1412   0.0360   0.1097   0.0567  26.00    1.5
2020/07/19 01:17:29.000    455571.6431   3639411.2630   5200659.4137   2   9   0.0825   0.1606   0.1424   0.0372   0.1105   0.0574  29.00    1.5
2020/07/19 01:17:37.000    455571.6269   3639411.2374   5200659.3612   2   9   0.0773   0.1504   0.1276   0.0284   0.0996   0.0505   7.00    1.5
2020/07/19 01:17:46.000    455571.6234   3639411.2346   5200659.3397   2   9   0.0777   0.1511   0.1289   0.0299   0.1007   0.0512  16.00    1.5
2020/07/19 01:17:51.000    455571.6226   3639411.2341   5200659.3314   2   9   0.0780   0.1516   0.1303   0.0314   0.1017   0.0520  21.00    1.5
2020/07/19 01:17:53.000    455571.6152   3639411.2316   5200659.3187   2   9   0.0778   0.1512   0.1304   0.0321   0.1017   0.0522  23.00    1.5
2020/07/19 01:17:56.000    455571.6091   3639411.2392   5200659.3108   2   9   0.0779   0.1514   0.1315   0.0332   0.1025   0.0529  26.00    1.5
2020/07/19 01:17:59.000    455571.5983   3639411.2432   5200659.2971   2   9   0.0782   0.1519   0.1329   0.0346   0.1035   0.0538  29.00    1.5
2020/07/19 01:18:05.000    455571.5788   3639411.2411   5200659.2632   2   9   0.0727   0.1409   0.1152   0.0244   0.0911   0.0456   5.00    1.6
2020/07/19 01:18:08.000    455571.5662   3639411.2393   5200659.2413   2   9   0.0722   0.1398   0.1128   0.0239   0.0898   0.0445   8.00    1.7
2020/07/19 01:18:12.000    455571.5581   3639411.2466   5200659.2203   2   9   0.0720   0.1393   0.1122   0.0243   0.0895   0.0443  12.00    1.7
2020/07/19 01:18:15.000    455571.5510   3639411.2516   5200659.2081   2   9   0.0718   0.1390   0.1121   0.0250   0.0895   0.0444  15.00    1.8
2020/07/19 01:18:18.000    455571.5408   3639411.2615   5200659.1950   2   9   0.0718   0.1390   0.1126   0.0259   0.0899   0.0448  18.00    1.8
2020/07/19 01:18:22.000    455571.5277   3639411.2708   5200659.1831   2   9   0.0723   0.1397   0.1144   0.0275   0.0911   0.0458  22.00    1.8
2020/07/19 01:18:25.000    455571.5153   3639411.2809   5200659.1748   2   9   0.0726   0.1403   0.1159   0.0289   0.0922   0.0467  25.00    1.9
2020/07/19 01:18:28.000    455571.5101   3639411.2914   5200659.1644   2   9   0.0730   0.1411   0.1178   0.0304   0.0935   0.0477  28.00    1.9
2020/07/19 01:18:29.000    455571.5066   3639411.3008   5200659.1538   2   9   0.0729   0.1408   0.1180   0.0309   0.0936   0.0479  29.00    1.9
2020/07/19 01:18:32.000    455571.5189   3639411.3360   5200659.1744   2   9   0.0669   0.1289   0.0973   0.0189   0.0797   0.0383   2.00    2.0
2020/07/19 01:18:35.000    455571.5098   3639411.3400   5200659.1540   2   9   0.0663   0.1277   0.0943   0.0181   0.0781   0.0369   5.00    2.0
2020/07/19 01:18:40.000    455571.5098   3639411.3455   5200659.1492   2   9   0.0663   0.1276   0.0943   0.0188   0.0782   0.0369  10.00    2.0
2020/07/19 01:18:43.000    455571.5049   3639411.3469   5200659.1415   2   9   0.0662   0.1274   0.0945   0.0195   0.0784   0.0371  13.00    1.9
2020/07/19 01:18:47.000    455571.4991   3639411.3437   5200659.1381   2   9   0.0665   0.1280   0.0961   0.0211   0.0794   0.0380  17.00    1.9
2020/07/19 01:18:50.000    455571.4936   3639411.3480   5200659.1369   2   9   0.0668   0.1285   0.0976   0.0225   0.0804   0.0389  20.00    1.9
2020/07/19 01:18:53.000    455571.4886   3639411.3571   5200659.1386   2   9   0.0672   0.1293   0.0995   0.0241   0.0817   0.0399  23.00    1.9
2020/07/19 01:18:55.000    455571.4861   3639411.3697   5200659.1434   2   9   0.0674   0.1297   0.1008   0.0252   0.0826   0.0406  25.00    1.9
2020/07/19 01:19:03.000    455571.4914   3639411.3814   5200659.1579   2   9   0.0627   0.1201   0.0840   0.0144   0.0713   0.0328   3.00    2.0
2020/07/19 01:19:06.000    455571.4966   3639411.3853   5200659.1591   2   9   0.0623   0.1193   0.0824   0.0142   0.0705   0.0320   6.00    2.0
2020/07/19 01:19:08.000    455571.5021   3639411.3840   5200659.1559   2   9   0.0620   0.1187   0.0815   0.0143   0.0700   0.0317   8.00    2.0
2020/07/19 01:19:10.000    455571.5077   3639411.3789   5200659.1466   2   9   0.0618   0.1183   0.0812   0.0147   0.0699   0.0316  10.00    1.9
2020/07/19 01:19:11.000    455571.5128   3639411.3756   5200659.1438   2   9   0.0616   0.1178   0.0808   0.0149   0.0695   0.0315  11.00    1.9
2020/07/19 01:19:14.000    455571.5159   3639411.3717   5200659.1376   2   9   0.0617   0.1180   0.0818   0.0162   0.0702   0.0321  14.00    1.9
2020/07/19 01:19:17.000    455571.5180   3639411.3757   5200659.1348   2   9   0.0620   0.1186   0.0834   0.0177   0.0712   0.0329  17.00    1.9
2020/07/19 01:19:19.000    455571.5223   3639411.3758   5200659.1329   2   9   0.0621   0.1188   0.0846   0.0188   0.0719   0.0336  19.00    1.9
2020/07/19 01:19:21.000    455571.5272   3639411.3794   5200659.1346   2   9   0.0623   0.1193   0.0860   0.0200   0.0728   0.0343  21.00    1.8
2020/07/19 01:19:27.000    455571.5266   3639411.3706   5200659.1255   2   9   0.0640   0.1224   0.0917   0.0239   0.0767   0.0373  27.00    1.8
2020/07/19 01:19:30.000    455571.5115   3639411.3737   5200659.1212   2   9   0.0583   0.1109   0.0714   0.0098   0.0633   0.0276   0.00    1.9
2020/07/19 01:19:32.000    455571.5051   3639411.3619   5200659.1057   2   9   0.0578   0.1099   0.0689   0.0090   0.0621   0.0264   2.00    2.1
2020/07/19 01:19:34.000    455571.5018   3639411.3579   5200659.0957   2   9   0.0574   0.1091   0.0676   0.0088   0.0614   0.0258   4.00    2.2
2020/07/19 01:19:37.000    455571.5016   3639411.3540   5200659.0943   2   9   0.0573   0.1089   0.0676   0.0095   0.0615   0.0258   7.00    2.2
2020/07/19 01:19:40.000    455571.5026   3639411.3514   5200659.0903   2   9   0.0573   0.1090   0.0684   0.0107   0.0619   0.0263  10.00    2.3
2020/07/19 01:19:43.000    455571.5027   3639411.3440   5200659.0852   2   9   0.0575   0.1094   0.0699   0.0124   0.0628   0.0270  13.00    2.3
2020/07/19 01:19:47.000    455571.5050   3639411.3457   5200659.0884   2   9   0.0581   0.1105   0.0727   0.0150   0.0645   0.0285  17.00    2.3
2020/07/19 01:19:56.000    455571.5084   3639411.3520   5200659.0939   2   9   0.0607   0.1154   0.0819   0.0213   0.0706   0.0332  26.00    2.3
2020/07/19 01:19:58.000    455571.5094   3639411.3518   5200659.0906   2   9   0.0612   0.1164   0.0842   0.0228   0.0720   0.0343  28.00    2.3
2020/07/19 01:20:00.000    455571.4954   3639411.3630   5200659.0747   2   9   0.0549   0.1038   0.0615   0.0052   0.0572   0.0234   0.00    2.5
2020/07/19 01:20:01.000    455571.5008   3639411.3638   5200659.0702   2   9   0.0545   0.1029   0.0597   0.0044   0.0563   0.0225   1.00    2.6
2020/07/19 01:20:02.000    455571.5062   3639411.3678   5200659.0715   2   9   0.0541   0.1020   0.0583   0.0039   0.0556   0.0219   2.00    2.7
2020/07/19 01:20:08.000    455571.5144   3639411.3690   5200659.0707   2   9   0.0542   0.1024   0.0599   0.0067   0.0565   0.0226   8.00    2.7
2020/07/19 01:20:10.000    455571.5197   3639411.3694   5200659.0748   2   9   0.0542   0.1024   0.0606   0.0080   0.0569   0.0230  10.00    2.7
2020/07/19 01:20:12.000    455571.5213   3639411.3680   5200659.0696   2   9   0.0543   0.1026   0.0617   0.0095   0.0574   0.0236  12.00    2.7
2020/07/19 01:20:15.000    455571.5278   3639411.3608   5200659.0695   2   9   0.0547   0.1034   0.0638   0.0117   0.0587   0.0247  15.00    2.7
2020/07/19 01:20:23.000    455571.5233   3639411.3427   5200659.0621   2   9   0.0568   0.1075   0.0721   0.0178   0.0639   0.0289  23.00    2.7
2020/07/19 01:20:25.000    455571.5270   3639411.3365   5200659.0613   2   9   0.0573   0.1085   0.0744   0.0193   0.0654   0.0301  25.00    2.7
2020/07/19 01:20:31.000    455571.5150   3639411.3420   5200659.0517   2   9   0.0521   0.0977   0.0543  -0.0036   0.0525   0.0204   1.00    3.0
2020/07/19 01:20:32.000    455571.3199   3639410.9556   5200658.8023   1   9   0.0060   0.0117   0.0126   0.0028   0.0088   0.0053   2.00    3.3
2020/07/19 01:20:34.000    455571.3182   3639410.9530   5200658.8033   1   9   0.0071   0.0134   0.0148   0.0041   0.0105   0.0065   4.00    3.5
2020/07/19 01:20:36.000    455571.3166   3639410.9489   5200658.8006   1   9   0.0083   0.0157   0.0176   0.0054   0.0125   0.0079   6.00    3.7
2020/07/19 01:20:38.000    455571.3146   3639410.9464   5200658.8024   1   9   0.0097   0.0185   0.0207   0.0069   0.0149   0.0093   8.00    3.9
2020/07/19 01:20:42.000    455571.3114   3639410.9437   5200658.8019   1   9   0.0129   0.0246   0.0273   0.0099   0.0201   0.0123  12.00    4.0
2020/07/19 01:20:47.000    455571.3105   3639410.9348   5200658.8036   1   9   0.0172   0.0328   0.0361   0.0137   0.0270   0.0162  17.00    4.0
2020/07/19 01:20:49.000    455571.3082   3639410.9317   5200658.8016   1   9   0.0190   0.0362   0.0396   0.0152   0.0298   0.0178  19.00    4.1
2020/07/19 01:20:51.000    455571.3087   3639410.9317   5200658.8069   1   9   0.0207   0.0396   0.0433   0.0167   0.0327   0.0194  21.00    4.2
2020/07/19 01:20:55.000    455571.3102   3639410.9280   5200658.8214   1   8   0.0291   0.0472   0.0693   0.0230   0.0433   0.0357  25.00    5.2
2020/07/19 01:20:57.000    455571.3106   3639410.9282   5200658.8227   1   8   0.0314   0.0508   0.0747   0.0248   0.0466   0.0385  27.00    5.2
2020/07/19 01:21:00.000    455571.3200   3639410.9570   5200658.8007   1   8   0.0059   0.0111   0.0131   0.0026   0.0084   0.0059   0.00    5.5
2020/07/19 01:21:02.000    455571.3192   3639410.9511   5200658.7994   1   8   0.0064   0.0117   0.0143   0.0030   0.0091   0.0066   2.00    5.7
2020/07/19 01:21:04.000    455571.3181   3639410.9466   5200658.7931   1   8   0.0076   0.0134   0.0173   0.0042   0.0109   0.0082   4.00    6.0
2020/07/19 01:21:08.000    455571.3173   3639410.9422   5200658.7874   1   8   0.0110   0.0186   0.0259   0.0077   0.0160   0.0129   8.00    6.1
2020/07/19 01:21:13.000    455571.3125   3639410.9379   5200658.7763   1   8   0.0161   0.0264   0.0381   0.0120   0.0236   0.0194  13.00    6.2
2020/07/19 01:21:15.000    455571.3135   3639410.9352   5200658.7746   1   8   0.0182   0.0298   0.0432   0.0138   0.0268   0.0221  15.00    6.2
2020/07/19 01:21:17.000    455571.3124   3639410.9338   5200658.7718   1   8   0.0204   0.0332   0.0484   0.0156   0.0301   0.0248  17.00    6.2
2020/07/19 01:21:23.000    455571.3239   3639410.9491   5200658.7910   1   8   0.0269   0.0436   0.0641   0.0211   0.0399   0.0330  23.00    6.2
2020/07/19 01:21:26.000    455571.3273   3639410.9532   5200658.7925   1   8   0.0303   0.0489   0.0721   0.0238   0.0449   0.0372  26.00    6.2
2020/07/19 01:21:30.000    455571.3203   3639410.9610   5200658.8057   1   8   0.0060   0.0111   0.0131   0.0020   0.0084   0.0059   0.00    6.3
2020/07/19 01:21:39.000    455571.3218   3639410.9508   5200658.7885   1   8   0.0120   0.0200   0.0282   0.0085   0.0174   0.0142   9.00    6.3
2020/07/19 01:21:41.000    455571.3243   3639410.9489   5200658.7890   1   8   0.0140   0.0231   0.0331   0.0102   0.0204   0.0168  11.00    6.2
2020/07/19 01:21:47.000    455571.3234   3639410.9388   5200658.7732   1   8   0.0204   0.0331   0.0484   0.0156   0.0300   0.0248  17.00    6.2
2020/07/19 01:21:49.000    455571.3233   3639410.9319   5200658.7682   1   8   0.0225   0.0365   0.0536   0.0174   0.0332   0.0276  19.00    6.1
2020/07/19 01:21:52.000    455571.3241   3639410.9288   5200658.7651   1   8   0.0258   0.0418   0.0615   0.0201   0.0382   0.0317  22.00    6.1
2020/07/19 01:21:54.000    455571.3251   3639410.9305   5200658.7640   1   8   0.0281   0.0453   0.0668   0.0218   0.0415   0.0345  24.00    6.0
2020/07/19 01:21:56.000    455571.3245   3639410.9247   5200658.7606   1   8   0.0303   0.0488   0.0721   0.0236   0.0448   0.0372  26.00    6.0
2020/07/19 01:22:00.000    455571.3220   3639410.9582   5200658.8052   1   8   0.0060   0.0111   0.0131   0.0023   0.0083   0.0060   0.00    6.0
2020/07/19 01:22:05.000    455571.3191   3639410.9533   5200658.7997   1   8   0.0084   0.0145   0.0192   0.0050   0.0119   0.0093   5.00    5.9
2020/07/19 01:22:07.000    455571.3193   3639410.9530   5200658.8009   1   8   0.0101   0.0171   0.0235   0.0066   0.0145   0.0117   7.00    5.9
2020/07/19 01:22:09.000    455571.3203   3639410.9486   5200658.7991   1   8   0.0120   0.0200   0.0282   0.0084   0.0174   0.0142   9.00    5.8
2020/07/19 01:22:13.000    455571.3197   3639410.9447   5200658.8013   1   8   0.0161   0.0263   0.0381   0.0119   0.0235   0.0194  13.00    5.7
2020/07/19 01:22:15.000    455571.3188   3639410.9442   5200658.8014   1   8   0.0182   0.0297   0.0433   0.0137   0.0267   0.0221  15.00    5.7
2020/07/19 01:22:18.000    455571.3150   3639410.9396   5200658.7903   1   8   0.0215   0.0347   0.0511   0.0164   0.0315   0.0262  18.00    5.6
2020/07/19 01:22:20.000    455571.3136   3639410.9395   5200658.7902   1   8   0.0236   0.0382   0.0563   0.0181   0.0348   0.0290  20.00    5.6
2020/07/19 01:22:26.000    455571.3123   3639410.9419   5200658.7956   1   8   0.0303   0.0487   0.0722   0.0235   0.0446   0.0373  26.00    5.6
2020/07/19 01:22:41.000    455571.3180   3639410.9595   5200658.8033   1   8   0.0140   0.0231   0.0331   0.0100   0.0203   0.0168  11.00    5.6
2020/07/19 01:22:43.000    455571.3199   3639410.9606   5200658.8061   1   8   0.0161   0.0263   0.0381   0.0118   0.0234   0.0195  13.00    5.7
2020/07/19 01:22:53.000    455571.3212   3639410.9624   5200658.8071   1   8   0.0270   0.0433   0.0643   0.0207   0.0396   0.0331  23.00    5.7
2020/07/19 01:22:54.000    455571.3237   3639410.9658   5200658.8115   1   8   0.0281   0.0450   0.0669   0.0216   0.0412   0.0345  24.00    5.8
2020/07/19 01:22:57.000    455571.3290   3639410.9752   5200658.8187   1   8   0.0314   0.0503   0.0749   0.0243   0.0461   0.0387  27.00    5.8
2020/07/19 01:22:59.000    455571.3316   3639410.9835   5200658.8259   1   8   0.0336   0.0538   0.0803   0.0260   0.0494   0.0415  29.00    5.9
2020/07/19 01:23:01.000    455571.3234   3639410.9579   5200658.8046   1   8   0.0064   0.0112   0.0133   0.0022   0.0085   0.0061   1.00    6.0
2020/07/19 01:23:04.000    455571.3266   3639410.9626   5200658.8101   1   8   0.0076   0.0134   0.0173   0.0041   0.0106   0.0083   4.00    6.1
2020/07/19 01:23:13.000    455571.3308   3639410.9821   5200658.8321   1   8   0.0161   0.0262   0.0381   0.0117   0.0233   0.0195  13.00    6.2
2020/07/19 01:23:15.000    455571.3339   3639410.9865   5200658.8389   1   8   0.0182   0.0295   0.0433   0.0135   0.0265   0.0222  15.00    6.2
2020/07/19 01:23:18.000    455571.3333   3639410.9860   5200658.8363   1   8   0.0215   0.0346   0.0511   0.0162   0.0313   0.0263  18.00    6.2
2020/07/19 01:23:25.000    455571.3349   3639410.9944   5200658.8401   1   8   0.0292   0.0467   0.0696   0.0224   0.0427   0.0360  25.00    6.2
2020/07/19 01:23:28.000    455571.3342   3639410.9928   5200658.8387   1   8   0.0325   0.0519   0.0776   0.0250   0.0476   0.0401  28.00    6.2
2020/07/19 01:23:32.000    455571.3180   3639410.9522   5200658.7942   1   8   0.0065   0.0117   0.0142   0.0028   0.0088   0.0066   2.00    6.3
2020/07/19 01:23:35.000    455571.3154   3639410.9488   5200658.7956   1   8   0.0084   0.0145   0.0192   0.0047   0.0117   0.0094   5.00    6.5
2020/07/19 01:23:37.000    455571.3159   3639410.9489   5200658.7957   1   8   0.0101   0.0170   0.0235   0.0065   0.0143   0.0117   7.00    6.5
2020/07/19 01:23:40.000    455571.3138   3639410.9504   5200658.7994   1   8   0.0130   0.0214   0.0306   0.0090   0.0187   0.0155  10.00    6.6
2020/07/19 01:23:41.000    455571.3140   3639410.9491   5200658.7979   1   8   0.0140   0.0230   0.0331   0.0099   0.0202   0.0168  11.00    6.6
2020/07/19 01:23:46.000    455571.3072   3639410.9387   5200658.7874   1   8   0.0193   0.0311   0.0459   0.0143   0.0280   0.0236  16.00    6.6
2020/07/19 01:23:48.000    455571.3035   3639410.9325   5200658.7787   1   8   0.0215   0.0345   0.0511   0.0161   0.0312   0.0263  18.00    6.7
2020/07/19 01:23:51.000    455571.3034   3639410.9287   5200658.7803   1   8   0.0248   0.0396   0.0590   0.0187   0.0361   0.0304  21.00    6.7
2020/07/19 01:23:54.000    455571.3046   3639410.9312   5200658.7861   1   8   0.0281   0.0448   0.0670   0.0213   0.0409   0.0346  24.00    6.8
2020/07/19 01:23:56.000    455571.3059   3639410.9327   5200658.7919   1   8   0.0303   0.0483   0.0723   0.0231   0.0442   0.0374  26.00    6.8
2020/07/19 01:23:59.000    455571.3056   3639410.9356   5200658.7999   1   8   0.0336   0.0536   0.0803   0.0257   0.0491   0.0416  29.00    6.8
2020/07/19 01:24:01.000    455571.3179   3639410.9597   5200658.8053   1   8   0.0063   0.0112   0.0133   0.0020   0.0084   0.0061   1.00    6.9
2020/07/19 01:24:04.000    455571.3189   3639410.9638   5200658.8106   1   8   0.0078   0.0133   0.0172   0.0038   0.0106   0.0083   4.00    7.0
2020/07/19 01:24:07.000    455571.3192   3639410.9699   5200658.8220   1   8   0.0101   0.0170   0.0234   0.0064   0.0142   0.0117   7.00    7.1
2020/07/19 01:24:12.000    455571.3188   3639410.9741   5200658.8292   1   8   0.0151   0.0245   0.0356   0.0107   0.0216   0.0182  12.00    7.2
2020/07/19 01:24:20.000    455571.3128   3639410.9858   5200658.8365   1   8   0.0237   0.0378   0.0564   0.0177   0.0343   0.0291  20.00    7.2
2020/07/19 01:24:21.000    455571.3138   3639410.9828   5200658.8370   1   8   0.0248   0.0395   0.0590   0.0186   0.0359   0.0305  21.00    7.2
2020/07/19 01:24:29.000    455571.3108   3639410.9895   5200658.8403   1   8   0.0336   0.0534   0.0803   0.0256   0.0489   0.0416  29.00    7.3
2020/07/19 01:24:32.000    455571.3181   3639410.9584   5200658.8024   1   8   0.0065   0.0117   0.0141   0.0025   0.0087   0.0067   2.00    7.4
2020/07/19 01:24:34.000    455571.3172   3639410.9557   5200658.7985   1   8   0.0077   0.0133   0.0172   0.0038   0.0105   0.0083   4.00    7.5
2020/07/19 01:24:37.000    455571.3206   3639410.9539   5200658.8022   1   8   0.0101   0.0170   0.0234   0.0063   0.0142   0.0117   7.00    7.5
2020/07/19 01:24:39.000    455571.3233   3639410.9539   5200658.8043   1   8   0.0120   0.0198   0.0281   0.0080   0.0170   0.0142   9.00    7.6
2020/07/19 01:24:42.000    455571.3269   3639410.9517   5200658.8030   1   8   0.0151   0.0245   0.0356   0.0106   0.0215   0.0182  12.00    7.6
2020/07/19 01:24:47.000    455571.3255   3639410.9410   5200658.7834   1   8   0.0204   0.0327   0.0485   0.0150   0.0294   0.0250  17.00    7.7
2020/07/19 01:24:50.000    455571.3243   3639410.9396   5200658.7755   1   8   0.0237   0.0377   0.0564   0.0176   0.0342   0.0291  20.00    7.7
2020/07/19 01:24:52.000    455571.3251   3639410.9370   5200658.7707   1   8   0.0259   0.0412   0.0617   0.0193   0.0374   0.0319  22.00    7.7
2020/07/19 01:24:55.000    455571.3240   3639410.9381   5200658.7679   1   8   0.0292   0.0463   0.0697   0.0219   0.0423   0.0360  25.00    7.8
2020/07/19 01:25:00.000    455571.3178   3639410.9573   5200658.8024   1   8   0.0061   0.0111   0.0129   0.0018   0.0081   0.0058   0.00    8.0
2020/07/19 01:25:11.000    455571.3192   3639410.9521   5200658.8043   1   8   0.0141   0.0228   0.0330   0.0096   0.0199   0.0169  11.00    8.1
2020/07/19 01:25:13.000    455571.3188   3639410.9507   5200658.8034   1   8   0.0161   0.0260   0.0381   0.0114   0.0230   0.0195  13.00    8.2
2020/07/19 01:25:14.000    455571.3192   3639410.9524   5200658.8032   1   8   0.0172   0.0276   0.0406   0.0122   0.0245   0.0209  14.00    8.2
2020/07/19 01:25:16.000    455571.3200   3639410.9488   5200658.8039   1   8   0.0193   0.0309   0.0458   0.0140   0.0277   0.0236  16.00    8.2
2020/07/19 01:25:19.000    455571.3195   3639410.9427   5200658.8021   1   8   0.0226   0.0360   0.0537   0.0166   0.0325   0.0277  19.00    8.2
2020/07/19 01:25:22.000    455571.3216   3639410.9394   5200658.8016   1   8   0.0259   0.0411   0.0617   0.0192   0.0373   0.0319  22.00    8.2
2020/07/19 01:25:24.000    455571.3204   3639410.9375   5200658.8002   1   8   0.0281   0.0445   0.0670   0.0209   0.0405   0.0347  24.00    8.2
2020/07/19 01:25:27.000    455571.3188   3639410.9373   5200658.7981   1   8   0.0314   0.0497   0.0750   0.0235   0.0453   0.0388  27.00    8.2
2020/07/19 01:25:29.000    455571.3195   3639410.9368   5200658.7966   1   8   0.0337   0.0531   0.0803   0.0252   0.0486   0.0416  29.00    8.2
2020/07/19 01:25:32.000    455571.3181   3639410.9600   5200658.8049   1   8   0.0067   0.0117   0.0141   0.0021   0.0087   0.0067   2.00    8.3
2020/07/19 01:25:35.000    455571.3161   3639410.9579   5200658.8002   1   8   0.0085   0.0144   0.0190   0.0044   0.0115   0.0094   5.00    8.4
2020/07/19 01:25:37.000    455571.3165   3639410.9606   5200658.7975   1   8   0.0102   0.0169   0.0234   0.0062   0.0141   0.0117   7.00    8.5
2020/07/19 01:25:40.000    455571.3166   3639410.9575   5200658.7917   1   8   0.0131   0.0212   0.0305   0.0087   0.0183   0.0155  10.00    8.5
2020/07/19 01:25:42.000    455571.3148   3639410.9572   5200658.7893   1   8   0.0151   0.0244   0.0355   0.0104   0.0213   0.0182  12.00    8.5
2020/07/19 01:25:45.000    455571.3120   3639410.9537   5200658.7762   1   8   0.0183   0.0292   0.0432   0.0130   0.0260   0.0222  15.00    8.5
2020/07/19 01:25:48.000    455571.3079   3639410.9468   5200658.7617   1   8   0.0215   0.0342   0.0510   0.0156   0.0307   0.0263  18.00    8.5
2020/07/19 01:25:50.000    455571.3058   3639410.9424   5200658.7556   1   8   0.0237   0.0376   0.0563   0.0173   0.0339   0.0291  20.00    8.5
2020/07/19 01:25:53.000    455571.3038   3639410.9387   5200658.7515   1   8   0.0270   0.0427   0.0643   0.0199   0.0387   0.0333  23.00    8.6
2020/07/19 01:25:55.000    455571.3017   3639410.9358   5200658.7482   1   8   0.0292   0.0461   0.0696   0.0216   0.0419   0.0361  25.00    8.6
2020/07/19 01:25:58.000    455571.3023   3639410.9336   5200658.7478   1   8   0.0325   0.0513   0.0776   0.0242   0.0468   0.0402  28.00    8.6
2020/07/19 01:26:03.000    455571.3155   3639410.9507   5200658.7910   1   8   0.0071   0.0124   0.0154   0.0031   0.0094   0.0075   3.00    8.8
2020/07/19 01:26:05.000    455571.3131   3639410.9459   5200658.7864   1   8   0.0085   0.0144   0.0190   0.0044   0.0114   0.0094   5.00    9.0
2020/07/19 01:26:13.000    455571.3086   3639410.9300   5200658.7712   1   8   0.0161   0.0259   0.0380   0.0112   0.0228   0.0195  13.00    9.1
2020/07/19 01:26:20.000    455571.3027   3639410.9153   5200658.7535   1   8   0.0237   0.0375   0.0563   0.0172   0.0338   0.0291  20.00    9.1
2020/07/19 01:26:22.000    455571.3006   3639410.9150   5200658.7522   1   8   0.0259   0.0409   0.0616   0.0189   0.0370   0.0319  22.00    9.1
2020/07/19 01:26:25.000    455571.2996   3639410.9154   5200658.7509   1   8   0.0292   0.0460   0.0696   0.0215   0.0418   0.0361  25.00    9.1
2020/07/19 01:26:28.000    455571.2979   3639410.9130   5200658.7486   1   8   0.0325   0.0511   0.0776   0.0240   0.0466   0.0402  28.00    9.1
2020/07/19 01:26:33.000    455571.3169   3639410.9573   5200658.8030   1   8   0.0070   0.0124   0.0153   0.0029   0.0093   0.0074   3.00    9.4
2020/07/19 01:26:36.000    455571.3185   3639410.9630   5200658.8105   1   8   0.0093   0.0156   0.0211   0.0052   0.0126   0.0105   6.00    9.6
2020/07/19 01:26:39.000    455571.3176   3639410.9680   5200658.8187   1   8   0.0121   0.0197   0.0280   0.0077   0.0167   0.0143   9.00    9.7
2020/07/19 01:26:41.000    455571.3183   3639410.9713   5200658.8273   1   8   0.0141   0.0227   0.0329   0.0094   0.0196   0.0168  11.00    9.9
2020/07/19 01:26:47.000    455571.3230   3639410.9865   5200658.8530   1   8   0.0204   0.0323   0.0484   0.0145   0.0289   0.0250  17.00    9.9
2020/07/19 01:26:52.000    455571.3346   3639411.0074   5200658.8880   1   8   0.0259   0.0407   0.0616   0.0188   0.0368   0.0319  22.00   10.0
2020/07/19 01:26:56.000    455571.3465   3639411.0260   5200658.9313   1   8   0.0303   0.0476   0.0722   0.0222   0.0432   0.0375  26.00    9.9
2020/07/19 01:26:58.000    455571.3509   3639411.0319   5200658.9506   1   8   0.0325   0.0510   0.0776   0.0239   0.0464   0.0402  28.00    9.9
2020/07/19 01:27:00.000    455571.3189   3639410.9558   5200658.8025   1   8   0.0061   0.0111   0.0128   0.0013   0.0079   0.0060   0.00   10.2
2020/07/19 01:27:02.000    455571.3225   3639410.9593   5200658.8139   1   8   0.0065   0.0116   0.0140   0.0024   0.0085   0.0067   2.00   10.5
2020/07/19 01:27:05.000    455571.3256   3639410.9648   5200658.8270   1   8   0.0085   0.0144   0.0189   0.0043   0.0113   0.0094   5.00   10.6
2020/07/19 01:27:14.000    455571.3286   3639410.9788   5200658.8517   1   8   0.0172   0.0274   0.0405   0.0118   0.0241   0.0209  14.00   10.6
2020/07/19 01:27:17.000    455571.3277   3639410.9743   5200658.8513   1   8   0.0204   0.0323   0.0483   0.0144   0.0288   0.0250  17.00   10.7
2020/07/19 01:27:20.000    455571.3287   3639410.9757   5200658.8479   1   8   0.0237   0.0373   0.0562   0.0169   0.0335   0.0291  20.00   10.7
2020/07/19 01:27:23.000    455571.3294   3639410.9753   5200658.8390   1   8   0.0270   0.0423   0.0642   0.0195   0.0382   0.0333  23.00   10.8
2020/07/19 01:27:25.000    455571.3290   3639410.9755   5200658.8334   1   8   0.0292   0.0457   0.0695   0.0212   0.0414   0.0361  25.00   10.8
2020/07/19 01:27:27.000    455571.3292   3639410.9787   5200658.8300   1   8   0.0314   0.0491   0.0748   0.0228   0.0445   0.0388  27.00   10.9
2020/07/19 01:27:29.000    455571.3304   3639410.9785   5200658.8248   1   8   0.0336   0.0526   0.0802   0.0245   0.0477   0.0416  29.00   10.9
2020/07/19 01:27:33.000    455571.3203   3639410.9598   5200658.8017   1   8   0.0072   0.0124   0.0153   0.0023   0.0093   0.0074   3.00   11.3
2020/07/19 01:27:35.000    455571.3205   3639410.9634   5200658.8022   1   8   0.0085   0.0143   0.0189   0.0041   0.0113   0.0094   5.00   11.7
2020/07/19 01:27:37.000    455571.3201   3639410.9638   5200658.7965   1   8   0.0102   0.0168   0.0232   0.0058   0.0138   0.0117   7.00   12.0
2020/07/19 01:27:39.000    455571.3199   3639410.9629   5200658.7927   1   8   0.0121   0.0196   0.0279   0.0075   0.0165   0.0142   9.00   12.3
2020/07/19 01:27:42.000    455571.3191   3639410.9626   5200658.7864   1   8   0.0151   0.0241   0.0354   0.0100   0.0210   0.0182  12.00   12.5
2020/07/19 01:27:47.000    455571.3163   3639410.9645   5200658.7824   1   8   0.0204   0.0322   0.0483   0.0143   0.0286   0.0250  17.00   12.6
2020/07/19 01:27:50.000    455571.3153   3639410.9639   5200658.7736   1   8   0.0237   0.0372   0.0562   0.0168   0.0333   0.0291  20.00   12.8
2020/07/19 01:27:52.000    455571.3171   3639410.9607   5200658.7732   1   8   0.0259   0.0405   0.0615   0.0185   0.0364   0.0319  22.00   13.0
2020/07/19 01:27:54.000    455571.3168   3639410.9625   5200658.7721   1   8   0.0281   0.0439   0.0668   0.0201   0.0396   0.0346  24.00   13.1
2020/07/19 01:28:00.000    455571.3205   3639410.9595   5200658.8083   1   8   0.0062   0.0111   0.0128   0.0008   0.0078   0.0060   0.00   13.8
2020/07/19 01:28:02.000    455571.3214   3639410.9579   5200658.8103   1   8   0.0065   0.0117   0.0140   0.0017   0.0084   0.0066   2.00   14.5
2020/07/19 01:28:04.000    455571.3208   3639410.9552   5200658.8084   1   8   0.0078   0.0133   0.0170   0.0032   0.0102   0.0083   4.00   15.1
2020/07/19 01:28:06.000    455571.3232   3639410.9551   5200658.8111   1   8   0.0093   0.0155   0.0210   0.0049   0.0124   0.0105   6.00   15.4
2020/07/19 01:28:11.000    455571.3249   3639410.9568   5200658.8133   1   8   0.0141   0.0225   0.0328   0.0091   0.0194   0.0168  11.00   15.7
2020/07/19 01:28:13.000    455571.3241   3639410.9574   5200658.8145   1   8   0.0162   0.0256   0.0379   0.0108   0.0223   0.0195  13.00   15.8
2020/07/19 01:28:15.000    455571.3258   3639410.9581   5200658.8186   1   8   0.0183   0.0288   0.0430   0.0125   0.0254   0.0222  15.00   16.0
2020/07/19 01:28:18.000    455571.3242   3639410.9548   5200658.8192   1   8   0.0215   0.0337   0.0508   0.0150   0.0300   0.0263  18.00   16.1
2020/07/19 01:28:20.000    455571.3228   3639410.9534   5200658.8179   1   8   0.0237   0.0371   0.0561   0.0166   0.0331   0.0291  20.00   16.4
2020/07/19 01:28:22.000    455571.3226   3639410.9514   5200658.8186   1   8   0.0259   0.0404   0.0614   0.0183   0.0363   0.0319  22.00   16.7
2020/07/19 01:28:24.000    455571.3224   3639410.9452   5200658.8164   1   8   0.0281   0.0438   0.0667   0.0200   0.0394   0.0346  24.00   16.9
2020/07/19 01:28:26.000    455571.3226   3639410.9434   5200658.8177   1   8   0.0303   0.0472   0.0720   0.0216   0.0425   0.0374  26.00   17.0
2020/07/19 01:28:29.000    455571.3198   3639410.9410   5200658.8157   1   8   0.0336   0.0523   0.0800   0.0241   0.0473   0.0416  29.00   17.2
2020/07/19 01:28:32.000    455571.3180   3639410.9545   5200658.8056   1   8   0.0066   0.0117   0.0139   0.0016   0.0084   0.0067   2.00   17.6
2020/07/19 01:28:34.000    455571.3161   3639410.9534   5200658.8030   1   8   0.0078   0.0132   0.0169   0.0032   0.0100   0.0084   4.00   18.0
2020/07/19 01:28:37.000    455571.3169   3639410.9528   5200658.8077   1   8   0.0102   0.0168   0.0231   0.0057   0.0136   0.0117   7.00   18.2
2020/07/19 01:28:39.000    455571.3169   3639410.9537   5200658.8111   1   8   0.0121   0.0195   0.0278   0.0073   0.0164   0.0142   9.00   18.3
2020/07/19 01:28:41.000    455571.3188   3639410.9556   5200658.8167   1   8   0.0141   0.0225   0.0328   0.0090   0.0192   0.0168  11.00   18.5
2020/07/19 01:28:47.000    455571.3185   3639410.9527   5200658.8230   1   8   0.0204   0.0320   0.0481   0.0140   0.0283   0.0249  17.00   18.5
2020/07/19 01:28:54.000    455571.3190   3639410.9528   5200658.8359   1   8   0.0281   0.0437   0.0666   0.0198   0.0392   0.0346  24.00   18.5
2020/07/19 01:28:57.000    455571.3198   3639410.9560   5200658.8430   1   8   0.0314   0.0487   0.0746   0.0223   0.0439   0.0388  27.00   18.6
2020/07/19 01:29:06.000    455571.3155   3639410.9571   5200658.8003   1   8   0.0094   0.0155   0.0209   0.0047   0.0123   0.0105   6.00   18.7
2020/07/19 01:29:09.000    455571.3149   3639410.9543   5200658.7987   1   8   0.0121   0.0195   0.0278   0.0072   0.0163   0.0142   9.00   18.9
2020/07/19 01:29:11.000    455571.3140   3639410.9494   5200658.7918   1   8   0.0141   0.0225   0.0327   0.0089   0.0191   0.0168  11.00   19.1
2020/07/19 01:29:13.000    455571.3142   3639410.9473   5200658.7897   1   8   0.0162   0.0255   0.0377   0.0105   0.0221   0.0195  13.00   19.2
2020/07/19 01:29:15.000    455571.3138   3639410.9466   5200658.7877   1   8   0.0183   0.0287   0.0429   0.0122   0.0251   0.0222  15.00   19.3
2020/07/19 01:29:19.000    455571.3117   3639410.9399   5200658.7771   1   8   0.0226   0.0352   0.0533   0.0155   0.0312   0.0277  19.00   19.5
2020/07/19 01:29:21.000    455571.3100   3639410.9422   5200658.7748   1   8   0.0248   0.0385   0.0586   0.0172   0.0343   0.0304  21.00   19.6
2020/07/19 01:29:24.000    455571.3101   3639410.9424   5200658.7767   1   8   0.0281   0.0435   0.0665   0.0196   0.0390   0.0346  24.00   19.7
2020/07/19 01:29:26.000    455571.3077   3639410.9427   5200658.7726   1   8   0.0303   0.0469   0.0718   0.0213   0.0421   0.0374  26.00   19.8
2020/07/19 01:29:30.000    455571.3201   3639410.9529   5200658.8019   1   8   0.0064   0.0111   0.0127  -0.0014   0.0077   0.0061   0.00   20.3
2020/07/19 01:29:32.000    455571.3199   3639410.9562   5200658.8058   1   8   0.0067   0.0117   0.0139   0.0004   0.0083   0.0067   2.00   20.7
2020/07/19 01:29:37.000    455571.3184   3639410.9595   5200658.8125   1   8   0.0102   0.0167   0.0231   0.0055   0.0135   0.0117   7.00   21.0
2020/07/19 01:29:41.000    455571.3172   3639410.9647   5200658.8178   1   8   0.0141   0.0224   0.0326   0.0088   0.0190   0.0168  11.00   21.0
2020/07/19 01:29:43.000    455571.3172   3639410.9626   5200658.8181   1   8   0.0162   0.0255   0.0377   0.0104   0.0220   0.0195  13.00   20.9
2020/07/19 01:29:52.000    455571.3140   3639410.9590   5200658.8111   1   8   0.0259   0.0401   0.0611   0.0178   0.0357   0.0318  22.00   20.9
2020/07/19 01:29:54.000    455571.3117   3639410.9575   5200658.8098   1   8   0.0281   0.0434   0.0664   0.0195   0.0388   0.0345  24.00   20.9
2020/07/19 01:29:57.000    455571.3116   3639410.9611   5200658.8138   1   8   0.0314   0.0484   0.0744   0.0219   0.0434   0.0387  27.00   20.9
2020/07/19 01:29:58.000    455571.3131   3639410.9614   5200658.8169   1   8   0.0325   0.0501   0.0770   0.0227   0.0449   0.0401  28.00   20.9
2020/07/19 01:30:01.000    455571.3195   3639410.9635   5200658.8080   1   8   0.0064   0.0112   0.0130   0.0005   0.0078   0.0062   1.00   21.1
2020/07/19 01:30:09.000    455571.3211   3639410.9581   5200658.8154   1   8   0.0121   0.0194   0.0277   0.0070   0.0161   0.0142   9.00   20.8
2020/07/19 01:30:13.000    455571.3203   3639410.9613   5200658.8171   1   8   0.0162   0.0254   0.0376   0.0103   0.0219   0.0194  13.00   20.6
2020/07/19 01:30:17.000    455571.3191   3639410.9632   5200658.8171   1   8   0.0204   0.0318   0.0479   0.0136   0.0278   0.0249  17.00   20.3
2020/07/19 01:30:19.000    455571.3204   3639410.9612   5200658.8184   1   8   0.0226   0.0350   0.0531   0.0152   0.0309   0.0276  19.00   20.1
2020/07/19 01:30:21.000    455571.3186   3639410.9601   5200658.8143   1   8   0.0248   0.0383   0.0584   0.0168   0.0339   0.0304  21.00   20.0
2020/07/19 01:30:23.000    455571.3176   3639410.9631   5200658.8142   1   8   0.0269   0.0416   0.0637   0.0185   0.0370   0.0331  23.00   19.8
2020/07/19 01:30:26.000    455571.3191   3639410.9636   5200658.8175   1   8   0.0302   0.0466   0.0716   0.0209   0.0416   0.0373  26.00   19.7
2020/07/19 01:30:30.000    455571.3194   3639410.9627   5200658.8041   1   8   0.0063   0.0111   0.0127  -0.0018   0.0076   0.0061   0.00   20.3
2020/07/19 01:30:32.000    455571.3181   3639410.9602   5200658.8055   1   8   0.0068   0.0117   0.0139   0.0008   0.0083   0.0066   2.00   20.8
2020/07/19 01:30:41.000    455571.3177   3639410.9611   5200658.7978   1   8   0.0141   0.0223   0.0325   0.0085   0.0188   0.0168  11.00   21.0
2020/07/19 01:30:43.000    455571.3201   3639410.9587   5200658.7966   1   8   0.0162   0.0254   0.0375   0.0102   0.0217   0.0194  13.00   21.2
2020/07/19 01:30:44.000    455571.3204   3639410.9629   5200658.7999   1   8   0.0172   0.0269   0.0401   0.0110   0.0232   0.0208  14.00   21.3
2020/07/19 01:30:50.000    455571.3242   3639410.9672   5200658.8022   1   8   0.0236   0.0366   0.0557   0.0159   0.0322   0.0289  20.00   21.4
2020/07/19 01:30:52.000    455571.3227   3639410.9703   5200658.8028   1   8   0.0258   0.0399   0.0609   0.0175   0.0353   0.0317  22.00   21.6
2020/07/19 01:30:55.000    455571.3279   3639410.9725   5200658.8126   1   8   0.0291   0.0448   0.0688   0.0199   0.0398   0.0359  25.00   21.7
2020/07/19 01:30:58.000    455571.3288   3639410.9714   5200658.8141   1   8   0.0324   0.0498   0.0768   0.0223   0.0444   0.0400  28.00   21.8
2020/07/19 01:31:01.000    455571.3223   3639410.9606   5200658.8083   1   8   0.0064   0.0113   0.0129  -0.0015   0.0077   0.0062   1.00   22.5
2020/07/19 01:31:03.000    455571.3207   3639410.9584   5200658.8075   1   8   0.0074   0.0124   0.0151   0.0017   0.0089   0.0074   3.00   23.0
2020/07/19 01:31:12.000    455571.3229   3639410.9503   5200658.8111   1   8   0.0151   0.0238   0.0349   0.0092   0.0201   0.0181  12.00   23.0
2020/07/19 01:31:14.000    455571.3227   3639410.9500   5200658.8150   1   8   0.0172   0.0268   0.0400   0.0109   0.0231   0.0207  14.00   23.0
2020/07/19 01:31:17.000    455571.3227   3639410.9506   5200658.8130   1   8   0.0204   0.0316   0.0477   0.0133   0.0275   0.0248  17.00   23.0
2020/07/19 01:31:20.000    455571.3232   3639410.9464   5200658.8125   1   8   0.0236   0.0365   0.0555   0.0157   0.0320   0.0289  20.00   23.1
2020/07/19 01:31:28.000    455571.3212   3639410.9438   5200658.8131   1   8   0.0324   0.0497   0.0766   0.0221   0.0441   0.0399  28.00   23.0
2020/07/19 01:31:29.000    455571.3215   3639410.9457   5200658.8134   1   8   0.0335   0.0514   0.0792   0.0228   0.0457   0.0413  29.00   23.0
2020/07/19 01:31:31.000    455571.3150   3639410.9589   5200658.7979   1   8   0.0065   0.0113   0.0130  -0.0015   0.0077   0.0062   1.00   23.2
2020/07/19 01:31:36.000    455571.3201   3639410.9696   5200658.8093   1   8   0.0094   0.0154   0.0207   0.0042   0.0119   0.0105   6.00   23.3
2020/07/19 01:31:38.000    455571.3218   3639410.9726   5200658.8107   1   8   0.0112   0.0179   0.0252   0.0059   0.0144   0.0129   8.00   23.3
2020/07/19 01:31:40.000    455571.3230   3639410.9718   5200658.8101   1   8   0.0131   0.0207   0.0299   0.0075   0.0172   0.0154  10.00   23.3
2020/07/19 01:31:43.000    455571.3242   3639410.9773   5200658.8129   1   8   0.0162   0.0252   0.0374   0.0100   0.0215   0.0194  13.00   23.3
2020/07/19 01:31:49.000    455571.3250   3639410.9750   5200658.8168   1   8   0.0225   0.0347   0.0528   0.0147   0.0303   0.0275  19.00   23.2
2020/07/19 01:31:54.000    455571.3226   3639410.9773   5200658.8073   1   8   0.0280   0.0429   0.0659   0.0187   0.0378   0.0344  24.00   23.2
2020/07/19 01:31:58.000    455571.3200   3639410.9775   5200658.8017   1   8   0.0324   0.0495   0.0764   0.0218   0.0439   0.0399  28.00   23.1
2020/07/19 01:32:00.000    455571.3128   3639410.9656   5200658.8023   1   8   0.0064   0.0111   0.0126  -0.0015   0.0073   0.0061   0.00   23.6
2020/07/19 01:32:02.000    455571.3141   3639410.9628   5200658.8006   1   8   0.0068   0.0117   0.0137  -0.0011   0.0080   0.0068   2.00   23.9
2020/07/19 01:32:05.000    455571.3156   3639410.9632   5200658.8013   1   8   0.0086   0.0142   0.0186   0.0033   0.0107   0.0093   5.00   24.0
2020/07/19 01:32:06.000    455571.3163   3639410.9608   5200658.8023   1   8   0.0095   0.0154   0.0206   0.0042   0.0118   0.0105   6.00   23.9
2020/07/19 01:32:09.000    455571.3194   3639410.9562   5200658.7982   1   8   0.0122   0.0193   0.0274   0.0066   0.0157   0.0142   9.00   23.6
2020/07/19 01:32:11.000    455571.3220   3639410.9514   5200658.7972   1   8   0.0141   0.0222   0.0323   0.0082   0.0185   0.0167  11.00   23.3
2020/07/19 01:32:13.000    455571.3247   3639410.9485   5200658.7988   1   8   0.0162   0.0252   0.0373   0.0098   0.0213   0.0194  13.00   22.9
2020/07/19 01:32:17.000    455571.3280   3639410.9434   5200658.7984   1   8   0.0204   0.0314   0.0475   0.0130   0.0272   0.0247  17.00   22.6
2020/07/19 01:32:24.000    455571.3360   3639410.9391   5200658.8133   1   8   0.0280   0.0428   0.0658   0.0185   0.0376   0.0343  24.00   22.3
2020/07/19 01:32:26.000    455571.3379   3639410.9399   5200658.8185   1   8   0.0302   0.0461   0.0710   0.0201   0.0406   0.0371  26.00   21.9
2020/07/19 01:32:29.000    455571.3408   3639410.9491   5200658.8316   1   8   0.0335   0.0510   0.0789   0.0224   0.0451   0.0412  29.00   21.5
2020/07/19 01:32:31.000    455571.3158   3639410.9657   5200658.8060   1   8   0.0066   0.0113   0.0129  -0.0018   0.0076   0.0063   1.00   21.7
2020/07/19 01:32:32.000    455571.3180   3639410.9611   5200658.8090   1   8   0.0068   0.0117   0.0138  -0.0005   0.0079   0.0067   2.00   21.8
2020/07/19 01:32:36.000    455571.3211   3639410.9645   5200658.8185   1   8   0.0094   0.0153   0.0206   0.0041   0.0117   0.0105   6.00   21.6
2020/07/19 01:32:40.000    455571.3259   3639410.9642   5200658.8242   1   8   0.0131   0.0207   0.0298   0.0073   0.0170   0.0154  10.00   21.4
2020/07/19 01:32:42.000    455571.3297   3639410.9673   5200658.8332   1   8   0.0152   0.0236   0.0347   0.0089   0.0198   0.0180  12.00   21.1
2020/07/19 01:32:44.000    455571.3313   3639410.9644   5200658.8339   1   8   0.0172   0.0267   0.0397   0.0105   0.0226   0.0207  14.00   20.9
2020/07/19 01:32:51.000    455571.3348   3639410.9639   5200658.8304   1   8   0.0247   0.0378   0.0578   0.0160   0.0329   0.0301  21.00   20.7
2020/07/19 01:32:53.000    455571.3357   3639410.9678   5200658.8357   1   8   0.0269   0.0410   0.0630   0.0175   0.0359   0.0329  23.00   20.6
2020/07/19 01:32:55.000    455571.3367   3639410.9684   5200658.8375   1   8   0.0291   0.0443   0.0682   0.0191   0.0388   0.0356  25.00   20.4
2020/07/19 01:32:57.000    455571.3371   3639410.9691   5200658.8348   1   8   0.0313   0.0476   0.0735   0.0206   0.0418   0.0384  27.00   20.3
2020/07/19 01:33:00.000    455571.3162   3639410.9596   5200658.8067   1   8   0.0065   0.0111   0.0126  -0.0021   0.0074   0.0062   0.00   20.8
2020/07/19 01:33:02.000    455571.3180   3639410.9601   5200658.8055   1   8   0.0069   0.0117   0.0137  -0.0017   0.0080   0.0068   2.00   21.2
2020/07/19 01:33:08.000    455571.3126   3639410.9571   5200658.8051   1   8   0.0112   0.0179   0.0250   0.0055   0.0142   0.0128   8.00   21.3
2020/07/19 01:33:11.000    455571.3112   3639410.9542   5200658.8039   1   8   0.0141   0.0221   0.0321   0.0080   0.0182   0.0167  11.00   21.3
2020/07/19 01:33:13.000    455571.3084   3639410.9607   5200658.8059   1   8   0.0162   0.0251   0.0371   0.0096   0.0210   0.0193  13.00   21.3
2020/07/19 01:33:14.000    455571.3110   3639410.9583   5200658.8046   1   8   0.0172   0.0266   0.0396   0.0103   0.0225   0.0206  14.00   21.2
2020/07/19 01:33:17.000    455571.3063   3639410.9563   5200658.7981   1   8   0.0204   0.0313   0.0473   0.0127   0.0268   0.0246  17.00   21.3
2020/07/19 01:33:22.000    455571.3052   3639410.9558   5200658.7952   1   8   0.0258   0.0393   0.0602   0.0166   0.0341   0.0314  22.00   21.2
2020/07/19 01:33:25.000    455571.3050   3639410.9582   5200658.7961   1   8   0.0290   0.0442   0.0680   0.0189   0.0386   0.0356  25.00   21.0
2020/07/19 01:33:28.000    455571.3027   3639410.9555   5200658.7897   1   8   0.0323   0.0491   0.0759   0.0211   0.0430   0.0397  28.00   20.9
2020/07/19 01:33:30.000    455571.3172   3639410.9656   5200658.8070   1   8   0.0065   0.0111   0.0126  -0.0024   0.0074   0.0061   0.00   21.1
2020/07/19 01:33:32.000    455571.3170   3639410.9621   5200658.8058   1   8   0.0069   0.0117   0.0137  -0.0022   0.0079   0.0067   2.00   21.6
2020/07/19 01:33:34.000    455571.3147   3639410.9668   5200658.8068   1   8   0.0079   0.0132   0.0166   0.0017   0.0095   0.0083   4.00   21.9
2020/07/19 01:33:38.000    455571.3132   3639410.9683   5200658.8102   1   8   0.0112   0.0178   0.0249   0.0054   0.0141   0.0128   8.00   22.0
2020/07/19 01:33:41.000    455571.3114   3639410.9749   5200658.8142   1   8   0.0141   0.0220   0.0321   0.0078   0.0181   0.0166  11.00   22.0
2020/07/19 01:33:43.000    455571.3116   3639410.9769   5200658.8185   1   8   0.0162   0.0250   0.0370   0.0094   0.0209   0.0192  13.00   22.0
2020/07/19 01:33:45.000    455571.3127   3639410.9785   5200658.8234   1   8   0.0183   0.0281   0.0421   0.0110   0.0237   0.0219  15.00   22.0
2020/07/19 01:33:49.000    455571.3131   3639410.9790   5200658.8252   1   8   0.0225   0.0344   0.0523   0.0141   0.0295   0.0273  19.00   22.0
2020/07/19 01:33:52.000    455571.3156   3639410.9779   5200658.8297   1   8   0.0258   0.0392   0.0601   0.0164   0.0339   0.0314  22.00   21.9
2020/07/19 01:33:54.000    455571.3156   3639410.9755   5200658.8303   1   8   0.0279   0.0424   0.0653   0.0179   0.0368   0.0341  24.00   21.9
2020/07/19 01:33:56.000    455571.3141   3639410.9763   5200658.8292   1   8   0.0301   0.0457   0.0705   0.0194   0.0398   0.0368  26.00   21.8
2020/07/19 01:34:00.000    455571.3168   3639410.9642   5200658.8039   1   8   0.0065   0.0112   0.0126  -0.0026   0.0072   0.0061   0.00   22.1
2020/07/19 01:34:03.000    455571.3188   3639410.9583   5200658.8063   1   8   0.0074   0.0124   0.0150  -0.0009   0.0085   0.0075   3.00   22.5
2020/07/19 01:34:11.000    455571.3194   3639410.9549   5200658.7978   1   8   0.0141   0.0220   0.0320   0.0077   0.0180   0.0166  11.00   22.6
2020/07/19 01:34:14.000    455571.3172   3639410.9579   5200658.7974   1   8   0.0172   0.0265   0.0394   0.0100   0.0222   0.0205  14.00   22.6
2020/07/19 01:34:21.000    455571.3214   3639410.9593   5200658.7990   1   8   0.0247   0.0375   0.0573   0.0154   0.0322   0.0300  21.00   22.6
2020/07/19 01:34:24.000    455571.3201   3639410.9589   5200658.7920   1   8   0.0279   0.0423   0.0651   0.0177   0.0366   0.0340  24.00   22.6
2020/07/19 01:34:25.000    455571.3199   3639410.9592   5200658.7914   1   8   0.0290   0.0439   0.0677   0.0184   0.0380   0.0354  25.00   22.5
2020/07/19 01:34:27.000    455571.3216   3639410.9591   5200658.7885   1   8   0.0312   0.0472   0.0729   0.0199   0.0409   0.0381  27.00   22.4
2020/07/19 01:34:30.000    455571.3175   3639410.9628   5200658.8059   1   8   0.0065   0.0111   0.0125  -0.0026   0.0072   0.0062   0.00   22.8
2020/07/19 01:34:33.000    455571.3175   3639410.9593   5200658.8004   1   8   0.0074   0.0123   0.0149  -0.0014   0.0085   0.0074   3.00   23.2
2020/07/19 01:34:35.000    455571.3166   3639410.9594   5200658.7960   1   8   0.0086   0.0142   0.0184   0.0025   0.0103   0.0093   5.00   23.6
2020/07/19 01:34:37.000    455571.3181   3639410.9606   5200658.7955   1   8   0.0104   0.0165   0.0225   0.0043   0.0126   0.0116   7.00   24.0
2020/07/19 01:34:43.000    455571.3175   3639410.9588   5200658.7878   1   8   0.0162   0.0249   0.0368   0.0091   0.0206   0.0192  13.00   24.0
2020/07/19 01:34:51.000    455571.3171   3639410.9647   5200658.7898   1   8   0.0246   0.0373   0.0571   0.0152   0.0320   0.0299  21.00   24.1
2020/07/19 01:34:55.000    455571.3164   3639410.9650   5200658.7873   1   8   0.0290   0.0438   0.0675   0.0182   0.0377   0.0353  25.00   24.2
2020/07/19 01:34:57.000    455571.3150   3639410.9681   5200658.7887   1   8   0.0312   0.0470   0.0726   0.0197   0.0406   0.0380  27.00   24.3
2020/07/19 01:35:00.000    455571.3145   3639410.9591   5200658.7968   1   8   0.0068   0.0112   0.0126  -0.0026   0.0071   0.0061   0.00   24.7
2020/07/19 01:35:03.000    455571.3156   3639410.9598   5200658.7978   1   8   0.0074   0.0123   0.0149  -0.0014   0.0084   0.0075   3.00   25.0
2020/07/19 01:35:05.000    455571.3108   3639410.9545   5200658.7887   1   8   0.0087   0.0142   0.0183   0.0023   0.0102   0.0093   5.00   25.0
2020/07/19 01:35:07.000    455571.3096   3639410.9533   5200658.7873   1   8   0.0104   0.0165   0.0225   0.0042   0.0125   0.0116   7.00   25.0
2020/07/19 01:35:09.000    455571.3069   3639410.9493   5200658.7788   1   8   0.0122   0.0191   0.0270   0.0058   0.0151   0.0140   9.00   24.9
2020/07/19 01:35:11.000    455571.3017   3639410.9480   5200658.7704   1   8   0.0141   0.0219   0.0318   0.0074   0.0177   0.0165  11.00   24.8
2020/07/19 01:35:19.000    455571.2956   3639410.9366   5200658.7615   1   8   0.0225   0.0341   0.0518   0.0135   0.0289   0.0271  19.00   24.8
2020/07/19 01:35:21.000    455571.2923   3639410.9370   5200658.7595   1   8   0.0246   0.0372   0.0570   0.0150   0.0317   0.0298  21.00   24.9
2020/07/19 01:35:23.000    455571.2923   3639410.9341   5200658.7600   1   8   0.0268   0.0404   0.0621   0.0165   0.0346   0.0325  23.00   25.0
2020/07/19 01:35:25.000    455571.2922   3639410.9305   5200658.7615   1   8   0.0290   0.0437   0.0673   0.0180   0.0375   0.0352  25.00   25.1
2020/07/19 01:35:26.000    455571.2910   3639410.9315   5200658.7594   1   8   0.0301   0.0453   0.0698   0.0187   0.0389   0.0366  26.00   25.1
2020/07/19 01:35:28.000    455571.2918   3639410.9350   5200658.7624   1   8   0.0322   0.0485   0.0750   0.0202   0.0418   0.0393  28.00   25.2
2020/07/19 01:35:30.000    455571.3171   3639410.9633   5200658.8072   1   8   0.0065   0.0112   0.0125  -0.0026   0.0071   0.0062   0.00   25.6
2020/07/19 01:35:32.000    455571.3158   3639410.9630   5200658.8114   1   8   0.0070   0.0118   0.0136  -0.0023   0.0077   0.0067   2.00   26.0
2020/07/19 01:35:40.000    455571.3172   3639410.9655   5200658.8258   1   8   0.0132   0.0204   0.0293   0.0065   0.0163   0.0152  10.00   26.1
2020/07/19 01:35:42.000    455571.3198   3639410.9647   5200658.8279   1   8   0.0151   0.0233   0.0341   0.0081   0.0189   0.0178  12.00   26.2
2020/07/19 01:35:47.000    455571.3228   3639410.9614   5200658.8314   1   8   0.0203   0.0309   0.0466   0.0118   0.0258   0.0244  17.00   26.3
2020/07/19 01:35:49.000    455571.3228   3639410.9617   5200658.8315   1   8   0.0225   0.0340   0.0517   0.0133   0.0287   0.0271  19.00   26.4
2020/07/19 01:35:51.000    455571.3219   3639410.9630   5200658.8317   1   8   0.0246   0.0371   0.0568   0.0148   0.0315   0.0297  21.00   26.5
2020/07/19 01:35:53.000    455571.3230   3639410.9573   5200658.8262   1   8   0.0268   0.0403   0.0619   0.0163   0.0343   0.0324  23.00   26.6
2020/07/19 01:35:56.000    455571.3227   3639410.9571   5200658.8238   1   8   0.0300   0.0451   0.0696   0.0184   0.0386   0.0365  26.00   26.7
2020/07/19 01:35:58.000    455571.3226   3639410.9535   5200658.8229   1   8   0.0322   0.0484   0.0748   0.0199   0.0414   0.0392  28.00   26.7
2020/07/19 01:36:01.000    455571.3142   3639410.9582   5200658.8003   1   8   0.0066   0.0114   0.0128  -0.0030   0.0073   0.0062   1.00   27.0
2020/07/19 01:36:05.000    455571.3126   3639410.9510   5200658.7949   1   8   0.0087   0.0142   0.0183   0.0016   0.0102   0.0093   5.00   27.2
2020/07/19 01:36:08.000    455571.3129   3639410.9490   5200658.7901   1   8   0.0113   0.0177   0.0246   0.0048   0.0136   0.0127   8.00   27.3
2020/07/19 01:36:12.000    455571.3099   3639410.9405   5200658.7851   1   8   0.0151   0.0233   0.0340   0.0079   0.0188   0.0178  12.00   27.4
2020/07/19 01:36:13.000    455571.3105   3639410.9408   5200658.7878   1   8   0.0162   0.0247   0.0365   0.0087   0.0201   0.0190  13.00   27.5
2020/07/19 01:36:19.000    455571.3085   3639410.9329   5200658.7807   1   8   0.0224   0.0339   0.0515   0.0131   0.0284   0.0270  19.00   27.5
2020/07/19 01:36:21.000    455571.3090   3639410.9301   5200658.7780   1   8   0.0246   0.0370   0.0566   0.0146   0.0312   0.0297  21.00   27.5
2020/07/19 01:36:23.000    455571.3095   3639410.9260   5200658.7709   1   8   0.0267   0.0402   0.0617   0.0160   0.0341   0.0324  23.00   27.5
2020/07/19 01:36:25.000    455571.3112   3639410.9217   5200658.7700   1   8   0.0289   0.0434   0.0668   0.0175   0.0369   0.0351  25.00   27.5
2020/07/19 01:36:26.000    455571.3104   3639410.9170   5200658.7645   1   8   0.0300   0.0450   0.0694   0.0182   0.0383   0.0364  26.00   27.5
2020/07/19 01:36:29.000    455571.3102   3639410.9146   5200658.7583   1   8   0.0333   0.0498   0.0771   0.0203   0.0425   0.0405  29.00   27.5
2020/07/19 01:36:32.000    455571.3162   3639410.9584   5200658.7996   1   8   0.0071   0.0118   0.0136  -0.0027   0.0075   0.0068   2.00   27.6
2020/07/19 01:36:34.000    455571.3145   3639410.9567   5200658.7940   1   8   0.0081   0.0132   0.0164  -0.0008   0.0090   0.0083   4.00   27.8
2020/07/19 01:36:36.000    455571.3148   3639410.9584   5200658.7937   1   8   0.0096   0.0153   0.0202   0.0027   0.0111   0.0103   6.00   27.9
2020/07/19 01:36:38.000    455571.3166   3639410.9551   5200658.7916   1   8   0.0113   0.0177   0.0245   0.0045   0.0135   0.0127   8.00   27.9
2020/07/19 01:36:41.000    455571.3161   3639410.9552   5200658.7866   1   8   0.0142   0.0218   0.0315   0.0070   0.0173   0.0164  11.00   28.0
2020/07/19 01:36:43.000    455571.3176   3639410.9566   5200658.7904   1   8   0.0161   0.0247   0.0364   0.0085   0.0200   0.0190  13.00   28.0
2020/07/19 01:36:50.000    455571.3183   3639410.9656   5200658.7912   1   8   0.0235   0.0354   0.0539   0.0137   0.0296   0.0282  20.00   28.1
2020/07/19 01:36:53.000    455571.3198   3639410.9685   5200658.7948   1   8   0.0267   0.0401   0.0615   0.0158   0.0338   0.0323  23.00   28.1
2020/07/19 01:36:55.000    455571.3169   3639410.9695   5200658.7885   1   8   0.0289   0.0433   0.0666   0.0172   0.0366   0.0350  25.00   28.0
2020/07/19 01:36:56.000    455571.3182   3639410.9653   5200658.7887   1   8   0.0300   0.0449   0.0691   0.0180   0.0380   0.0363  26.00   28.0
