% program   : rnx2rtkp ver.2.4.3 b33
% inp file  : /home/danisimo/post/R1_193.2020-111.2021/R00110218.21o
% inp file  : /home/danisimo/post/NSK1_193.2020-111.2021/NSK11020.21o
% inp file  : /home/danisimo/post/NSK1_193.2020-111.2021/NSK11020.21N
% obs start : 2021/04/12 01:24:56.5 GPST (week2153  91496.5s)
% obs end   : 2021/04/12 12:05:22.0 GPST (week2153 129922.0s)
% ref pos   :   447670.3040   3638117.3850   5202281.5640
%
% (x/y/z-ecef=WGS84,Q=1:fix,2:float,3:sbas,4:dgps,5:single,6:ppp,ns=# of satellites)
%  GPST                      x-ecef(m)      y-ecef(m)      z-ecef(m)   Q  ns   sdx(m)   sdy(m)   sdz(m)  sdxy(m)  sdyz(m)  sdzx(m) age(s)  ratio
2021/04/12 01:24:56.499    455571.5369   3639411.3380   5200658.7756   2   8   0.6097   0.9767   1.2593   0.2284   0.6127   0.3664  26.50    0.0
2021/04/12 01:25:20.000    455571.7012   3639411.4855   5200659.0761   2   8   0.6099   0.9774   1.2596   0.2293   0.6098   0.3680  20.00    1.0
2021/04/12 01:25:59.000    455571.8338   3639411.3422   5200658.7560   2   8   0.4353   0.6979   0.8900   0.1659   0.4339   0.2579  29.00    1.3
2021/04/12 01:26:00.000    455571.8965   3639411.2860   5200658.8415   2   8   0.3562   0.5708   0.7238   0.1380   0.3557   0.2099   0.00    1.9
2021/04/12 01:26:05.000    455571.9073   3639411.3428   5200658.8203   2   8   0.3090   0.4952   0.6285   0.1202   0.3081   0.1822   5.00    2.6
2021/04/12 01:26:10.000    455571.8961   3639411.9108   5200659.4142   1   8   0.0118   0.0178   0.0229  -0.0043   0.0101   0.0085  10.00    3.2
2021/04/12 01:26:13.000    455571.8977   3639411.9106   5200659.4135   1   8   0.0142   0.0213   0.0277  -0.0057   0.0121   0.0106  13.00    3.1
2021/04/12 01:26:17.000    455571.8979   3639411.9129   5200659.4139   1   8   0.0175   0.0262   0.0345  -0.0074   0.0150   0.0134  17.00    3.3
2021/04/12 01:26:20.000    455571.9001   3639411.9089   5200659.4138   1   8   0.0201   0.0300   0.0398  -0.0087   0.0173   0.0155  20.00    3.3
2021/04/12 01:26:22.000    455571.9673   3639411.3368   5200658.6765   2   8   0.2074   0.3326   0.4228   0.0803   0.2058   0.1229  22.00    2.7
2021/04/12 01:26:25.000    455571.9475   3639411.3264   5200658.6415   2   8   0.1972   0.3162   0.4019   0.0760   0.1955   0.1170  25.00    2.4
2021/04/12 01:26:28.000    455571.9335   3639411.3382   5200658.6643   2   8   0.1886   0.3022   0.3842   0.0723   0.1867   0.1121  28.00    2.5
2021/04/12 01:26:37.000    455571.8960   3639411.3614   5200658.6504   2   8   0.1791   0.2871   0.3613   0.0697   0.1780   0.1048   7.00    2.6
2021/04/12 01:26:40.000    455571.8828   3639411.3932   5200658.6614   2   8   0.1722   0.2758   0.3457   0.0671   0.1714   0.1002  10.00    2.7
2021/04/12 01:26:42.000    455571.8670   3639411.4140   5200658.6488   2   8   0.1661   0.2659   0.3326   0.0648   0.1654   0.0964  12.00    2.7
2021/04/12 01:26:46.000    455571.8407   3639411.4306   5200658.6418   2   8   0.1607   0.2573   0.3215   0.0625   0.1601   0.0932  16.00    2.7
2021/04/12 01:26:49.000    455571.8156   3639411.4467   5200658.6252   2   8   0.1560   0.2495   0.3118   0.0604   0.1552   0.0905  19.00    2.6
2021/04/12 01:26:53.000    455571.7849   3639411.4424   5200658.6083   2   8   0.1518   0.2428   0.3034   0.0583   0.1509   0.0883  23.00    2.3
2021/04/12 01:27:00.000    455571.7775   3639411.4591   5200658.6196   2   8   0.1461   0.2329   0.2835   0.0569   0.1466   0.0822   0.00    2.2
2021/04/12 01:27:07.000    455571.7508   3639411.4646   5200658.6082   2   8   0.1422   0.2266   0.2737   0.0558   0.1432   0.0789   7.00    2.0
2021/04/12 01:27:09.000    455571.7292   3639411.4805   5200658.6037   2   8   0.1387   0.2209   0.2659   0.0546   0.1399   0.0766   9.00    1.9
2021/04/12 01:27:11.000    455571.7094   3639411.5056   5200658.6016   2   8   0.1355   0.2157   0.2593   0.0533   0.1367   0.0747  11.00    1.8
2021/04/12 01:27:15.000    455571.6959   3639411.5256   5200658.6040   2   8   0.1327   0.2112   0.2539   0.0520   0.1338   0.0732  15.00    1.8
2021/04/12 01:27:20.000    455571.6758   3639411.5525   5200658.6193   2   8   0.1304   0.2074   0.2496   0.0505   0.1312   0.0722  20.00    1.8
2021/04/12 01:27:24.000    455571.6659   3639411.5879   5200658.6519   2   8   0.1283   0.2039   0.2459   0.0491   0.1288   0.0714  24.00    1.9
2021/04/12 01:27:32.000    455571.6671   3639411.6013   5200658.6849   2   8   0.1238   0.1962   0.2303   0.0485   0.1254   0.0665   2.00    1.7
2021/04/12 01:27:34.000    455571.6666   3639411.6072   5200658.6932   2   8   0.1213   0.1919   0.2226   0.0480   0.1235   0.0639   4.00    1.7
2021/04/12 01:27:39.000    455571.6612   3639411.6163   5200658.6974   2   8   0.1193   0.1885   0.2178   0.0473   0.1216   0.0624   9.00    1.6
2021/04/12 01:27:40.000    455571.6624   3639411.6267   5200658.6937   2   8   0.1172   0.1851   0.2136   0.0466   0.1195   0.0612  10.00    1.6
2021/04/12 01:27:43.000    455571.6496   3639411.6349   5200658.6889   2   8   0.1154   0.1822   0.2103   0.0458   0.1176   0.0604  13.00    1.6
2021/04/12 01:27:45.000    455571.6382   3639411.6435   5200658.6778   2   8   0.1137   0.1795   0.2073   0.0449   0.1158   0.0596  15.00    1.5
2021/04/12 01:27:50.000    455571.6353   3639411.6474   5200658.6853   2   8   0.1125   0.1776   0.2055   0.0438   0.1144   0.0594  20.00    1.6
2021/04/12 01:27:53.000    455571.6339   3639411.6574   5200658.6988   2   8   0.1113   0.1756   0.2037   0.0428   0.1129   0.0592  23.00    1.6
2021/04/12 01:27:56.000    455571.6354   3639411.6559   5200658.7102   2   8   0.1103   0.1738   0.2022   0.0418   0.1116   0.0591  26.00    1.6
2021/04/12 01:28:01.000    455571.6582   3639411.6194   5200658.7391   2   8   0.1060   0.1666   0.1883   0.0420   0.1083   0.0543   1.00    1.5
2021/04/12 01:28:06.000    455571.6547   3639411.6018   5200658.7313   2   8   0.1046   0.1641   0.1838   0.0418   0.1071   0.0526   6.00    1.4
2021/04/12 01:28:09.000    455571.6487   3639411.5761   5200658.7126   2   8   0.1033   0.1619   0.1807   0.0414   0.1059   0.0517   9.00    1.3
2021/04/12 01:28:11.000    455571.6428   3639411.5424   5200658.6971   2   8   0.1020   0.1599   0.1783   0.0409   0.1046   0.0510  11.00    1.2
2021/04/12 01:28:14.000    455571.6286   3639411.5128   5200658.6821   2   8   0.1010   0.1582   0.1765   0.0402   0.1035   0.0507  14.00    1.1
2021/04/12 01:28:19.000    455571.6229   3639411.4744   5200658.6641   2   8   0.1004   0.1572   0.1759   0.0393   0.1027   0.0508  19.00    1.0
2021/04/12 01:28:22.000    455571.6137   3639411.4532   5200658.6559   2   8   0.0997   0.1560   0.1751   0.0385   0.1017   0.0509  22.00    1.1
2021/04/12 01:28:24.000    455571.6071   3639411.4277   5200658.6503   2   8   0.0989   0.1548   0.1742   0.0378   0.1008   0.0509  24.00    1.2
2021/04/12 01:28:35.000    455571.6224   3639411.3918   5200658.6593   2   8   0.0954   0.1490   0.1638   0.0382   0.0978   0.0470   5.00    1.3
2021/04/12 01:28:40.000    455571.6172   3639411.3651   5200658.6540   2   8   0.0946   0.1475   0.1615   0.0379   0.0971   0.0462  10.00    1.3
2021/04/12 01:28:42.000    455571.6136   3639411.3432   5200658.6575   2   8   0.0937   0.1460   0.1595   0.0375   0.0962   0.0457  12.00    1.4
2021/04/12 01:28:48.000    455571.6032   3639411.3319   5200658.6530   2   8   0.0935   0.1455   0.1595   0.0367   0.0957   0.0460  18.00    1.5
2021/04/12 01:28:53.000    455571.5961   3639411.3192   5200658.6477   2   8   0.0934   0.1453   0.1600   0.0357   0.0953   0.0466  23.00    1.5
2021/04/12 01:28:55.000    455571.5861   3639411.3097   5200658.6528   2   8   0.0929   0.1444   0.1595   0.0351   0.0946   0.0467  25.00    1.6
2021/04/12 01:28:58.000    455571.5735   3639411.2966   5200658.6559   2   8   0.0927   0.1441   0.1598   0.0342   0.0942   0.0472  28.00    1.7
2021/04/12 01:29:03.000    455571.5880   3639411.2913   5200658.7002   2   8   0.0881   0.1364   0.1455   0.0353   0.0906   0.0418   3.00    1.9
2021/04/12 01:29:06.000    455571.5787   3639411.2788   5200658.7042   2   8   0.0873   0.1347   0.1421   0.0353   0.0900   0.0406   6.00    2.0
2021/04/12 01:29:08.000    455571.5681   3639411.2666   5200658.7036   2   8   0.0866   0.1332   0.1398   0.0352   0.0893   0.0399   8.00    2.1
2021/04/12 01:29:12.000    455571.5629   3639411.2516   5200658.6971   2   8   0.0861   0.1324   0.1388   0.0348   0.0888   0.0397  12.00    2.1
2021/04/12 01:29:14.000    455571.5585   3639411.2433   5200658.6923   2   8   0.0856   0.1314   0.1379   0.0345   0.0881   0.0396  14.00    2.2
2021/04/12 01:29:17.000    455571.5587   3639411.2270   5200658.6945   2   8   0.0853   0.1309   0.1377   0.0339   0.0877   0.0398  17.00    2.3
2021/04/12 01:29:27.000    455571.5533   3639411.2047   5200658.6779   2   8   0.0867   0.1329   0.1417   0.0322   0.0884   0.0420  27.00    2.3
2021/04/12 01:29:30.000    455571.5511   3639411.2259   5200658.7599   2   8   0.0821   0.1250   0.1272   0.0331   0.0847   0.0365   0.00    2.6
2021/04/12 01:29:32.000    455571.5480   3639411.2197   5200658.7951   2   8   0.0813   0.1230   0.1229   0.0330   0.0839   0.0350   2.00    2.8
2021/04/12 01:29:35.000    455571.5428   3639411.2165   5200658.8173   2   8   0.0807   0.1217   0.1204   0.0331   0.0833   0.0341   5.00    2.9
2021/04/12 01:29:48.000    455571.3046   3639410.9323   5200658.7599   1   8   0.0184   0.0275   0.0356  -0.0082   0.0153   0.0137  18.00    3.0
2021/04/12 01:29:51.000    455571.3016   3639410.9310   5200658.7543   1   8   0.0209   0.0313   0.0407  -0.0096   0.0176   0.0157  21.00    3.1
2021/04/12 01:29:53.000    455571.2993   3639410.9310   5200658.7503   1   8   0.0227   0.0339   0.0442  -0.0105   0.0191   0.0170  23.00    3.1
2021/04/12 01:29:56.000    455571.2989   3639410.9320   5200658.7484   1   8   0.0253   0.0378   0.0494  -0.0119   0.0214   0.0191  26.00    3.2
2021/04/12 01:29:58.000    455571.2951   3639410.9311   5200658.7485   1   8   0.0271   0.0405   0.0529  -0.0128   0.0230   0.0204  28.00    3.2
2021/04/12 01:30:01.000    455571.3138   3639410.9547   5200658.7869   1   8   0.0063   0.0103   0.0131   0.0024   0.0060   0.0040   1.00    3.6
2021/04/12 01:30:04.000    455571.3103   3639410.9579   5200658.7835   1   8   0.0077   0.0121   0.0150   0.0013   0.0066   0.0051   4.00    3.9
2021/04/12 01:30:06.000    455571.3101   3639410.9537   5200658.7802   1   8   0.0089   0.0138   0.0171  -0.0018   0.0074   0.0062   6.00    4.1
2021/04/12 01:30:09.000    455571.3073   3639410.9571   5200658.7755   1   8   0.0111   0.0169   0.0211  -0.0039   0.0090   0.0079   9.00    4.2
2021/04/12 01:30:11.000    455571.3027   3639410.9553   5200658.7763   1   8   0.0126   0.0191   0.0241  -0.0049   0.0102   0.0091  11.00    4.3
2021/04/12 01:30:14.000    455571.3007   3639410.9547   5200658.7702   1   8   0.0150   0.0226   0.0288  -0.0064   0.0123   0.0110  14.00    4.4
2021/04/12 01:30:17.000    455571.2973   3639410.9562   5200658.7688   1   8   0.0175   0.0263   0.0338  -0.0078   0.0145   0.0129  17.00    4.4
2021/04/12 01:30:19.000    455571.2973   3639410.9584   5200658.7691   1   8   0.0192   0.0288   0.0372  -0.0088   0.0160   0.0143  19.00    4.6
2021/04/12 01:30:24.000    455571.2941   3639410.9589   5200658.7674   1   8   0.0236   0.0352   0.0458  -0.0111   0.0198   0.0176  24.00    4.7
2021/04/12 01:30:27.000    455571.2911   3639410.9564   5200658.7631   1   8   0.0262   0.0391   0.0510  -0.0125   0.0221   0.0196  27.00    4.7
2021/04/12 01:30:30.000    455571.3151   3639410.9564   5200658.7866   1   8   0.0063   0.0102   0.0130   0.0025   0.0059   0.0040   0.00    5.0
2021/04/12 01:30:32.000    455571.3142   3639410.9588   5200658.7849   1   8   0.0067   0.0107   0.0136   0.0024   0.0061   0.0043   2.00    5.4
2021/04/12 01:30:33.000    455571.3142   3639410.9591   5200658.7850   1   8   0.0071   0.0113   0.0142   0.0021   0.0062   0.0047   3.00    5.5
2021/04/12 01:30:35.000    455571.3150   3639410.9622   5200658.7850   1   7   0.0087   0.0175   0.0161   0.0055   0.0085   0.0061   5.00    5.4
2021/04/12 01:30:38.000    455571.3122   3639410.9655   5200658.7824   1   7   0.0108   0.0222   0.0198   0.0060   0.0100   0.0077   8.00    5.4
2021/04/12 01:30:41.000    455571.3129   3639410.9664   5200658.7815   1   7   0.0130   0.0274   0.0241   0.0064   0.0119   0.0095  11.00    5.4
2021/04/12 01:30:43.000    455571.3107   3639410.9677   5200658.7807   1   7   0.0147   0.0310   0.0272   0.0068   0.0133   0.0107  13.00    5.4
2021/04/12 01:30:46.000    455571.3091   3639410.9641   5200658.7779   1   7   0.0172   0.0366   0.0321   0.0074   0.0155   0.0126  16.00    5.3
2021/04/12 01:30:51.000    455571.3091   3639410.9599   5200658.7732   1   7   0.0215   0.0463   0.0405   0.0086   0.0193   0.0158  21.00    5.3
2021/04/12 01:30:56.000    455571.3077   3639410.9560   5200658.7670   1   7   0.0260   0.0562   0.0491   0.0098   0.0233   0.0192  26.00    5.2
2021/04/12 01:31:04.000    455571.3134   3639410.9589   5200658.7856   1   7   0.0080   0.0161   0.0152   0.0054   0.0080   0.0057   4.00    5.5
2021/04/12 01:31:07.000    455571.3158   3639410.9587   5200658.7873   1   7   0.0100   0.0206   0.0185   0.0058   0.0094   0.0071   7.00    5.8
2021/04/12 01:31:18.000    455571.3140   3639410.9530   5200658.7795   1   7   0.0189   0.0405   0.0353   0.0077   0.0169   0.0138  18.00    5.9
2021/04/12 01:31:27.000    455571.3096   3639410.9514   5200658.7752   1   7   0.0269   0.0583   0.0507   0.0098   0.0240   0.0197  27.00    6.0
2021/04/12 01:31:38.000    455571.3067   3639410.9553   5200658.7773   1   7   0.0108   0.0223   0.0198   0.0059   0.0099   0.0077   8.00    6.1
2021/04/12 01:31:39.000    455571.3063   3639410.9554   5200658.7770   1   7   0.0115   0.0240   0.0211   0.0061   0.0105   0.0083   9.00    6.1
2021/04/12 01:31:48.000    455571.2978   3639410.9646   5200658.7711   1   7   0.0189   0.0406   0.0352   0.0076   0.0168   0.0137  18.00    6.1
2021/04/12 01:31:50.000    455571.2950   3639410.9648   5200658.7711   1   7   0.0206   0.0445   0.0386   0.0080   0.0183   0.0150  20.00    6.1
2021/04/12 01:31:58.000    455571.2934   3639410.9709   5200658.7528   1   7   0.0278   0.0605   0.0523   0.0096   0.0247   0.0202  28.00    6.1
2021/04/12 01:32:01.000    455571.3171   3639410.9565   5200658.7910   1   7   0.0068   0.0132   0.0134   0.0049   0.0071   0.0047   1.00    6.1
2021/04/12 01:32:03.000    455571.3138   3639410.9547   5200658.7885   1   7   0.0075   0.0150   0.0144   0.0051   0.0076   0.0053   3.00    6.2
2021/04/12 01:32:05.000    455571.3110   3639410.9514   5200658.7836   1   7   0.0087   0.0176   0.0162   0.0055   0.0083   0.0062   5.00    6.2
2021/04/12 01:32:06.000    455571.3133   3639410.9565   5200658.7838   1   7   0.0094   0.0191   0.0173   0.0057   0.0088   0.0067   6.00    6.2
2021/04/12 01:32:09.000    455571.3064   3639410.9439   5200658.7764   1   7   0.0115   0.0240   0.0211   0.0061   0.0104   0.0083   9.00    6.2
2021/04/12 01:32:12.000    455571.3073   3639410.9475   5200658.7822   1   7   0.0139   0.0294   0.0255   0.0065   0.0124   0.0100  12.00    6.2
2021/04/12 01:32:14.000    455571.3052   3639410.9432   5200658.7793   1   7   0.0155   0.0331   0.0286   0.0068   0.0138   0.0112  14.00    6.2
2021/04/12 01:32:16.000    455571.3033   3639410.9470   5200658.7744   1   7   0.0172   0.0369   0.0319   0.0071   0.0152   0.0124  16.00    6.1
2021/04/12 01:32:19.000    455571.3008   3639410.9444   5200658.7725   1   7   0.0197   0.0427   0.0368   0.0076   0.0175   0.0143  19.00    6.1
2021/04/12 01:32:22.000    455571.2968   3639410.9409   5200658.7685   1   7   0.0224   0.0486   0.0418   0.0081   0.0198   0.0162  22.00    6.1
2021/04/12 01:32:25.000    455571.2931   3639410.9455   5200658.7645   1   7   0.0250   0.0545   0.0470   0.0087   0.0222   0.0181  25.00    6.0
2021/04/12 01:32:27.000    455571.2899   3639410.9449   5200658.7670   1   7   0.0268   0.0586   0.0504   0.0091   0.0238   0.0194  27.00    6.0
2021/04/12 01:32:29.000    455571.2902   3639410.9446   5200658.7678   1   7   0.0286   0.0626   0.0539   0.0095   0.0254   0.0207  29.00    6.0
2021/04/12 01:32:32.000    455571.3153   3639410.9560   5200658.7981   1   7   0.0071   0.0140   0.0138   0.0050   0.0073   0.0049   2.00    6.2
2021/04/12 01:32:35.000    455571.3135   3639410.9555   5200658.7963   1   7   0.0087   0.0177   0.0162   0.0055   0.0083   0.0062   5.00    6.4
2021/04/12 01:32:40.000    455571.3123   3639410.9559   5200658.7921   1   7   0.0123   0.0259   0.0225   0.0062   0.0110   0.0088  10.00    6.5
2021/04/12 01:32:45.000    455571.3136   3639410.9634   5200658.7942   1   7   0.0163   0.0350   0.0302   0.0068   0.0144   0.0117  15.00    6.5
2021/04/12 01:32:48.000    455571.3106   3639410.9641   5200658.7894   1   7   0.0189   0.0408   0.0350   0.0072   0.0166   0.0136  18.00    6.5
2021/04/12 01:32:51.000    455571.3081   3639410.9629   5200658.7877   1   7   0.0215   0.0467   0.0400   0.0077   0.0189   0.0155  21.00    6.5
2021/04/12 01:32:53.000    455571.3084   3639410.9669   5200658.7857   1   7   0.0232   0.0507   0.0434   0.0080   0.0205   0.0167  23.00    6.6
2021/04/12 01:32:58.000    455571.3065   3639410.9706   5200658.7818   1   7   0.0277   0.0607   0.0520   0.0089   0.0245   0.0199  28.00    6.6
2021/04/12 01:33:04.000    455571.3156   3639410.9569   5200658.7943   1   7   0.0081   0.0163   0.0153   0.0054   0.0078   0.0057   4.00    6.7
2021/04/12 01:33:06.000    455571.3151   3639410.9585   5200658.7967   1   7   0.0094   0.0192   0.0173   0.0057   0.0087   0.0067   6.00    6.9
2021/04/12 01:33:08.000    455571.3159   3639410.9542   5200658.7917   1   7   0.0108   0.0225   0.0198   0.0059   0.0097   0.0077   8.00    7.0
2021/04/12 01:33:10.000    455571.3146   3639410.9560   5200658.7930   1   7   0.0123   0.0259   0.0225   0.0062   0.0109   0.0088  10.00    7.0
2021/04/12 01:33:17.000    455571.3212   3639410.9651   5200658.7925   1   7   0.0180   0.0390   0.0333   0.0070   0.0158   0.0129  17.00    7.1
2021/04/12 01:33:28.000    455571.3212   3639410.9797   5200658.7904   1   7   0.0277   0.0608   0.0518   0.0085   0.0244   0.0198  28.00    7.2
2021/04/12 01:33:30.000    455571.3154   3639410.9592   5200658.7971   1   7   0.0067   0.0131   0.0134   0.0048   0.0070   0.0047   0.00    7.5
2021/04/12 01:33:32.000    455571.3135   3639410.9581   5200658.7983   1   7   0.0071   0.0140   0.0139   0.0051   0.0072   0.0050   2.00    7.8
2021/04/12 01:33:35.000    455571.3134   3639410.9651   5200658.7767   1   7   0.0087   0.0177   0.0162   0.0056   0.0082   0.0062   5.00    8.1
2021/04/12 01:33:38.000    455571.3171   3639410.9759   5200658.7822   1   7   0.0108   0.0225   0.0197   0.0059   0.0097   0.0077   8.00    8.3
2021/04/12 01:33:41.000    455571.3197   3639410.9847   5200658.7863   1   7   0.0131   0.0278   0.0239   0.0062   0.0115   0.0093  11.00    8.6
2021/04/12 01:33:43.000    455571.3188   3639410.9844   5200658.7841   1   7   0.0147   0.0314   0.0269   0.0064   0.0129   0.0105  13.00    8.8
2021/04/12 01:33:45.000    455571.3200   3639410.9923   5200658.7862   1   7   0.0163   0.0352   0.0300   0.0066   0.0143   0.0117  15.00    8.9
2021/04/12 01:33:48.000    455571.3188   3639410.9952   5200658.7871   1   7   0.0188   0.0410   0.0349   0.0069   0.0165   0.0134  18.00    9.1
2021/04/12 01:33:51.000    455571.3188   3639410.9975   5200658.7852   1   7   0.0214   0.0469   0.0398   0.0073   0.0188   0.0153  21.00    9.2
2021/04/12 01:33:58.000    455571.3114   3639410.9948   5200658.7813   1   7   0.0277   0.0609   0.0516   0.0081   0.0243   0.0197  28.00    9.2
2021/04/12 01:34:04.000    455571.3130   3639410.9535   5200658.7965   1   7   0.0081   0.0164   0.0153   0.0054   0.0077   0.0057   4.00    9.1
2021/04/12 01:34:07.000    455571.3090   3639410.9541   5200658.7912   1   7   0.0101   0.0209   0.0185   0.0058   0.0091   0.0072   7.00    9.0
2021/04/12 01:34:09.000    455571.3077   3639410.9516   5200658.7885   1   7   0.0115   0.0243   0.0211   0.0060   0.0102   0.0083   9.00    9.0
2021/04/12 01:34:11.000    455571.3074   3639410.9506   5200658.7853   1   7   0.0131   0.0278   0.0239   0.0062   0.0114   0.0094  11.00    8.9
2021/04/12 01:34:17.000    455571.3001   3639410.9463   5200658.7775   1   7   0.0180   0.0391   0.0332   0.0067   0.0157   0.0128  17.00    8.8
2021/04/12 01:34:20.000    455571.2996   3639410.9457   5200658.7801   1   7   0.0206   0.0450   0.0381   0.0069   0.0179   0.0146  20.00    8.7
2021/04/12 01:34:22.000    455571.2981   3639410.9412   5200658.7776   1   7   0.0223   0.0490   0.0414   0.0071   0.0195   0.0158  22.00    8.6
2021/04/12 01:34:38.000    455571.3073   3639410.9490   5200658.7941   1   7   0.0108   0.0226   0.0198   0.0059   0.0096   0.0077   8.00    8.6
2021/04/12 01:34:45.000    455571.3066   3639410.9491   5200658.7888   1   7   0.0163   0.0354   0.0299   0.0064   0.0141   0.0116  15.00    8.6
2021/04/12 01:34:58.000    455571.3047   3639410.9463   5200658.7792   1   7   0.0276   0.0612   0.0513   0.0072   0.0241   0.0194  28.00    8.6
2021/04/12 01:35:05.000    455571.3118   3639410.9499   5200658.7929   1   7   0.0088   0.0179   0.0163   0.0055   0.0081   0.0063   5.00    8.9
2021/04/12 01:35:12.000    455571.3101   3639410.9490   5200658.7899   1   7   0.0139   0.0298   0.0253   0.0062   0.0120   0.0099  12.00    8.9
2021/04/12 01:35:27.000    455571.3056   3639410.9345   5200658.7718   1   7   0.0267   0.0593   0.0495   0.0067   0.0232   0.0187  27.00    8.9
2021/04/12 01:35:33.000    455571.3105   3639410.9493   5200658.7938   1   7   0.0075   0.0152   0.0147   0.0052   0.0073   0.0055   3.00    9.0
2021/04/12 01:35:56.000    455571.3042   3639410.9026   5200658.7637   1   7   0.0258   0.0574   0.0477   0.0062   0.0223   0.0179  26.00    9.0
2021/04/12 01:36:10.000    455571.3152   3639410.9365   5200658.7892   1   7   0.0123   0.0263   0.0224   0.0060   0.0106   0.0088  10.00    9.1
2021/04/12 01:36:16.000    455571.3146   3639410.9229   5200658.7777   1   7   0.0171   0.0375   0.0313   0.0061   0.0147   0.0120  16.00    9.2
2021/04/12 01:36:22.000    455571.3120   3639410.9136   5200658.7765   1   7   0.0223   0.0494   0.0409   0.0060   0.0192   0.0154  22.00    9.2
2021/04/12 01:36:27.000    455571.3097   3639410.9117   5200658.7729   1   7   0.0267   0.0595   0.0492   0.0057   0.0230   0.0184  27.00    9.3
2021/04/12 01:36:30.000    455571.3142   3639410.9533   5200658.7995   1   7   0.0066   0.0132   0.0137   0.0048   0.0068   0.0048   0.00    9.5
2021/04/12 01:36:34.000    455571.3096   3639410.9491   5200658.7943   1   7   0.0081   0.0165   0.0155   0.0054   0.0076   0.0059   4.00    9.5
2021/04/12 01:36:46.000    455571.2994   3639410.9655   5200658.7922   1   7   0.0171   0.0376   0.0313   0.0060   0.0146   0.0120  16.00    9.5
2021/04/12 01:36:48.000    455571.2990   3639410.9728   5200658.7914   1   7   0.0188   0.0415   0.0344   0.0059   0.0161   0.0131  18.00    9.6
2021/04/12 01:36:51.000    455571.2978   3639410.9764   5200658.7942   1   7   0.0214   0.0475   0.0392   0.0057   0.0183   0.0148  21.00    9.6
2021/04/12 01:37:05.000    455571.3113   3639410.9637   5200658.7913   1   7   0.0088   0.0180   0.0165   0.0056   0.0079   0.0064   5.00    9.7
2021/04/12 01:37:07.000    455571.3116   3639410.9670   5200658.7945   1   7   0.0101   0.0212   0.0186   0.0058   0.0088   0.0073   7.00    9.7
2021/04/12 01:37:11.000    455571.3081   3639410.9730   5200658.7958   1   7   0.0131   0.0283   0.0238   0.0060   0.0111   0.0093  11.00    9.8
2021/04/12 01:37:16.000    455571.3094   3639410.9781   5200658.7932   1   7   0.0172   0.0377   0.0312   0.0059   0.0146   0.0119  16.00    9.8
2021/04/12 01:37:33.000    455571.3147   3639410.9506   5200658.7881   1   6   0.0100   0.0186   0.0179   0.0098   0.0126   0.0098   3.00   13.0
2021/04/12 01:38:02.000    455571.3158   3639410.9476   5200658.7872   1   6   0.0091   0.0170   0.0170   0.0088   0.0116   0.0089   2.00   12.3
2021/04/12 01:38:04.000    455571.3187   3639410.9414   5200658.7866   1   6   0.0111   0.0206   0.0191   0.0109   0.0137   0.0109   4.00   11.4
2021/04/12 01:38:06.000    455571.3190   3639410.9324   5200658.7810   1   6   0.0138   0.0253   0.0222   0.0139   0.0168   0.0135   6.00   10.5
2021/04/12 01:38:20.000    455571.3181   3639410.9165   5200658.7619   1   6   0.0374   0.0665   0.0522   0.0391   0.0454   0.0366  20.00   10.3
2021/04/12 01:38:22.000    455571.3169   3639410.9139   5200658.7610   1   6   0.0410   0.0727   0.0569   0.0429   0.0497   0.0400  22.00   10.2
2021/04/12 01:38:32.000    455571.3178   3639410.9632   5200658.7934   1   6   0.0090   0.0169   0.0170   0.0087   0.0115   0.0088   2.00   10.2
2021/04/12 01:38:45.000    455571.3176   3639410.9490   5200658.7839   1   6   0.0285   0.0510   0.0406   0.0295   0.0345   0.0278  15.00   10.4
2021/04/12 01:38:48.000    455571.3162   3639410.9496   5200658.7786   1   6   0.0337   0.0601   0.0474   0.0351   0.0409   0.0329  18.00   10.5
2021/04/12 01:38:50.000    455571.3156   3639410.9484   5200658.7786   1   6   0.0372   0.0663   0.0520   0.0388   0.0451   0.0363  20.00   10.6
2021/04/12 01:38:57.000    455571.3181   3639410.9586   5200658.7802   1   6   0.0495   0.0881   0.0684   0.0518   0.0602   0.0483  27.00   10.7
2021/04/12 01:38:59.000    455571.3168   3639410.9590   5200658.7776   1   6   0.0530   0.0943   0.0732   0.0555   0.0645   0.0517  29.00   10.8
2021/04/12 01:39:13.000    455571.3136   3639410.9766   5200658.7985   1   6   0.0249   0.0448   0.0360   0.0256   0.0301   0.0243  13.00   10.9
2021/04/12 01:39:22.000    455571.3104   3639410.9781   5200658.7928   1   6   0.0404   0.0723   0.0564   0.0421   0.0491   0.0394  22.00   11.0
2021/04/12 01:39:25.000    455571.3095   3639410.9867   5200658.7952   1   6   0.0457   0.0816   0.0634   0.0477   0.0556   0.0445  25.00   11.1
2021/04/12 01:39:32.000    455571.3182   3639410.9688   5200658.7981   1   6   0.0089   0.0168   0.0171   0.0085   0.0113   0.0088   2.00   11.2
2021/04/12 01:39:39.000    455571.3155   3639410.9809   5200658.8015   1   6   0.0181   0.0331   0.0276   0.0184   0.0219   0.0178   9.00   11.4
2021/04/12 01:39:44.000    455571.3114   3639410.9885   5200658.8006   1   6   0.0264   0.0477   0.0381   0.0272   0.0320   0.0258  14.00   11.5
2021/04/12 01:39:47.000    455571.3111   3639411.0018   5200658.8051   1   6   0.0315   0.0568   0.0448   0.0326   0.0383   0.0307  17.00   11.5
2021/04/12 01:39:57.000    455571.3025   3639411.0260   5200658.8120   1   6   0.0488   0.0876   0.0678   0.0509   0.0595   0.0475  27.00   11.7
2021/04/12 01:40:04.000    455571.3193   3639410.9565   5200658.7943   1   6   0.0108   0.0203   0.0192   0.0105   0.0133   0.0107   4.00   11.8
2021/04/12 01:40:08.000    455571.3192   3639410.9599   5200658.7988   1   6   0.0165   0.0302   0.0257   0.0165   0.0199   0.0161   8.00   11.9
2021/04/12 01:40:10.000    455571.3180   3639410.9606   5200658.7970   1   6   0.0196   0.0358   0.0296   0.0199   0.0237   0.0192  10.00   11.9
2021/04/12 01:40:11.000    455571.3162   3639410.9642   5200658.7948   1   6   0.0213   0.0387   0.0316   0.0216   0.0257   0.0208  11.00   12.0
2021/04/12 01:40:13.000    455571.3161   3639410.9621   5200658.7981   1   6   0.0246   0.0446   0.0358   0.0252   0.0297   0.0240  13.00   12.1
2021/04/12 01:40:16.000    455571.3144   3639410.9657   5200658.7963   1   6   0.0296   0.0536   0.0424   0.0305   0.0359   0.0289  16.00   12.1
2021/04/12 01:40:19.000    455571.3149   3639410.9674   5200658.7961   1   6   0.0347   0.0627   0.0491   0.0359   0.0422   0.0338  19.00   12.1
2021/04/12 01:40:21.000    455571.3119   3639410.9756   5200658.7959   1   6   0.0382   0.0688   0.0537   0.0395   0.0464   0.0372  21.00   12.1
2021/04/12 01:40:23.000    455571.3127   3639410.9772   5200658.7970   1   6   0.0416   0.0750   0.0583   0.0432   0.0507   0.0405  23.00   12.1
2021/04/12 01:40:34.000    455571.3157   3639410.9612   5200658.7974   1   6   0.0108   0.0202   0.0193   0.0104   0.0132   0.0106   4.00   12.3
2021/04/12 01:40:35.000    455571.3155   3639410.9624   5200658.7998   1   6   0.0120   0.0225   0.0206   0.0117   0.0146   0.0119   5.00   12.4
2021/04/12 01:40:38.000    455571.3135   3639410.9633   5200658.7997   1   6   0.0164   0.0302   0.0257   0.0163   0.0197   0.0161   8.00   12.6
2021/04/12 01:40:41.000    455571.3117   3639410.9654   5200658.7982   1   6   0.0211   0.0386   0.0315   0.0214   0.0255   0.0207  11.00   12.6
2021/04/12 01:40:52.000    455571.3084   3639410.9725   5200658.7944   1   6   0.0396   0.0717   0.0557   0.0410   0.0482   0.0385  22.00   12.7
2021/04/12 01:40:58.000    455571.3100   3639410.9809   5200658.7924   1   6   0.0499   0.0902   0.0695   0.0517   0.0609   0.0485  28.00   12.8
2021/04/12 01:41:00.000    455571.3164   3639410.9596   5200658.7986   1   6   0.0080   0.0153   0.0165   0.0075   0.0103   0.0080   0.00   12.6
2021/04/12 01:41:02.000    455571.3174   3639410.9591   5200658.7987   1   6   0.0088   0.0167   0.0173   0.0082   0.0111   0.0087   2.00   12.4
2021/04/12 01:41:06.000    455571.3165   3639410.9579   5200658.8003   1   6   0.0133   0.0248   0.0222   0.0130   0.0161   0.0131   6.00   12.3
2021/04/12 01:41:08.000    455571.3163   3639410.9585   5200658.8019   1   6   0.0163   0.0301   0.0257   0.0162   0.0196   0.0160   8.00   12.3
2021/04/12 01:41:11.000    455571.3158   3639410.9606   5200658.7960   1   6   0.0210   0.0385   0.0315   0.0212   0.0253   0.0205  11.00   12.3
2021/04/12 01:41:14.000    455571.3143   3639410.9584   5200658.7983   1   6   0.0259   0.0473   0.0378   0.0264   0.0314   0.0253  14.00   12.3
2021/04/12 01:41:24.000    455571.3126   3639410.9680   5200658.7942   1   6   0.0428   0.0777   0.0600   0.0441   0.0521   0.0415  24.00   12.4
2021/04/12 01:41:25.000    455571.3122   3639410.9681   5200658.7959   1   6   0.0445   0.0808   0.0623   0.0459   0.0542   0.0432  25.00   12.4
2021/04/12 01:41:26.000    455571.3116   3639410.9687   5200658.7975   1   6   0.0462   0.0838   0.0646   0.0477   0.0563   0.0448  26.00   12.5
2021/04/12 01:41:28.000    455571.3109   3639410.9691   5200658.7915   1   6   0.0496   0.0900   0.0692   0.0512   0.0605   0.0481  28.00   12.6
2021/04/12 01:41:31.000    455571.3138   3639410.9604   5200658.8009   1   6   0.0082   0.0156   0.0168   0.0076   0.0105   0.0081   1.00   12.6
2021/04/12 01:41:36.000    455571.3148   3639410.9643   5200658.8016   1   6   0.0133   0.0247   0.0222   0.0129   0.0160   0.0131   6.00   12.9
2021/04/12 01:41:38.000    455571.3156   3639410.9660   5200658.8023   1   6   0.0162   0.0300   0.0257   0.0160   0.0194   0.0159   8.00   13.0
2021/04/12 01:41:41.000    455571.3143   3639410.9657   5200658.8026   1   6   0.0209   0.0384   0.0314   0.0210   0.0252   0.0204  11.00   13.1
2021/04/12 01:41:42.000    455571.3154   3639410.9665   5200658.8004   1   6   0.0225   0.0413   0.0335   0.0227   0.0271   0.0219  12.00   13.2
2021/04/12 01:41:45.000    455571.3151   3639410.9641   5200658.8000   1   6   0.0274   0.0501   0.0398   0.0279   0.0332   0.0267  15.00   13.3
2021/04/12 01:41:47.000    455571.3143   3639410.9694   5200658.7953   1   6   0.0307   0.0561   0.0441   0.0314   0.0373   0.0299  17.00   13.4
2021/04/12 01:41:50.000    455571.3143   3639410.9695   5200658.7976   1   6   0.0358   0.0652   0.0508   0.0367   0.0435   0.0347  20.00   13.5
2021/04/12 01:41:52.000    455571.3126   3639410.9718   5200658.7951   1   6   0.0391   0.0713   0.0553   0.0402   0.0476   0.0379  22.00   13.6
2021/04/12 01:41:55.000    455571.3114   3639410.9728   5200658.7930   1   6   0.0442   0.0805   0.0621   0.0455   0.0539   0.0428  25.00   13.7
2021/04/12 01:41:57.000    455571.3119   3639410.9764   5200658.7954   1   6   0.0476   0.0867   0.0666   0.0490   0.0581   0.0461  27.00   13.7
2021/04/12 01:42:00.000    455571.3180   3639410.9636   5200658.8040   1   6   0.0080   0.0152   0.0167   0.0073   0.0102   0.0079   0.00   13.8
2021/04/12 01:42:02.000    455571.3170   3639410.9642   5200658.7990   1   6   0.0088   0.0166   0.0174   0.0080   0.0109   0.0087   2.00   13.9
2021/04/12 01:42:04.000    455571.3151   3639410.9672   5200658.8024   1   6   0.0106   0.0200   0.0194   0.0101   0.0129   0.0105   4.00   14.1
2021/04/12 01:42:06.000    455571.3139   3639410.9709   5200658.8017   1   6   0.0132   0.0247   0.0223   0.0128   0.0159   0.0130   6.00   14.2
2021/04/12 01:42:11.000    455571.3112   3639410.9737   5200658.7963   1   6   0.0208   0.0383   0.0314   0.0208   0.0250   0.0203  11.00   14.3
2021/04/12 01:42:13.000    455571.3136   3639410.9767   5200658.8016   1   6   0.0240   0.0441   0.0355   0.0242   0.0289   0.0233  13.00   14.5
2021/04/12 01:42:16.000    455571.3108   3639410.9808   5200658.8014   1   6   0.0289   0.0530   0.0418   0.0294   0.0350   0.0281  16.00   14.6
2021/04/12 01:42:18.000    455571.3081   3639410.9819   5200658.7976   1   6   0.0322   0.0590   0.0462   0.0328   0.0391   0.0312  18.00   14.7
2021/04/12 01:42:19.000    455571.3096   3639410.9836   5200658.8036   1   6   0.0339   0.0620   0.0484   0.0346   0.0412   0.0328  19.00   14.8
2021/04/12 01:42:21.000    455571.3073   3639410.9839   5200658.7962   1   6   0.0372   0.0681   0.0528   0.0381   0.0453   0.0360  21.00   14.9
2021/04/12 01:42:26.000    455571.3033   3639410.9832   5200658.7897   1   6   0.0456   0.0834   0.0641   0.0468   0.0556   0.0441  26.00   15.0
2021/04/12 01:42:28.000    455571.3041   3639410.9826   5200658.7932   1   6   0.0490   0.0895   0.0686   0.0503   0.0598   0.0473  28.00   15.1
2021/04/12 01:42:30.000    455571.3169   3639410.9598   5200658.7990   1   6   0.0079   0.0151   0.0167   0.0072   0.0102   0.0079   0.00   15.2
2021/04/12 01:42:32.000    455571.3166   3639410.9584   5200658.7987   1   6   0.0087   0.0165   0.0175   0.0080   0.0109   0.0087   2.00   15.1
2021/04/12 01:42:34.000    455571.3162   3639410.9554   5200658.7960   1   6   0.0106   0.0200   0.0194   0.0100   0.0128   0.0105   4.00   15.0
2021/04/12 01:42:37.000    455571.3182   3639410.9499   5200658.7943   1   6   0.0146   0.0271   0.0239   0.0141   0.0174   0.0143   7.00   14.8
2021/04/12 01:42:39.000    455571.3196   3639410.9410   5200658.7907   1   6   0.0175   0.0325   0.0275   0.0173   0.0210   0.0172   9.00   14.6
2021/04/12 01:42:46.000    455571.3204   3639410.9248   5200658.7783   1   6   0.0287   0.0528   0.0417   0.0291   0.0348   0.0279  16.00   14.5
2021/04/12 01:42:50.000    455571.3188   3639410.9192   5200658.7747   1   6   0.0353   0.0649   0.0504   0.0359   0.0430   0.0342  20.00   14.4
2021/04/12 01:42:52.000    455571.3200   3639410.9209   5200658.7739   1   6   0.0386   0.0709   0.0548   0.0394   0.0471   0.0374  22.00   14.3
2021/04/12 01:42:54.000    455571.3189   3639410.9235   5200658.7728   1   6   0.0420   0.0770   0.0593   0.0429   0.0512   0.0406  24.00   14.2
2021/04/12 01:42:57.000    455571.3164   3639410.9212   5200658.7764   1   6   0.0470   0.0862   0.0660   0.0480   0.0573   0.0454  27.00   14.1
2021/04/12 01:42:59.000    455571.3187   3639410.9132   5200658.7696   1   6   0.0503   0.0923   0.0706   0.0515   0.0615   0.0486  29.00   14.0
2021/04/12 01:43:02.000    455571.3215   3639410.9613   5200658.7980   1   6   0.0087   0.0164   0.0175   0.0079   0.0108   0.0086   2.00   14.2
2021/04/12 01:43:04.000    455571.3218   3639410.9538   5200658.7963   1   6   0.0105   0.0199   0.0195   0.0099   0.0128   0.0105   4.00   14.2
2021/04/12 01:43:07.000    455571.3240   3639410.9453   5200658.7922   1   6   0.0145   0.0270   0.0239   0.0140   0.0173   0.0142   7.00   14.2
2021/04/12 01:43:09.000    455571.3250   3639410.9421   5200658.7886   1   6   0.0174   0.0324   0.0275   0.0171   0.0209   0.0171   9.00   14.2
2021/04/12 01:43:17.000    455571.3217   3639410.9292   5200658.7821   1   6   0.0302   0.0557   0.0437   0.0305   0.0366   0.0292  17.00   14.2
2021/04/12 01:43:19.000    455571.3216   3639410.9290   5200658.7783   1   6   0.0334   0.0617   0.0480   0.0339   0.0406   0.0323  19.00   14.3
2021/04/12 01:43:22.000    455571.3188   3639410.9282   5200658.7722   1   6   0.0384   0.0707   0.0546   0.0390   0.0468   0.0371  22.00   14.3
2021/04/12 01:43:23.000    455571.3165   3639410.9256   5200658.7708   1   6   0.0400   0.0738   0.0568   0.0407   0.0488   0.0387  23.00   14.2
2021/04/12 01:43:25.000    455571.3145   3639410.9219   5200658.7728   1   6   0.0434   0.0799   0.0613   0.0441   0.0529   0.0418  25.00   14.0
2021/04/12 01:43:27.000    455571.3157   3639410.9231   5200658.7729   1   6   0.0467   0.0860   0.0658   0.0476   0.0570   0.0450  27.00   13.8
2021/04/12 01:43:28.000    455571.3156   3639410.9258   5200658.7751   1   6   0.0483   0.0890   0.0680   0.0493   0.0590   0.0466  28.00   13.7
2021/04/12 01:43:31.000    455571.3163   3639410.9590   5200658.7976   1   6   0.0081   0.0154   0.0171   0.0073   0.0102   0.0081   1.00   13.6
2021/04/12 01:43:33.000    455571.3155   3639410.9591   5200658.7980   1   6   0.0095   0.0179   0.0185   0.0087   0.0116   0.0094   3.00   13.5
2021/04/12 01:43:35.000    455571.3145   3639410.9580   5200658.7970   1   6   0.0117   0.0220   0.0209   0.0110   0.0140   0.0116   5.00   13.4
2021/04/12 01:43:37.000    455571.3161   3639410.9589   5200658.8024   1   6   0.0144   0.0269   0.0240   0.0138   0.0172   0.0142   7.00   13.2
2021/04/12 01:43:39.000    455571.3145   3639410.9569   5200658.8013   1   6   0.0173   0.0323   0.0275   0.0169   0.0207   0.0170   9.00   13.1
2021/04/12 01:43:49.000    455571.3128   3639410.9502   5200658.8066   1   5   0.0353   0.0630   0.0960   0.0310   0.0222   0.0450  19.00   15.1
2021/04/12 01:43:55.000    455571.3121   3639410.9545   5200658.8241   1   5   0.0459   0.0818   0.1243   0.0402   0.0276   0.0586  25.00   15.1
2021/04/12 01:43:57.000    455571.3129   3639410.9525   5200658.8376   1   5   0.0494   0.0881   0.1338   0.0433   0.0294   0.0631  27.00   15.2
2021/04/12 01:43:58.000    455571.3146   3639410.9557   5200658.8422   1   5   0.0512   0.0912   0.1386   0.0448   0.0304   0.0654  28.00   15.2
2021/04/12 01:44:01.000    455571.3135   3639410.9605   5200658.7931   1   5   0.0083   0.0154   0.0279   0.0073   0.0110   0.0103   1.00   15.4
2021/04/12 01:44:04.000    455571.3154   3639410.9687   5200658.8087   1   5   0.0108   0.0198   0.0337   0.0095   0.0117   0.0137   4.00   15.8
2021/04/12 01:44:06.000    455571.3129   3639410.9657   5200658.8128   1   5   0.0135   0.0245   0.0401   0.0119   0.0125   0.0172   6.00   16.1
2021/04/12 01:44:08.000    455571.3129   3639410.9733   5200658.8149   1   5   0.0166   0.0298   0.0477   0.0145   0.0136   0.0211   8.00   16.5
2021/04/12 01:44:11.000    455571.3106   3639410.9785   5200658.8124   1   5   0.0214   0.0384   0.0603   0.0187   0.0156   0.0274  11.00   17.0
2021/04/12 01:44:14.000    455571.3071   3639410.9838   5200658.8070   1   5   0.0265   0.0474   0.0737   0.0231   0.0178   0.0340  14.00   17.5
2021/04/12 01:44:18.000    455571.3044   3639410.9951   5200658.8094   1   5   0.0335   0.0597   0.0921   0.0291   0.0211   0.0430  18.00   18.0
2021/04/12 01:44:20.000    455571.3044   3639410.9961   5200658.8116   1   5   0.0370   0.0659   0.1015   0.0322   0.0229   0.0475  20.00   18.3
2021/04/12 01:44:22.000    455571.3041   3639411.0015   5200658.8161   1   5   0.0405   0.0721   0.1110   0.0352   0.0246   0.0520  22.00   18.6
2021/04/12 01:44:25.000    455571.2993   3639411.0091   5200658.7996   1   5   0.0458   0.0815   0.1254   0.0397   0.0274   0.0589  25.00   18.8
2021/04/12 01:44:27.000    455571.2996   3639411.0116   5200658.8051   1   5   0.0493   0.0877   0.1350   0.0428   0.0292   0.0635  27.00   19.1
2021/04/12 01:44:29.000    455571.2994   3639411.0127   5200658.8047   1   5   0.0528   0.0940   0.1446   0.0458   0.0311   0.0681  29.00   19.3
2021/04/12 01:44:31.000    455571.3135   3639410.9583   5200658.7963   1   5   0.0082   0.0153   0.0280   0.0072   0.0110   0.0104   1.00   19.1
2021/04/12 01:44:38.000    455571.3138   3639410.9654   5200658.8152   1   5   0.0165   0.0297   0.0480   0.0143   0.0136   0.0212   8.00   19.1
2021/04/12 01:44:40.000    455571.3131   3639410.9662   5200658.8216   1   5   0.0197   0.0353   0.0564   0.0171   0.0148   0.0254  10.00   19.1
2021/04/12 01:44:43.000    455571.3131   3639410.9695   5200658.8330   1   5   0.0248   0.0442   0.0697   0.0214   0.0170   0.0320  13.00   19.1
2021/04/12 01:44:45.000    455571.3144   3639410.9737   5200658.8390   1   5   0.0282   0.0502   0.0789   0.0243   0.0185   0.0364  15.00   19.2
2021/04/12 01:44:50.000    455571.3089   3639410.9739   5200658.8356   1   5   0.0369   0.0656   0.1024   0.0318   0.0227   0.0477  20.00   19.2
2021/04/12 01:44:53.000    455571.3053   3639410.9721   5200658.8276   1   5   0.0421   0.0749   0.1168   0.0363   0.0254   0.0546  23.00   19.3
2021/04/12 01:44:55.000    455571.3068   3639410.9722   5200658.8276   1   5   0.0456   0.0811   0.1265   0.0393   0.0272   0.0592  25.00   19.4
2021/04/12 01:44:57.000    455571.3076   3639410.9740   5200658.8292   1   5   0.0492   0.0874   0.1362   0.0423   0.0290   0.0638  27.00   19.4
2021/04/12 01:44:59.000    455571.3074   3639410.9749   5200658.8320   1   5   0.0527   0.0936   0.1459   0.0453   0.0309   0.0684  29.00   19.5
2021/04/12 01:45:01.000    455571.3153   3639410.9628   5200658.7955   1   5   0.0082   0.0153   0.0281   0.0071   0.0110   0.0104   1.00   19.3
2021/04/12 01:45:04.000    455571.3156   3639410.9636   5200658.8019   1   5   0.0108   0.0196   0.0340   0.0093   0.0116   0.0138   4.00   19.4
2021/04/12 01:45:07.000    455571.3137   3639410.9691   5200658.7985   1   5   0.0149   0.0269   0.0444   0.0128   0.0130   0.0193   7.00   19.5
2021/04/12 01:45:09.000    455571.3129   3639410.9698   5200658.8078   1   5   0.0181   0.0323   0.0525   0.0155   0.0141   0.0234   9.00   19.5
2021/04/12 01:45:14.000    455571.3103   3639410.9716   5200658.8108   1   5   0.0264   0.0470   0.0749   0.0226   0.0177   0.0344  14.00   19.5
2021/04/12 01:45:17.000    455571.3102   3639410.9726   5200658.8206   1   5   0.0316   0.0561   0.0889   0.0270   0.0201   0.0411  17.00   19.5
2021/04/12 01:45:20.000    455571.3072   3639410.9759   5200658.8227   1   5   0.0368   0.0653   0.1033   0.0314   0.0226   0.0480  20.00   19.5
2021/04/12 01:45:26.000    455571.3040   3639410.9792   5200658.8263   1   5   0.0473   0.0839   0.1324   0.0403   0.0280   0.0618  26.00   19.5
2021/04/12 01:45:27.000    455571.3031   3639410.9785   5200658.8229   1   5   0.0490   0.0870   0.1373   0.0417   0.0289   0.0642  27.00   19.5
2021/04/12 01:45:29.000    455571.3028   3639410.9784   5200658.8219   1   5   0.0526   0.0932   0.1472   0.0447   0.0308   0.0688  29.00   19.4
2021/04/12 01:45:30.000    455571.3162   3639410.9603   5200658.8029   1   5   0.0080   0.0149   0.0277   0.0069   0.0109   0.0102   0.00   19.2
2021/04/12 01:45:33.000    455571.3167   3639410.9624   5200658.8069   1   5   0.0097   0.0177   0.0315   0.0083   0.0113   0.0124   3.00   19.1
2021/04/12 01:45:40.000    455571.3162   3639410.9479   5200658.7631   1   5   0.0196   0.0351   0.0573   0.0167   0.0147   0.0257  10.00   19.2
2021/04/12 01:45:43.000    455571.3129   3639410.9440   5200658.7396   1   5   0.0246   0.0439   0.0708   0.0209   0.0169   0.0323  13.00   19.2
2021/04/12 01:45:44.000    455571.3138   3639410.9438   5200658.7289   1   5   0.0263   0.0468   0.0755   0.0223   0.0176   0.0345  14.00   19.2
2021/04/12 01:45:45.000    455571.3134   3639410.9440   5200658.7341   1   5   0.0280   0.0499   0.0802   0.0238   0.0184   0.0368  15.00   19.2
2021/04/12 01:45:48.000    455571.3107   3639410.9386   5200658.7128   1   5   0.0332   0.0590   0.0945   0.0281   0.0209   0.0437  18.00   19.2
2021/04/12 01:45:50.000    455571.3109   3639410.9396   5200658.7105   1   5   0.0367   0.0651   0.1041   0.0310   0.0226   0.0483  20.00   19.3
2021/04/12 01:45:55.000    455571.3100   3639410.9485   5200658.7080   1   5   0.0454   0.0805   0.1286   0.0383   0.0270   0.0599  25.00   19.3
2021/04/12 01:45:56.000    455571.3087   3639410.9491   5200658.7003   1   5   0.0472   0.0836   0.1336   0.0398   0.0279   0.0622  26.00   19.3
2021/04/12 01:45:58.000    455571.3078   3639410.9484   5200658.7004   1   5   0.0507   0.0898   0.1435   0.0427   0.0298   0.0668  28.00   19.3
2021/04/12 01:46:00.000    455571.3150   3639410.9591   5200658.8040   1   5   0.0080   0.0149   0.0278   0.0069   0.0109   0.0102   0.00   18.9
2021/04/12 01:46:03.000    455571.3114   3639410.9640   5200658.7981   1   5   0.0096   0.0176   0.0317   0.0082   0.0113   0.0125   3.00   18.8
2021/04/12 01:46:05.000    455571.3106   3639410.9696   5200658.8023   1   5   0.0120   0.0217   0.0376   0.0102   0.0120   0.0157   5.00   18.8
2021/04/12 01:46:14.000    455571.3099   3639410.9676   5200658.7882   1   5   0.0263   0.0467   0.0761   0.0221   0.0176   0.0347  14.00   18.9
2021/04/12 01:46:19.000    455571.3077   3639410.9645   5200658.7849   1   5   0.0349   0.0618   0.1001   0.0292   0.0217   0.0462  19.00   18.9
2021/04/12 01:46:21.000    455571.3103   3639410.9686   5200658.7929   1   5   0.0383   0.0679   0.1099   0.0321   0.0234   0.0508  21.00   18.9
2021/04/12 01:46:28.000    455571.3062   3639410.9754   5200658.8016   1   5   0.0506   0.0894   0.1447   0.0422   0.0298   0.0672  28.00   19.0
2021/04/12 01:46:30.000    455571.3132   3639410.9600   5200658.7928   1   5   0.0080   0.0148   0.0279   0.0068   0.0109   0.0103   0.00   18.9
2021/04/12 01:46:32.000    455571.3120   3639410.9603   5200658.7982   1   5   0.0087   0.0161   0.0297   0.0074   0.0111   0.0113   2.00   18.8
2021/04/12 01:46:35.000    455571.3127   3639410.9719   5200658.8096   1   5   0.0120   0.0216   0.0378   0.0101   0.0120   0.0157   5.00   19.0
2021/04/12 01:46:38.000    455571.3141   3639410.9733   5200658.8138   1   5   0.0164   0.0292   0.0494   0.0137   0.0134   0.0216   8.00   19.0
2021/04/12 01:46:40.000    455571.3120   3639410.9695   5200658.8019   1   5   0.0196   0.0348   0.0581   0.0163   0.0147   0.0259  10.00   19.1
2021/04/12 01:46:42.000    455571.3118   3639410.9667   5200658.7947   1   5   0.0229   0.0406   0.0672   0.0190   0.0161   0.0304  12.00   19.2
2021/04/12 01:46:44.000    455571.3125   3639410.9684   5200658.7908   1   5   0.0262   0.0465   0.0767   0.0218   0.0176   0.0349  14.00   19.2
2021/04/12 01:46:46.000    455571.3124   3639410.9662   5200658.7824   1   5   0.0296   0.0525   0.0863   0.0246   0.0192   0.0395  16.00   19.2
2021/04/12 01:46:49.000    455571.3115   3639410.9622   5200658.7827   1   5   0.0348   0.0615   0.1009   0.0289   0.0217   0.0464  19.00   19.1
2021/04/12 01:46:51.000    455571.3128   3639410.9649   5200658.7913   1   5   0.0383   0.0676   0.1108   0.0317   0.0235   0.0511  21.00   19.2
2021/04/12 01:46:53.000    455571.3139   3639410.9638   5200658.7920   1   5   0.0417   0.0737   0.1208   0.0346   0.0252   0.0558  23.00   19.2
2021/04/12 01:46:55.000    455571.3131   3639410.9619   5200658.7987   1   5   0.0452   0.0799   0.1308   0.0374   0.0271   0.0605  25.00   19.2
2021/04/12 01:47:00.000    455571.3147   3639410.9606   5200658.7904   1   5   0.0079   0.0148   0.0280   0.0067   0.0109   0.0103   0.00   19.2
2021/04/12 01:47:03.000    455571.3153   3639410.9620   5200658.7963   1   5   0.0096   0.0175   0.0320   0.0080   0.0113   0.0126   3.00   19.0
2021/04/12 01:47:04.000    455571.3148   3639410.9598   5200658.8005   1   5   0.0107   0.0194   0.0347   0.0089   0.0116   0.0141   4.00   18.9
2021/04/12 01:47:07.000    455571.3165   3639410.9647   5200658.8104   1   5   0.0148   0.0265   0.0456   0.0123   0.0129   0.0197   7.00   18.8
2021/04/12 01:47:16.000    455571.3126   3639410.9637   5200658.8267   1   5   0.0296   0.0523   0.0870   0.0243   0.0192   0.0397  16.00   18.7
2021/04/12 01:47:18.000    455571.3128   3639410.9657   5200658.8298   1   5   0.0330   0.0583   0.0968   0.0271   0.0209   0.0443  18.00   18.6
2021/04/12 01:47:24.000    455571.3160   3639410.9654   5200658.8365   1   5   0.0434   0.0765   0.1268   0.0356   0.0262   0.0584  24.00   18.4
2021/04/12 01:47:26.000    455571.3169   3639410.9627   5200658.8427   1   5   0.0469   0.0826   0.1369   0.0384   0.0281   0.0632  26.00   18.3
2021/04/12 01:47:28.000    455571.3176   3639410.9630   5200658.8439   1   5   0.0503   0.0887   0.1471   0.0412   0.0299   0.0679  28.00   18.1
2021/04/12 01:47:32.000    455571.3183   3639410.9604   5200658.8056   1   5   0.0087   0.0160   0.0299   0.0073   0.0111   0.0114   2.00   18.0
2021/04/12 01:47:34.000    455571.3188   3639410.9629   5200658.8079   1   5   0.0107   0.0193   0.0349   0.0088   0.0116   0.0141   4.00   17.9
2021/04/12 01:47:36.000    455571.3187   3639410.9624   5200658.8132   1   5   0.0133   0.0238   0.0419   0.0110   0.0124   0.0178   6.00   17.7
2021/04/12 01:47:38.000    455571.3180   3639410.9576   5200658.8151   1   5   0.0163   0.0290   0.0501   0.0134   0.0135   0.0219   8.00   17.5
2021/04/12 01:47:40.000    455571.3200   3639410.9559   5200658.8217   1   5   0.0195   0.0345   0.0590   0.0159   0.0147   0.0262  10.00   17.3
2021/04/12 01:47:47.000    455571.3208   3639410.9495   5200658.8335   1   5   0.0312   0.0550   0.0926   0.0254   0.0201   0.0422  17.00   17.3
2021/04/12 01:47:52.000    455571.3211   3639410.9498   5200658.8319   1   5   0.0398   0.0701   0.1177   0.0324   0.0245   0.0540  22.00   17.3
2021/04/12 01:47:54.000    455571.3211   3639410.9451   5200658.8369   1   5   0.0433   0.0762   0.1279   0.0351   0.0264   0.0587  24.00   17.3
2021/04/12 01:47:57.000    455571.3216   3639410.9473   5200658.8363   1   5   0.0485   0.0853   0.1432   0.0393   0.0291   0.0659  27.00   17.4
2021/04/12 01:47:58.000    455571.3225   3639410.9497   5200658.8368   1   5   0.0502   0.0884   0.1483   0.0407   0.0301   0.0683  28.00   17.5
2021/04/12 01:48:03.000    455571.3178   3639410.9618   5200658.8045   1   5   0.0096   0.0174   0.0322   0.0079   0.0113   0.0127   3.00   17.8
2021/04/12 01:48:04.000    455571.3194   3639410.9651   5200658.8185   1   5   0.0106   0.0193   0.0351   0.0087   0.0116   0.0142   4.00   18.1
2021/04/12 01:48:06.000    455571.3173   3639410.9637   5200658.8051   1   5   0.0133   0.0238   0.0421   0.0108   0.0124   0.0178   6.00   18.3
2021/04/12 01:48:08.000    455571.3157   3639410.9624   5200658.7973   1   5   0.0163   0.0289   0.0504   0.0132   0.0135   0.0220   8.00   18.6
2021/04/12 01:48:09.000    455571.3168   3639410.9609   5200658.8025   1   5   0.0178   0.0316   0.0548   0.0145   0.0141   0.0241   9.00   18.8
2021/04/12 01:48:17.000    455571.3130   3639410.9652   5200658.8032   1   5   0.0311   0.0548   0.0933   0.0251   0.0203   0.0424  17.00   19.1
2021/04/12 01:48:20.000    455571.3155   3639410.9691   5200658.8085   1   5   0.0363   0.0638   0.1085   0.0292   0.0229   0.0495  20.00   19.4
2021/04/12 01:48:23.000    455571.3143   3639410.9686   5200658.8055   1   5   0.0415   0.0729   0.1238   0.0334   0.0256   0.0567  23.00   19.6
2021/04/12 01:48:25.000    455571.3154   3639410.9700   5200658.8027   1   5   0.0449   0.0789   0.1340   0.0361   0.0275   0.0614  25.00   19.8
2021/04/12 01:48:27.000    455571.3156   3639410.9726   5200658.8109   1   5   0.0484   0.0850   0.1443   0.0389   0.0294   0.0662  27.00   20.0
2021/04/12 01:48:30.000    455571.3156   3639410.9582   5200658.7947   1   5   0.0079   0.0146   0.0282   0.0065   0.0109   0.0104   0.00   20.3
2021/04/12 01:48:33.000    455571.3138   3639410.9573   5200658.7958   1   5   0.0095   0.0174   0.0324   0.0078   0.0113   0.0127   3.00   20.6
2021/04/12 01:48:40.000    455571.3122   3639410.9592   5200658.7903   1   5   0.0194   0.0343   0.0598   0.0156   0.0148   0.0265  10.00   20.9
2021/04/12 01:48:41.000    455571.3124   3639410.9612   5200658.7973   1   5   0.0210   0.0371   0.0645   0.0169   0.0156   0.0287  11.00   21.2
2021/04/12 01:48:43.000    455571.3091   3639410.9608   5200658.7931   1   5   0.0243   0.0428   0.0741   0.0195   0.0171   0.0333  13.00   21.5
2021/04/12 01:48:45.000    455571.3113   3639410.9663   5200658.7979   1   5   0.0277   0.0487   0.0840   0.0221   0.0187   0.0379  15.00   21.7
2021/04/12 01:48:46.000    455571.3085   3639410.9630   5200658.7935   1   5   0.0294   0.0517   0.0890   0.0235   0.0195   0.0403  16.00   22.0
2021/04/12 01:48:49.000    455571.3112   3639410.9688   5200658.8106   1   5   0.0345   0.0606   0.1042   0.0275   0.0222   0.0474  19.00   22.2
2021/04/12 01:48:53.000    455571.3100   3639410.9722   5200658.8112   1   5   0.0414   0.0726   0.1247   0.0330   0.0258   0.0569  23.00   22.5
2021/04/12 01:48:55.000    455571.3109   3639410.9764   5200658.8183   1   5   0.0448   0.0786   0.1351   0.0357   0.0277   0.0617  25.00   22.7
2021/04/12 01:48:57.000    455571.3120   3639410.9751   5200658.8215   1   5   0.0483   0.0846   0.1455   0.0384   0.0296   0.0665  27.00   22.9
2021/04/12 01:49:00.000    455571.3160   3639410.9602   5200658.7984   1   5   0.0079   0.0146   0.0283   0.0065   0.0109   0.0105   0.00   23.2
2021/04/12 01:49:03.000    455571.3152   3639410.9588   5200658.7913   1   5   0.0095   0.0173   0.0325   0.0077   0.0113   0.0128   3.00   23.5
2021/04/12 01:49:04.000    455571.3135   3639410.9597   5200658.7892   1   5   0.0106   0.0191   0.0354   0.0086   0.0116   0.0143   4.00   23.7
2021/04/12 01:49:06.000    455571.3116   3639410.9598   5200658.7756   1   5   0.0132   0.0236   0.0426   0.0106   0.0125   0.0180   6.00   23.9
2021/04/12 01:49:12.000    455571.3088   3639410.9592   5200658.7833   1   5   0.0226   0.0398   0.0698   0.0180   0.0164   0.0311  12.00   24.1
2021/04/12 01:49:14.000    455571.3114   3639410.9634   5200658.7874   1   5   0.0259   0.0456   0.0796   0.0206   0.0180   0.0358  14.00   24.2
2021/04/12 01:49:16.000    455571.3075   3639410.9617   5200658.7922   1   5   0.0293   0.0514   0.0897   0.0232   0.0197   0.0405  16.00   24.4
2021/04/12 01:49:18.000    455571.3096   3639410.9660   5200658.7993   1   5   0.0327   0.0574   0.0999   0.0259   0.0215   0.0452  18.00   24.5
2021/04/12 01:49:20.000    455571.3102   3639410.9726   5200658.7952   1   5   0.0362   0.0633   0.1102   0.0286   0.0233   0.0500  20.00   24.7
2021/04/12 01:49:23.000    455571.3072   3639410.9732   5200658.8096   1   5   0.0413   0.0723   0.1257   0.0326   0.0261   0.0572  23.00   24.8
2021/04/12 01:49:26.000    455571.3081   3639410.9773   5200658.8241   1   5   0.0465   0.0813   0.1414   0.0366   0.0290   0.0644  26.00   24.9
2021/04/12 01:49:27.000    455571.3062   3639410.9772   5200658.8163   1   5   0.0482   0.0843   0.1466   0.0380   0.0300   0.0669  27.00   25.0
2021/04/12 01:49:29.000    455571.3063   3639410.9765   5200658.8192   1   5   0.0517   0.0903   0.1571   0.0407   0.0319   0.0717  29.00   25.1
2021/04/12 01:49:32.000    455571.3141   3639410.9546   5200658.7833   1   6   0.0074   0.0157   0.0167   0.0064   0.0088   0.0049   2.00    3.9
2021/04/12 01:49:35.000    455571.3185   3639410.9490   5200658.7755   1   6   0.0097   0.0212   0.0191   0.0091   0.0109   0.0057   5.00    5.3
2021/04/12 01:49:37.000    455571.3213   3639410.9423   5200658.7734   1   6   0.0118   0.0260   0.0214   0.0116   0.0129   0.0063   7.00    6.1
2021/04/12 01:49:39.000    455571.3233   3639410.9396   5200658.7706   1   6   0.0140   0.0313   0.0241   0.0142   0.0153   0.0069   9.00    6.5
2021/04/12 01:49:41.000    455571.3240   3639410.9342   5200658.7657   1   6   0.0163   0.0368   0.0271   0.0170   0.0179   0.0075  11.00    6.7
2021/04/12 01:49:43.000    455571.3243   3639410.9297   5200658.7615   1   6   0.0187   0.0425   0.0303   0.0198   0.0206   0.0082  13.00    6.8
2021/04/12 01:49:46.000    455571.3270   3639410.9315   5200658.7596   1   6   0.0224   0.0512   0.0353   0.0240   0.0247   0.0092  16.00    6.9
2021/04/12 01:49:49.000    455571.3283   3639410.9281   5200658.7645   1   6   0.0261   0.0600   0.0405   0.0283   0.0290   0.0103  19.00    6.9
2021/04/12 01:49:52.000    455571.3283   3639410.9242   5200658.7581   1   6   0.0299   0.0689   0.0458   0.0326   0.0333   0.0115  22.00    6.9
2021/04/12 01:49:58.000    455571.3267   3639410.9243   5200658.7597   1   6   0.0376   0.0868   0.0569   0.0411   0.0420   0.0139  28.00    6.9
2021/04/12 01:50:00.000    455571.3136   3639410.9601   5200658.7900   1   6   0.0069   0.0144   0.0161   0.0058   0.0085   0.0046   0.00   10.9
2021/04/12 01:50:03.000    455571.3156   3639410.9637   5200658.7906   1   6   0.0081   0.0171   0.0173   0.0070   0.0094   0.0050   3.00   14.2
2021/04/12 01:50:05.000    455571.3142   3639410.9656   5200658.7933   1   6   0.0097   0.0211   0.0191   0.0091   0.0109   0.0056   5.00   16.7
2021/04/12 01:50:08.000    455571.3121   3639410.9674   5200658.7901   1   6   0.0128   0.0285   0.0228   0.0127   0.0142   0.0065   8.00   18.3
2021/04/12 01:50:11.000    455571.3118   3639410.9679   5200658.7953   1   6   0.0162   0.0367   0.0272   0.0168   0.0180   0.0074  11.00   19.1
2021/04/12 01:50:13.000    455571.3110   3639410.9649   5200658.7900   1   6   0.0186   0.0423   0.0303   0.0196   0.0207   0.0081  13.00   19.3
2021/04/12 01:50:18.000    455571.3092   3639410.9697   5200658.7936   1   6   0.0247   0.0568   0.0389   0.0266   0.0277   0.0099  18.00   19.4
2021/04/12 01:50:21.000    455571.3067   3639410.9715   5200658.7944   1   6   0.0285   0.0657   0.0442   0.0308   0.0320   0.0110  21.00   19.5
2021/04/12 01:50:23.000    455571.3059   3639410.9744   5200658.7952   1   6   0.0310   0.0716   0.0479   0.0336   0.0349   0.0118  23.00   19.5
2021/04/12 01:50:24.000    455571.3056   3639410.9738   5200658.7968   1   6   0.0323   0.0746   0.0497   0.0350   0.0364   0.0122  24.00   19.4
2021/04/12 01:50:27.000    455571.3055   3639410.9728   5200658.7953   1   6   0.0361   0.0835   0.0553   0.0393   0.0407   0.0134  27.00   19.4
2021/04/12 01:50:30.000    455571.3104   3639410.9654   5200658.7970   1   6   0.0068   0.0144   0.0161   0.0057   0.0085   0.0045   0.00   20.5
2021/04/12 01:50:32.000    455571.3122   3639410.9663   5200658.7962   1   6   0.0074   0.0156   0.0166   0.0063   0.0089   0.0047   2.00   21.3
2021/04/12 01:50:34.000    455571.3115   3639410.9677   5200658.7943   1   6   0.0087   0.0189   0.0181   0.0079   0.0101   0.0053   4.00   21.1
2021/04/12 01:50:40.000    455571.3074   3639410.9693   5200658.7907   1   6   0.0150   0.0338   0.0257   0.0152   0.0168   0.0071  10.00   20.8
2021/04/12 01:50:43.000    455571.3044   3639410.9711   5200658.7938   1   6   0.0185   0.0422   0.0304   0.0193   0.0208   0.0080  13.00   20.6
2021/04/12 01:50:44.000    455571.3048   3639410.9713   5200658.7939   1   6   0.0197   0.0450   0.0321   0.0207   0.0222   0.0084  14.00   20.4
2021/04/12 01:50:46.000    455571.3021   3639410.9752   5200658.7971   1   6   0.0221   0.0508   0.0355   0.0235   0.0250   0.0091  16.00   20.2
2021/04/12 01:50:49.000    455571.3013   3639410.9711   5200658.7971   1   6   0.0259   0.0595   0.0408   0.0277   0.0293   0.0102  19.00   19.9
2021/04/12 01:50:53.000    455571.2998   3639410.9796   5200658.8011   1   6   0.0309   0.0713   0.0481   0.0333   0.0351   0.0117  23.00   19.7
2021/04/12 01:50:56.000    455571.2957   3639410.9784   5200658.7996   1   6   0.0347   0.0802   0.0537   0.0375   0.0395   0.0129  26.00   19.4
2021/04/12 01:50:59.000    455571.2971   3639410.9772   5200658.8001   1   6   0.0385   0.0891   0.0594   0.0417   0.0439   0.0141  29.00   19.2
2021/04/12 01:51:00.000    455571.3119   3639410.9559   5200658.7856   1   6   0.0068   0.0143   0.0160   0.0056   0.0085   0.0044   0.00   20.0
2021/04/12 01:51:02.000    455571.3116   3639410.9564   5200658.7871   1   6   0.0073   0.0156   0.0166   0.0062   0.0089   0.0047   2.00   19.5
2021/04/12 01:51:05.000    455571.3092   3639410.9625   5200658.7882   1   6   0.0096   0.0210   0.0191   0.0088   0.0110   0.0055   5.00   18.7
2021/04/12 01:51:08.000    455571.3087   3639410.9587   5200658.7834   1   6   0.0126   0.0283   0.0228   0.0125   0.0143   0.0064   8.00   18.2
2021/04/12 01:51:10.000    455571.3084   3639410.9577   5200658.7843   1   6   0.0149   0.0336   0.0257   0.0151   0.0169   0.0070  10.00   17.8
