% program   : rnx2rtkp ver.2.4.3 b33
% inp file  : /home/danisimo/post/R1_193.2020-111.2021/R00110118.21o
% inp file  : /home/danisimo/post/NSK1_193.2020-111.2021/NSK11010.21o
% inp file  : /home/danisimo/post/NSK1_193.2020-111.2021/NSK11010.21N
% obs start : 2021/04/11 01:23:19.5 GPST (week2153   4999.5s)
% obs end   : 2021/04/11 11:55:18.0 GPST (week2153  42918.0s)
% ref pos   :   447670.3040   3638117.3850   5202281.5640
%
% (x/y/z-ecef=WGS84,Q=1:fix,2:float,3:sbas,4:dgps,5:single,6:ppp,ns=# of satellites)
%  GPST                      x-ecef(m)      y-ecef(m)      z-ecef(m)   Q  ns   sdx(m)   sdy(m)   sdz(m)  sdxy(m)  sdyz(m)  sdzx(m) age(s)  ratio
2021/04/11 01:23:19.495    455571.6614   3639411.5108   5200660.2455   2   7   0.6310   1.0176   1.3755  -0.1248   0.7817   0.1002  19.50    0.0
2021/04/11 01:23:19.995    455571.6389   3639411.5899   5200660.3011   2   7   0.4493   0.7257   0.9796  -0.0804   0.5568   0.0718  20.00    0.0
2021/04/11 01:23:20.495    455571.6505   3639411.5632   5200660.3509   2   7   0.3679   0.5944   0.8020  -0.0638   0.4559   0.0589  20.50    0.0
2021/04/11 01:23:20.995    455571.6650   3639411.5612   5200660.3864   2   7   0.3192   0.5158   0.6958  -0.0549   0.3955   0.0511  21.00    0.0
2021/04/11 01:23:23.495    455571.6394   3639411.6566   5200660.5367   2   7   0.2861   0.4622   0.6232  -0.0499   0.3542   0.0457  23.50    0.0
2021/04/11 01:23:35.000    455571.9308   3639411.4649   5200660.2034   2   7   0.6314   1.0178   1.3748  -0.1257   0.7801   0.0993   5.00    1.3
2021/04/11 01:23:40.000    455571.9404   3639411.4797   5200659.7451   2   7   0.4494   0.7255   0.9777  -0.0811   0.5550   0.0706  10.00    1.0
2021/04/11 01:23:47.000    455571.8436   3639411.5739   5200659.6730   2   7   0.3681   0.5943   0.7993  -0.0653   0.4538   0.0572  17.00    1.1
2021/04/11 01:23:49.000    455571.7172   3639411.7013   5200659.8181   2   7   0.3194   0.5158   0.6933  -0.0562   0.3937   0.0494  19.00    1.2
2021/04/11 01:23:51.000    455571.6834   3639411.7246   5200659.8285   2   7   0.2863   0.4621   0.6209  -0.0507   0.3526   0.0441  21.00    1.2
2021/04/11 01:23:53.000    455571.6401   3639411.7403   5200659.8593   2   7   0.2619   0.4226   0.5676  -0.0471   0.3223   0.0402  23.00    1.1
2021/04/11 01:23:55.000    455571.6443   3639411.7075   5200659.8567   2   7   0.2430   0.3920   0.5263  -0.0447   0.2988   0.0371  25.00    1.1
2021/04/11 01:23:57.000    455571.6255   3639411.7177   5200659.8443   2   7   0.2278   0.3674   0.4931  -0.0431   0.2800   0.0347  27.00    1.0
2021/04/11 01:23:58.000    455571.6096   3639411.7001   5200659.8225   2   7   0.2153   0.3470   0.4657  -0.0416   0.2644   0.0327  28.00    1.1
2021/04/11 01:24:03.000    455571.5917   3639411.5921   5200659.8815   2   7   0.2025   0.3266   0.4356  -0.0352   0.2483   0.0292   3.00    1.3
2021/04/11 01:24:10.000    455571.5761   3639411.5393   5200659.9576   2   7   0.1934   0.3117   0.4147  -0.0343   0.2366   0.0269  10.00    1.2
2021/04/11 01:24:12.000    455571.5716   3639411.4925   5200659.9943   2   7   0.1853   0.2986   0.3971  -0.0332   0.2267   0.0254  12.00    1.1
2021/04/11 01:24:19.000    455571.5539   3639411.3991   5200660.0056   2   7   0.1788   0.2878   0.3823  -0.0342   0.2182   0.0241  19.00    1.2
2021/04/11 01:24:21.000    455571.5370   3639411.3609   5200660.0210   2   7   0.1727   0.2779   0.3690  -0.0339   0.2106   0.0232  21.00    1.3
2021/04/11 01:24:23.000    455571.5381   3639411.3140   5200660.0600   2   7   0.1673   0.2690   0.3573  -0.0339   0.2039   0.0223  23.00    1.5
2021/04/11 01:24:25.000    455571.5428   3639411.2944   5200660.0585   2   7   0.1625   0.2611   0.3468  -0.0340   0.1979   0.0216  25.00    1.6
2021/04/11 01:24:29.000    455571.5432   3639411.3013   5200660.0879   2   7   0.1587   0.2546   0.3379  -0.0354   0.1927   0.0209  29.00    1.6
2021/04/11 01:24:38.000    455571.5486   3639411.2635   5200660.0414   2   7   0.1514   0.2436   0.3210  -0.0281   0.1840   0.0183   8.00    1.9
2021/04/11 01:24:41.000    455571.5647   3639411.2165   5200660.0061   2   7   0.1476   0.2372   0.3117  -0.0277   0.1791   0.0165  11.00    2.3
2021/04/11 01:24:43.000    455571.5668   3639411.1809   5200659.9830   2   7   0.1441   0.2314   0.3035  -0.0274   0.1747   0.0153  13.00    2.4
2021/04/11 01:24:46.000    455571.5639   3639411.1752   5200659.9810   2   7   0.1411   0.2263   0.2965  -0.0278   0.1708   0.0144  16.00    2.4
2021/04/11 01:24:53.000    455571.5666   3639411.1630   5200659.9523   2   7   0.1391   0.2226   0.2915  -0.0304   0.1678   0.0138  23.00    2.2
2021/04/11 01:24:56.000    455571.5608   3639411.1614   5200659.9207   2   7   0.1368   0.2187   0.2863  -0.0316   0.1648   0.0134  26.00    2.1
2021/04/11 01:24:57.000    455571.5582   3639411.1506   5200659.8830   2   7   0.1344   0.2146   0.2810  -0.0317   0.1617   0.0131  27.00    1.9
2021/04/11 01:24:58.000    455571.5558   3639411.1385   5200659.8605   2   7   0.1321   0.2108   0.2761  -0.0319   0.1588   0.0128  28.00    1.9
2021/04/11 01:25:01.000    455571.5321   3639411.0637   5200659.7882   2   7   0.1259   0.2013   0.2581  -0.0234   0.1510   0.0060   1.00    1.3
2021/04/11 01:25:02.000    455571.5208   3639411.0337   5200659.7577   2   7   0.1235   0.1970   0.2501  -0.0223   0.1476  -0.0065   2.00    1.0
2021/04/11 01:25:04.000    455571.5071   3639411.0234   5200659.7312   2   7   0.1213   0.1933   0.2444  -0.0215   0.1448  -0.0090   4.00    1.0
2021/04/11 01:25:09.000    455571.4919   3639410.9986   5200659.6961   2   7   0.1196   0.1903   0.2402  -0.0218   0.1425  -0.0098   9.00    1.0
2021/04/11 01:25:12.000    455571.4717   3639410.9934   5200659.6689   2   7   0.1179   0.1875   0.2368  -0.0223   0.1404  -0.0099  12.00    1.1
2021/04/11 01:25:17.000    455571.4567   3639410.9527   5200659.6542   2   7   0.1168   0.1855   0.2344  -0.0241   0.1389  -0.0099  17.00    1.0
2021/04/11 01:25:18.000    455571.4490   3639410.9188   5200659.6512   2   7   0.1152   0.1829   0.2313  -0.0243   0.1370  -0.0096  18.00    1.1
2021/04/11 01:25:20.000    455571.4346   3639410.8974   5200659.6299   2   7   0.1140   0.1808   0.2288  -0.0251   0.1353  -0.0093  20.00    1.1
2021/04/11 01:25:23.000    455571.4192   3639410.8953   5200659.5987   2   7   0.1131   0.1791   0.2270  -0.0266   0.1341  -0.0090  23.00    1.0
2021/04/11 01:25:24.000    455571.4032   3639410.8925   5200659.5687   2   7   0.1118   0.1770   0.2246  -0.0270   0.1325  -0.0087  24.00    1.0
2021/04/11 01:25:29.000    455571.3890   3639410.8790   5200659.5486   2   7   0.1119   0.1766   0.2243  -0.0300   0.1321  -0.0083  29.00    1.1
2021/04/11 01:25:34.000    455571.4078   3639410.9062   5200659.5573   2   7   0.1057   0.1680   0.2105  -0.0195   0.1253  -0.0105   4.00    1.1
2021/04/11 01:25:37.000    455571.3899   3639410.9132   5200659.5264   2   7   0.1045   0.1658   0.2068  -0.0193   0.1237  -0.0118   7.00    1.3
2021/04/11 01:25:38.000    455571.3738   3639410.9191   5200659.4889   2   7   0.1032   0.1636   0.2037  -0.0189   0.1221  -0.0124   8.00    1.5
2021/04/11 01:25:41.000    455571.3508   3639410.9398   5200659.4595   2   7   0.1023   0.1619   0.2014  -0.0195   0.1208  -0.0127  11.00    1.7
2021/04/11 01:25:44.000    455571.3311   3639410.9411   5200659.4283   2   7   0.1015   0.1605   0.1996  -0.0205   0.1198  -0.0128  14.00    1.9
2021/04/11 01:25:47.000    455571.3128   3639410.9382   5200659.3969   2   7   0.1009   0.1593   0.1983  -0.0218   0.1189  -0.0127  17.00    2.2
2021/04/11 01:25:52.000    455571.2882   3639410.9436   5200659.3599   2   7   0.1010   0.1591   0.1983  -0.0245   0.1186  -0.0125  22.00    2.5
2021/04/11 01:25:56.000    455571.2749   3639410.9482   5200659.3321   2   7   0.1012   0.1589   0.1983  -0.0269   0.1185  -0.0123  26.00    2.6
2021/04/11 01:25:58.000    455571.2629   3639410.9531   5200659.2938   2   7   0.1009   0.1581   0.1977  -0.0282   0.1179  -0.0120  28.00    2.9
2021/04/11 01:25:59.000    455571.2937   3639410.9623   5200658.7750   1   7   0.0341   0.0481   0.0639  -0.0243   0.0358   0.0029  29.00    3.1
2021/04/11 01:26:02.000    455571.3090   3639410.9550   5200658.8019   1   7   0.0069   0.0111   0.0147  -0.0021   0.0082   0.0010   2.00    3.3
2021/04/11 01:26:06.000    455571.3068   3639410.9538   5200658.7986   1   7   0.0097   0.0148   0.0191  -0.0053   0.0107   0.0014   6.00    3.4
2021/04/11 01:26:08.000    455571.3029   3639410.9534   5200658.8096   1   7   0.0115   0.0172   0.0223  -0.0070   0.0125   0.0015   8.00    3.4
2021/04/11 01:26:10.000    455571.2991   3639410.9541   5200658.8132   1   7   0.0135   0.0198   0.0257  -0.0087   0.0144   0.0016  10.00    3.5
2021/04/11 01:26:11.000    455571.2979   3639410.9505   5200658.8110   1   7   0.0145   0.0212   0.0275  -0.0095   0.0154   0.0017  11.00    3.7
2021/04/11 01:26:14.000    455571.2980   3639410.9513   5200658.8084   1   7   0.0176   0.0254   0.0332  -0.0120   0.0186   0.0018  14.00    3.9
2021/04/11 01:26:17.000    455571.2967   3639410.9459   5200658.8033   1   7   0.0208   0.0298   0.0391  -0.0145   0.0219   0.0020  17.00    4.0
2021/04/11 01:26:20.000    455571.2991   3639410.9387   5200658.7992   1   7   0.0241   0.0343   0.0451  -0.0169   0.0253   0.0023  20.00    4.0
2021/04/11 01:26:22.000    455571.2982   3639410.9405   5200658.7994   1   7   0.0263   0.0373   0.0491  -0.0186   0.0275   0.0024  22.00    4.0
2021/04/11 01:26:24.000    455571.2960   3639410.9394   5200658.7948   1   7   0.0286   0.0404   0.0532  -0.0202   0.0298   0.0026  24.00    4.0
2021/04/11 01:26:27.000    455571.2985   3639410.9300   5200658.7879   1   7   0.0319   0.0450   0.0594  -0.0227   0.0332   0.0028  27.00    4.1
2021/04/11 01:26:30.000    455571.3088   3639410.9540   5200658.8026   1   8   0.0062   0.0099   0.0128   0.0024   0.0064   0.0037   0.00    4.4
2021/04/11 01:26:33.000    455571.3105   3639410.9492   5200658.7984   1   8   0.0070   0.0110   0.0141   0.0016   0.0069   0.0043   3.00    4.7
2021/04/11 01:26:35.000    455571.3091   3639410.9435   5200658.7924   1   8   0.0081   0.0126   0.0161  -0.0011   0.0077   0.0052   5.00    4.8
2021/04/11 01:26:37.000    455571.3071   3639410.9430   5200658.7920   1   8   0.0095   0.0146   0.0188  -0.0027   0.0087   0.0065   7.00    4.9
2021/04/11 01:26:40.000    455571.3059   3639410.9431   5200658.7870   1   8   0.0117   0.0178   0.0233  -0.0042   0.0106   0.0086  10.00    4.9
2021/04/11 01:26:43.000    455571.3049   3639410.9455   5200658.7858   1   8   0.0141   0.0213   0.0283  -0.0055   0.0126   0.0107  13.00    4.9
2021/04/11 01:26:46.000    455571.3067   3639410.9470   5200658.7799   1   8   0.0167   0.0249   0.0335  -0.0067   0.0148   0.0130  16.00    4.9
2021/04/11 01:26:48.000    455571.3093   3639410.9458   5200658.7759   1   8   0.0184   0.0275   0.0371  -0.0074   0.0163   0.0145  18.00    4.9
2021/04/11 01:26:50.000    455571.3104   3639410.9475   5200658.7702   1   8   0.0201   0.0300   0.0407  -0.0082   0.0178   0.0160  20.00    4.8
2021/04/11 01:26:53.000    455571.3140   3639410.9473   5200658.7648   1   8   0.0227   0.0339   0.0462  -0.0094   0.0202   0.0183  23.00    4.7
2021/04/11 01:26:56.000    455571.3130   3639410.9469   5200658.7555   1   8   0.0254   0.0378   0.0517  -0.0106   0.0225   0.0206  26.00    4.6
2021/04/11 01:27:03.000    455571.3108   3639410.9472   5200658.7977   1   8   0.0070   0.0110   0.0141   0.0017   0.0069   0.0043   3.00    4.6
2021/04/11 01:27:06.000    455571.3087   3639410.9387   5200658.7916   1   8   0.0088   0.0136   0.0174  -0.0020   0.0081   0.0059   6.00    4.7
2021/04/11 01:27:09.000    455571.3079   3639410.9419   5200658.7894   1   8   0.0110   0.0167   0.0217  -0.0037   0.0099   0.0078   9.00    4.7
2021/04/11 01:27:10.000    455571.3090   3639410.9378   5200658.7850   1   8   0.0117   0.0178   0.0232  -0.0042   0.0105   0.0086  10.00    4.7
2021/04/11 01:27:13.000    455571.3054   3639410.9429   5200658.7822   1   8   0.0141   0.0213   0.0282  -0.0055   0.0125   0.0107  13.00    4.7
2021/04/11 01:27:21.000    455571.3041   3639410.9383   5200658.7702   1   8   0.0210   0.0313   0.0424  -0.0087   0.0185   0.0167  21.00    4.7
2021/04/11 01:27:24.000    455571.3031   3639410.9385   5200658.7674   1   8   0.0236   0.0352   0.0479  -0.0099   0.0209   0.0190  24.00    4.7
2021/04/11 01:27:25.000    455571.3041   3639410.9346   5200658.7657   1   8   0.0245   0.0365   0.0497  -0.0103   0.0217   0.0198  25.00    4.8
2021/04/11 01:27:26.000    455571.3030   3639410.9385   5200658.7625   1   8   0.0254   0.0378   0.0515  -0.0107   0.0224   0.0205  26.00    4.8
2021/04/11 01:27:29.000    455571.3025   3639410.9425   5200658.7639   1   8   0.0281   0.0418   0.0571  -0.0119   0.0248   0.0228  29.00    4.9
2021/04/11 01:27:32.000    455571.3083   3639410.9541   5200658.8010   1   8   0.0066   0.0105   0.0134   0.0022   0.0066   0.0039   2.00    5.1
2021/04/11 01:27:37.000    455571.3046   3639410.9525   5200658.7941   1   8   0.0095   0.0146   0.0187  -0.0026   0.0086   0.0065   7.00    5.1
2021/04/11 01:27:41.000    455571.3047   3639410.9493   5200658.7915   1   8   0.0125   0.0189   0.0248  -0.0047   0.0111   0.0093  11.00    5.2
2021/04/11 01:27:44.000    455571.3028   3639410.9523   5200658.7905   1   8   0.0150   0.0225   0.0298  -0.0059   0.0132   0.0114  14.00    5.2
2021/04/11 01:27:47.000    455571.3002   3639410.9559   5200658.7860   1   8   0.0175   0.0262   0.0351  -0.0072   0.0154   0.0137  17.00    5.3
2021/04/11 01:27:54.000    455571.2973   3639410.9552   5200658.7845   1   8   0.0236   0.0352   0.0477  -0.0100   0.0208   0.0189  24.00    5.3
2021/04/11 01:27:58.000    455571.2967   3639410.9513   5200658.7775   1   8   0.0272   0.0405   0.0551  -0.0116   0.0239   0.0219  28.00    5.2
2021/04/11 01:27:59.000    455571.2953   3639410.9510   5200658.7766   1   8   0.0281   0.0418   0.0569  -0.0120   0.0247   0.0227  29.00    5.2
2021/04/11 01:28:02.000    455571.3084   3639410.9485   5200658.7982   1   8   0.0066   0.0105   0.0134   0.0023   0.0065   0.0039   2.00    5.0
2021/04/11 01:28:05.000    455571.3117   3639410.9403   5200658.7935   1   8   0.0082   0.0127   0.0161  -0.0009   0.0075   0.0054   5.00    4.5
2021/04/11 01:28:07.000    455571.3132   3639410.9348   5200658.7907   1   8   0.0095   0.0146   0.0186  -0.0027   0.0086   0.0065   7.00    4.1
2021/04/11 01:28:08.000    455571.3123   3639410.9350   5200658.7889   1   8   0.0102   0.0156   0.0201  -0.0032   0.0091   0.0072   8.00    3.8
2021/04/11 01:28:10.000    455571.3119   3639410.9331   5200658.7842   1   8   0.0117   0.0178   0.0231  -0.0042   0.0104   0.0085  10.00    3.5
2021/04/11 01:28:13.000    455571.3089   3639410.9311   5200658.7799   1   8   0.0141   0.0213   0.0280  -0.0055   0.0124   0.0107  13.00    3.4
2021/04/11 01:28:16.000    455571.3090   3639410.9257   5200658.7740   1   8   0.0167   0.0250   0.0332  -0.0068   0.0146   0.0129  16.00    3.3
2021/04/11 01:28:19.000    455571.3075   3639410.9208   5200658.7704   1   8   0.0192   0.0287   0.0385  -0.0080   0.0168   0.0151  19.00    3.2
2021/04/11 01:28:21.000    455571.3064   3639410.9191   5200658.7702   1   8   0.0210   0.0313   0.0421  -0.0089   0.0184   0.0166  21.00    3.1
2021/04/11 01:28:23.000    455571.3041   3639410.9189   5200658.7639   1   8   0.0227   0.0339   0.0457  -0.0097   0.0199   0.0181  23.00    3.1
2021/04/11 01:28:26.000    455571.3039   3639410.9133   5200658.7584   1   8   0.0254   0.0378   0.0512  -0.0109   0.0223   0.0203  26.00    3.0
2021/04/11 01:28:29.000    455571.2246   3639410.8197   5200658.5075   2   8   0.0685   0.1027   0.1138   0.0118   0.0713   0.0238  29.00    3.0
2021/04/11 01:28:32.000    455571.3107   3639410.9548   5200658.7965   1   8   0.0066   0.0105   0.0134   0.0022   0.0065   0.0040   2.00    3.3
2021/04/11 01:28:34.000    455571.3097   3639410.9537   5200658.7945   1   8   0.0075   0.0118   0.0150   0.0014   0.0071   0.0049   4.00    3.5
2021/04/11 01:28:36.000    455571.3089   3639410.9533   5200658.7927   1   8   0.0088   0.0136   0.0173  -0.0020   0.0080   0.0059   6.00    3.7
2021/04/11 01:28:39.000    455571.3068   3639410.9516   5200658.7889   1   8   0.0110   0.0167   0.0215  -0.0038   0.0096   0.0079   9.00    3.8
2021/04/11 01:28:42.000    455571.3059   3639410.9493   5200658.7845   1   8   0.0133   0.0201   0.0263  -0.0052   0.0116   0.0099  12.00    3.8
2021/04/11 01:28:45.000    455571.3042   3639410.9527   5200658.7830   1   8   0.0158   0.0237   0.0314  -0.0065   0.0138   0.0121  15.00    3.9
2021/04/11 01:28:47.000    455571.3022   3639410.9513   5200658.7821   1   8   0.0175   0.0262   0.0349  -0.0073   0.0152   0.0136  17.00    3.9
2021/04/11 01:28:49.000    455571.3008   3639410.9518   5200658.7798   1   8   0.0192   0.0287   0.0384  -0.0081   0.0167   0.0150  19.00    3.9
2021/04/11 01:28:52.000    455571.2981   3639410.9493   5200658.7797   1   8   0.0218   0.0326   0.0438  -0.0093   0.0191   0.0172  22.00    4.0
2021/04/11 01:28:55.000    455571.2965   3639410.9477   5200658.7821   1   8   0.0245   0.0365   0.0492  -0.0106   0.0214   0.0195  25.00    4.0
2021/04/11 01:28:58.000    455571.2947   3639410.9467   5200658.7816   1   8   0.0272   0.0405   0.0547  -0.0118   0.0238   0.0217  28.00    4.1
2021/04/11 01:29:00.000    455571.3131   3639410.9516   5200658.8000   1   8   0.0061   0.0099   0.0128   0.0024   0.0062   0.0037   0.00    4.5
2021/04/11 01:29:02.000    455571.3100   3639410.9540   5200658.8004   1   8   0.0066   0.0105   0.0134   0.0023   0.0065   0.0040   2.00    4.8
2021/04/11 01:29:05.000    455571.3086   3639410.9497   5200658.7984   1   8   0.0082   0.0127   0.0160  -0.0011   0.0075   0.0054   5.00    5.0
2021/04/11 01:29:08.000    455571.3091   3639410.9538   5200658.7982   1   8   0.0102   0.0156   0.0200  -0.0033   0.0090   0.0072   8.00    5.2
2021/04/11 01:29:11.000    455571.3079   3639410.9526   5200658.7996   1   8   0.0125   0.0190   0.0246  -0.0047   0.0109   0.0092  11.00    5.4
2021/04/11 01:29:13.000    455571.3067   3639410.9515   5200658.7971   1   8   0.0142   0.0213   0.0279  -0.0056   0.0123   0.0106  13.00    5.5
2021/04/11 01:29:15.000    455571.3046   3639410.9523   5200658.7958   1   8   0.0158   0.0237   0.0313  -0.0065   0.0137   0.0121  15.00    5.7
2021/04/11 01:29:18.000    455571.3011   3639410.9552   5200658.7980   1   8   0.0184   0.0275   0.0365  -0.0078   0.0159   0.0142  18.00    5.8
2021/04/11 01:29:21.000    455571.2999   3639410.9561   5200658.7932   1   8   0.0210   0.0313   0.0418  -0.0090   0.0182   0.0164  21.00    5.9
2021/04/11 01:29:28.000    455571.2961   3639410.9534   5200658.7896   1   8   0.0272   0.0405   0.0545  -0.0119   0.0237   0.0216  28.00    6.0
2021/04/11 01:29:31.000    455571.3111   3639410.9495   5200658.8020   1   8   0.0062   0.0101   0.0129   0.0024   0.0063   0.0038   1.00    6.3
2021/04/11 01:29:34.000    455571.3094   3639410.9498   5200658.7957   1   8   0.0075   0.0119   0.0150   0.0011   0.0070   0.0049   4.00    6.6
2021/04/11 01:29:35.000    455571.3097   3639410.9490   5200658.7938   1   8   0.0082   0.0127   0.0160  -0.0010   0.0074   0.0054   5.00    7.0
2021/04/11 01:29:37.000    455571.3079   3639410.9508   5200658.7942   1   8   0.0095   0.0146   0.0185  -0.0027   0.0084   0.0066   7.00    7.3
2021/04/11 01:29:40.000    455571.3061   3639410.9519   5200658.7934   1   8   0.0117   0.0178   0.0230  -0.0043   0.0101   0.0085  10.00    7.4
2021/04/11 01:29:43.000    455571.3083   3639410.9511   5200658.7914   1   8   0.0142   0.0213   0.0278  -0.0057   0.0122   0.0106  13.00    7.5
2021/04/11 01:29:46.000    455571.3084   3639410.9520   5200658.7907   1   8   0.0167   0.0250   0.0329  -0.0070   0.0143   0.0127  16.00    7.5
2021/04/11 01:29:49.000    455571.3077   3639410.9481   5200658.7840   1   8   0.0192   0.0287   0.0382  -0.0082   0.0166   0.0149  19.00    7.6
2021/04/11 01:29:52.000    455571.3074   3639410.9499   5200658.7852   1   8   0.0218   0.0326   0.0435  -0.0095   0.0189   0.0171  22.00    7.6
2021/04/11 01:29:55.000    455571.3054   3639410.9502   5200658.7819   1   8   0.0245   0.0365   0.0489  -0.0108   0.0212   0.0193  25.00    7.6
2021/04/11 01:29:58.000    455571.3053   3639410.9489   5200658.7823   1   8   0.0272   0.0405   0.0543  -0.0120   0.0236   0.0215  28.00    7.5
2021/04/11 01:30:00.000    455571.3113   3639410.9532   5200658.7978   1   8   0.0062   0.0100   0.0128   0.0024   0.0062   0.0037   0.00    7.8
2021/04/11 01:30:03.000    455571.3112   3639410.9529   5200658.7957   1   8   0.0070   0.0111   0.0141   0.0018   0.0066   0.0044   3.00    8.1
2021/04/11 01:30:06.000    455571.3102   3639410.9509   5200658.7896   1   8   0.0088   0.0137   0.0172  -0.0021   0.0078   0.0060   6.00    8.1
2021/04/11 01:30:09.000    455571.3082   3639410.9493   5200658.7896   1   8   0.0110   0.0167   0.0214  -0.0038   0.0094   0.0079   9.00    8.2
2021/04/11 01:30:12.000    455571.3078   3639410.9492   5200658.7854   1   8   0.0133   0.0201   0.0261  -0.0052   0.0114   0.0099  12.00    8.1
2021/04/11 01:30:15.000    455571.3051   3639410.9483   5200658.7877   1   8   0.0158   0.0237   0.0311  -0.0066   0.0135   0.0120  15.00    7.9
2021/04/11 01:30:18.000    455571.3027   3639410.9473   5200658.7846   1   8   0.0184   0.0275   0.0363  -0.0079   0.0158   0.0141  18.00    7.8
2021/04/11 01:30:21.000    455571.3050   3639410.9481   5200658.7883   1   8   0.0210   0.0313   0.0416  -0.0092   0.0181   0.0163  21.00    7.6
2021/04/11 01:30:23.000    455571.3027   3639410.9497   5200658.7857   1   8   0.0227   0.0339   0.0452  -0.0100   0.0196   0.0177  23.00    7.4
2021/04/11 01:30:26.000    455571.3016   3639410.9496   5200658.7865   1   8   0.0254   0.0378   0.0505  -0.0113   0.0219   0.0199  26.00    7.3
2021/04/11 01:30:29.000    455571.2996   3639410.9496   5200658.7841   1   8   0.0281   0.0418   0.0560  -0.0126   0.0243   0.0221  29.00    7.2
2021/04/11 01:30:32.000    455571.3111   3639410.9530   5200658.8023   1   8   0.0066   0.0105   0.0134   0.0022   0.0063   0.0041   2.00    7.1
2021/04/11 01:30:35.000    455571.3067   3639410.9539   5200658.7988   1   8   0.0082   0.0128   0.0160  -0.0008   0.0073   0.0054   5.00    7.0
2021/04/11 01:30:38.000    455571.3040   3639410.9574   5200658.7980   1   8   0.0103   0.0157   0.0199  -0.0033   0.0088   0.0072   8.00    6.9
2021/04/11 01:30:41.000    455571.3035   3639410.9587   5200658.7964   1   8   0.0126   0.0190   0.0244  -0.0048   0.0107   0.0092  11.00    6.8
2021/04/11 01:30:44.000    455571.3001   3639410.9594   5200658.7990   1   8   0.0150   0.0225   0.0293  -0.0062   0.0128   0.0112  14.00    6.8
2021/04/11 01:30:47.000    455571.2994   3639410.9627   5200658.8005   1   8   0.0175   0.0262   0.0344  -0.0075   0.0149   0.0133  17.00    6.7
2021/04/11 01:30:53.000    455571.2964   3639410.9730   5200658.7984   1   8   0.0227   0.0339   0.0450  -0.0101   0.0195   0.0176  23.00    6.7
2021/04/11 01:30:55.000    455571.2936   3639410.9730   5200658.7989   1   8   0.0245   0.0365   0.0486  -0.0109   0.0211   0.0190  25.00    6.7
2021/04/11 01:30:56.000    455571.2933   3639410.9728   5200658.7959   1   8   0.0254   0.0378   0.0504  -0.0114   0.0219   0.0198  26.00    6.7
2021/04/11 01:30:58.000    455571.2903   3639410.9769   5200658.7989   1   8   0.0272   0.0405   0.0540  -0.0122   0.0234   0.0212  28.00    6.6
2021/04/11 01:30:59.000    455571.2889   3639410.9774   5200658.7953   1   8   0.0280   0.0418   0.0558  -0.0127   0.0242   0.0219  29.00    6.6
2021/04/11 01:31:00.000    455571.3108   3639410.9508   5200658.8007   1   8   0.0062   0.0100   0.0128   0.0023   0.0061   0.0037   0.00    6.7
2021/04/11 01:31:05.000    455571.3083   3639410.9548   5200658.8009   1   8   0.0082   0.0128   0.0160  -0.0007   0.0072   0.0055   5.00    6.7
2021/04/11 01:31:07.000    455571.3097   3639410.9591   5200658.7998   1   8   0.0096   0.0147   0.0185  -0.0027   0.0082   0.0066   7.00    6.6
2021/04/11 01:31:11.000    455571.3073   3639410.9587   5200658.7958   1   8   0.0126   0.0190   0.0244  -0.0048   0.0106   0.0092  11.00    6.6
2021/04/11 01:31:14.000    455571.3072   3639410.9605   5200658.7922   1   8   0.0150   0.0225   0.0293  -0.0062   0.0127   0.0112  14.00    6.6
2021/04/11 01:31:20.000    455571.3042   3639410.9550   5200658.7850   1   8   0.0201   0.0300   0.0396  -0.0089   0.0171   0.0154  20.00    6.7
2021/04/11 01:31:22.000    455571.3048   3639410.9588   5200658.7867   1   8   0.0218   0.0326   0.0431  -0.0097   0.0187   0.0168  22.00    6.7
2021/04/11 01:31:24.000    455571.3025   3639410.9568   5200658.7827   1   8   0.0236   0.0352   0.0466  -0.0106   0.0202   0.0182  24.00    6.8
2021/04/11 01:31:27.000    455571.3047   3639410.9552   5200658.7799   1   8   0.0263   0.0391   0.0520  -0.0119   0.0226   0.0204  27.00    6.8
2021/04/11 01:31:29.000    455571.3041   3639410.9565   5200658.7770   1   8   0.0280   0.0418   0.0556  -0.0128   0.0241   0.0218  29.00    6.8
2021/04/11 01:31:31.000    455571.3134   3639410.9500   5200658.7989   1   8   0.0063   0.0101   0.0130   0.0025   0.0061   0.0039   1.00    6.8
2021/04/11 01:31:33.000    455571.3132   3639410.9507   5200658.7964   1   8   0.0071   0.0112   0.0141   0.0020   0.0065   0.0046   3.00    6.7
2021/04/11 01:31:36.000    455571.3114   3639410.9475   5200658.7953   1   8   0.0089   0.0137   0.0172  -0.0020   0.0076   0.0060   6.00    6.7
2021/04/11 01:31:38.000    455571.3117   3639410.9504   5200658.7908   1   8   0.0103   0.0157   0.0198  -0.0033   0.0087   0.0072   8.00    6.6
2021/04/11 01:31:42.000    455571.3089   3639410.9493   5200658.7905   1   8   0.0134   0.0202   0.0259  -0.0053   0.0112   0.0098  12.00    6.6
2021/04/11 01:31:44.000    455571.3092   3639410.9508   5200658.7888   1   8   0.0150   0.0225   0.0292  -0.0063   0.0126   0.0112  14.00    6.6
2021/04/11 01:31:46.000    455571.3059   3639410.9545   5200658.7851   1   8   0.0167   0.0250   0.0325  -0.0071   0.0141   0.0125  16.00    6.5
2021/04/11 01:31:48.000    455571.3058   3639410.9584   5200658.7881   1   8   0.0184   0.0275   0.0360  -0.0081   0.0156   0.0139  18.00    6.5
2021/04/11 01:31:51.000    455571.3044   3639410.9574   5200658.7851   1   8   0.0210   0.0313   0.0412  -0.0094   0.0178   0.0160  21.00    6.4
2021/04/11 01:31:55.000    455571.2996   3639410.9629   5200658.7837   1   8   0.0245   0.0365   0.0483  -0.0111   0.0209   0.0188  25.00    6.4
2021/04/11 01:31:57.000    455571.2976   3639410.9631   5200658.7809   1   8   0.0262   0.0391   0.0518  -0.0120   0.0225   0.0202  27.00    6.4
2021/04/11 01:31:59.000    455571.2959   3639410.9647   5200658.7800   1   8   0.0280   0.0418   0.0554  -0.0129   0.0240   0.0217  29.00    6.3
2021/04/11 01:32:01.000    455571.3118   3639410.9529   5200658.8024   1   8   0.0064   0.0102   0.0130   0.0026   0.0061   0.0039   1.00    6.4
2021/04/11 01:32:04.000    455571.3125   3639410.9537   5200658.7970   1   8   0.0076   0.0120   0.0150   0.0014   0.0068   0.0050   4.00    6.5
2021/04/11 01:32:08.000    455571.3109   3639410.9501   5200658.7831   1   8   0.0103   0.0157   0.0198  -0.0033   0.0086   0.0073   8.00    6.5
2021/04/11 01:32:10.000    455571.3103   3639410.9513   5200658.7834   1   8   0.0118   0.0179   0.0227  -0.0044   0.0098   0.0085  10.00    6.4
2021/04/11 01:32:12.000    455571.3091   3639410.9485   5200658.7795   1   8   0.0134   0.0202   0.0259  -0.0053   0.0112   0.0098  12.00    6.5
2021/04/11 01:32:14.000    455571.3086   3639410.9475   5200658.7782   1   8   0.0150   0.0226   0.0291  -0.0063   0.0126   0.0112  14.00    6.5
2021/04/11 01:32:17.000    455571.3072   3639410.9504   5200658.7745   1   8   0.0175   0.0262   0.0342  -0.0077   0.0147   0.0132  17.00    6.5
2021/04/11 01:32:21.000    455571.3068   3639410.9505   5200658.7696   1   8   0.0210   0.0313   0.0411  -0.0094   0.0178   0.0159  21.00    6.5
2021/04/11 01:32:23.000    455571.3028   3639410.9492   5200658.7653   1   8   0.0227   0.0339   0.0446  -0.0103   0.0193   0.0173  23.00    6.5
2021/04/11 01:32:25.000    455571.3007   3639410.9502   5200658.7656   1   8   0.0245   0.0365   0.0481  -0.0112   0.0208   0.0187  25.00    6.4
2021/04/11 01:32:27.000    455571.2985   3639410.9527   5200658.7609   1   8   0.0262   0.0391   0.0517  -0.0121   0.0224   0.0201  27.00    6.4
2021/04/11 01:32:30.000    455571.3140   3639410.9522   5200658.8020   1   8   0.0063   0.0101   0.0129   0.0024   0.0060   0.0039   0.00    6.5
2021/04/11 01:32:34.000    455571.3166   3639410.9453   5200658.7918   1   8   0.0077   0.0120   0.0150   0.0015   0.0067   0.0050   4.00    6.6
2021/04/11 01:32:36.000    455571.3182   3639410.9444   5200658.7920   1   8   0.0089   0.0138   0.0171  -0.0019   0.0075   0.0061   6.00    6.7
2021/04/11 01:32:38.000    455571.3218   3639410.9404   5200658.7849   1   8   0.0103   0.0158   0.0198  -0.0033   0.0085   0.0073   8.00    6.7
2021/04/11 01:32:40.000    455571.3236   3639410.9391   5200658.7804   1   8   0.0118   0.0179   0.0227  -0.0044   0.0098   0.0085  10.00    6.8
2021/04/11 01:32:43.000    455571.3245   3639410.9346   5200658.7745   1   8   0.0142   0.0214   0.0274  -0.0059   0.0118   0.0105  13.00    6.8
2021/04/11 01:32:51.000    455571.3272   3639410.9284   5200658.7655   1   8   0.0210   0.0313   0.0410  -0.0095   0.0177   0.0159  21.00    6.8
2021/04/11 01:32:53.000    455571.3255   3639410.9265   5200658.7643   1   8   0.0227   0.0339   0.0445  -0.0104   0.0192   0.0172  23.00    6.9
2021/04/11 01:32:56.000    455571.3241   3639410.9277   5200658.7645   1   8   0.0254   0.0378   0.0497  -0.0118   0.0215   0.0193  26.00    6.9
2021/04/11 01:32:58.000    455571.3217   3639410.9257   5200658.7572   1   8   0.0271   0.0405   0.0533  -0.0126   0.0231   0.0207  28.00    7.0
2021/04/11 01:33:03.000    455571.3128   3639410.9522   5200658.8007   1   8   0.0071   0.0112   0.0141   0.0020   0.0064   0.0046   3.00    7.1
2021/04/11 01:33:10.000    455571.3092   3639410.9568   5200658.7947   1   8   0.0118   0.0179   0.0227  -0.0044   0.0097   0.0085  10.00    7.2
2021/04/11 01:33:13.000    455571.3079   3639410.9595   5200658.7954   1   8   0.0142   0.0214   0.0273  -0.0059   0.0117   0.0104  13.00    7.3
2021/04/11 01:33:17.000    455571.3069   3639410.9605   5200658.7973   1   8   0.0175   0.0263   0.0340  -0.0078   0.0146   0.0131  17.00    7.4
2021/04/11 01:33:20.000    455571.3053   3639410.9628   5200658.7941   1   8   0.0201   0.0300   0.0391  -0.0091   0.0169   0.0151  20.00    7.5
2021/04/11 01:33:23.000    455571.3044   3639410.9616   5200658.7901   1   8   0.0227   0.0339   0.0443  -0.0105   0.0192   0.0171  23.00    7.6
2021/04/11 01:33:27.000    455571.3024   3639410.9665   5200658.7845   1   8   0.0262   0.0391   0.0513  -0.0123   0.0222   0.0199  27.00    7.6
2021/04/11 01:33:29.000    455571.2982   3639410.9683   5200658.7814   1   8   0.0280   0.0418   0.0549  -0.0132   0.0238   0.0213  29.00    7.7
2021/04/11 01:33:32.000    455571.3146   3639410.9523   5200658.7974   1   8   0.0067   0.0107   0.0135   0.0023   0.0061   0.0042   2.00    8.0
2021/04/11 01:33:33.000    455571.3151   3639410.9499   5200658.7954   1   8   0.0071   0.0113   0.0141   0.0021   0.0063   0.0046   3.00    8.1
2021/04/11 01:33:34.000    455571.3144   3639410.9495   5200658.7955   1   8   0.0077   0.0120   0.0150   0.0015   0.0066   0.0051   4.00    8.3
2021/04/11 01:33:37.000    455571.3129   3639410.9510   5200658.7919   1   8   0.0096   0.0148   0.0184  -0.0027   0.0079   0.0067   7.00    8.4
2021/04/11 01:33:39.000    455571.3090   3639410.9533   5200658.7912   1   8   0.0110   0.0168   0.0211  -0.0039   0.0090   0.0079   9.00    8.5
2021/04/11 01:33:41.000    455571.3068   3639410.9525   5200658.7884   1   8   0.0126   0.0191   0.0241  -0.0049   0.0103   0.0091  11.00    8.5
2021/04/11 01:33:43.000    455571.3045   3639410.9562   5200658.7871   1   8   0.0142   0.0214   0.0273  -0.0059   0.0117   0.0104  13.00    8.5
2021/04/11 01:33:45.000    455571.3006   3639410.9560   5200658.7886   1   8   0.0158   0.0238   0.0305  -0.0069   0.0131   0.0117  15.00    8.6
2021/04/11 01:33:48.000    455571.2962   3639410.9602   5200658.7855   1   8   0.0184   0.0275   0.0356  -0.0083   0.0153   0.0137  18.00    8.6
2021/04/11 01:33:50.000    455571.2907   3639410.9622   5200658.7795   1   8   0.0201   0.0301   0.0390  -0.0092   0.0168   0.0150  20.00    8.6
2021/04/11 01:33:52.000    455571.2905   3639410.9623   5200658.7789   1   8   0.0218   0.0326   0.0424  -0.0101   0.0183   0.0164  22.00    8.7
2021/04/11 01:33:54.000    455571.2875   3639410.9659   5200658.7767   1   8   0.0236   0.0352   0.0459  -0.0110   0.0199   0.0177  24.00    8.8
2021/04/11 01:33:59.000    455571.2815   3639410.9623   5200658.7688   1   8   0.0280   0.0418   0.0547  -0.0133   0.0237   0.0211  29.00    8.8
2021/04/11 01:34:01.000    455571.3142   3639410.9534   5200658.7991   1   8   0.0063   0.0103   0.0131   0.0024   0.0059   0.0041   1.00    9.1
2021/04/11 01:34:03.000    455571.3127   3639410.9532   5200658.7921   1   8   0.0072   0.0113   0.0142   0.0020   0.0063   0.0046   3.00    9.3
2021/04/11 01:34:05.000    455571.3135   3639410.9503   5200658.7912   1   8   0.0083   0.0129   0.0160  -0.0009   0.0069   0.0057   5.00    9.5
2021/04/11 01:34:07.000    455571.3128   3639410.9449   5200658.7888   1   8   0.0096   0.0148   0.0184  -0.0026   0.0078   0.0067   7.00    9.6
2021/04/11 01:34:11.000    455571.3118   3639410.9450   5200658.7845   1   8   0.0126   0.0191   0.0241  -0.0050   0.0102   0.0091  11.00    9.8
2021/04/11 01:34:13.000    455571.3126   3639410.9432   5200658.7809   1   8   0.0142   0.0214   0.0272  -0.0060   0.0116   0.0104  13.00    9.9
2021/04/11 01:34:16.000    455571.3133   3639410.9450   5200658.7813   1   8   0.0167   0.0250   0.0321  -0.0074   0.0138   0.0123  16.00   10.0
2021/04/11 01:34:18.000    455571.3126   3639410.9436   5200658.7769   1   8   0.0184   0.0275   0.0355  -0.0083   0.0152   0.0136  18.00   10.1
2021/04/11 01:34:20.000    455571.3110   3639410.9406   5200658.7729   1   8   0.0201   0.0301   0.0389  -0.0093   0.0167   0.0150  20.00   10.2
2021/04/11 01:34:26.000    455571.3067   3639410.9444   5200658.7714   1   8   0.0253   0.0378   0.0493  -0.0120   0.0213   0.0190  26.00   10.3
2021/04/11 01:34:28.000    455571.3062   3639410.9446   5200658.7662   1   8   0.0271   0.0405   0.0528  -0.0129   0.0229   0.0203  28.00   10.4
2021/04/11 01:34:30.000    455571.3148   3639410.9589   5200658.7982   1   8   0.0063   0.0101   0.0130   0.0025   0.0059   0.0040   0.00   10.6
2021/04/11 01:34:32.000    455571.3128   3639410.9583   5200658.7935   1   8   0.0067   0.0107   0.0136   0.0023   0.0061   0.0044   2.00   10.7
2021/04/11 01:34:34.000    455571.3118   3639410.9537   5200658.7906   1   8   0.0076   0.0121   0.0150   0.0014   0.0065   0.0051   4.00   10.7
2021/04/11 01:34:36.000    455571.3121   3639410.9563   5200658.7908   1   8   0.0089   0.0139   0.0171  -0.0018   0.0073   0.0062   6.00   10.6
2021/04/11 01:34:39.000    455571.3071   3639410.9556   5200658.7836   1   8   0.0111   0.0169   0.0211  -0.0039   0.0089   0.0079   9.00   10.4
2021/04/11 01:34:41.000    455571.3014   3639410.9470   5200658.7787   1   7   0.0131   0.0274   0.0241   0.0064   0.0119   0.0095  11.00   12.4
2021/04/11 01:34:43.000    455571.3035   3639410.9527   5200658.7793   1   7   0.0147   0.0310   0.0272   0.0068   0.0133   0.0107  13.00   12.3
2021/04/11 01:34:46.000    455571.3001   3639410.9481   5200658.7735   1   7   0.0172   0.0366   0.0321   0.0074   0.0154   0.0126  16.00   12.2
2021/04/11 01:34:49.000    455571.2950   3639410.9460   5200658.7728   1   7   0.0198   0.0424   0.0371   0.0081   0.0177   0.0145  19.00   12.2
2021/04/11 01:34:51.000    455571.2936   3639410.9420   5200658.7655   1   7   0.0215   0.0463   0.0405   0.0085   0.0192   0.0158  21.00   12.2
2021/04/11 01:34:53.000    455571.2916   3639410.9444   5200658.7681   1   7   0.0233   0.0502   0.0440   0.0090   0.0208   0.0172  23.00   12.1
2021/04/11 01:34:55.000    455571.2882   3639410.9477   5200658.7687   1   7   0.0251   0.0542   0.0474   0.0095   0.0224   0.0185  25.00   12.1
2021/04/11 01:34:58.000    455571.2891   3639410.9471   5200658.7658   1   7   0.0278   0.0602   0.0527   0.0103   0.0248   0.0205  28.00   12.1
2021/04/11 01:35:01.000    455571.3162   3639410.9546   5200658.7963   1   7   0.0068   0.0132   0.0134   0.0049   0.0072   0.0046   1.00   12.2
2021/04/11 01:35:03.000    455571.3145   3639410.9545   5200658.7923   1   7   0.0075   0.0149   0.0144   0.0052   0.0077   0.0052   3.00   12.0
2021/04/11 01:35:07.000    455571.3083   3639410.9538   5200658.7882   1   7   0.0100   0.0206   0.0185   0.0058   0.0094   0.0072   7.00   11.8
2021/04/11 01:35:11.000    455571.3058   3639410.9544   5200658.7866   1   7   0.0131   0.0274   0.0241   0.0064   0.0118   0.0094  11.00   11.7
2021/04/11 01:35:13.000    455571.3068   3639410.9556   5200658.7876   1   7   0.0147   0.0310   0.0272   0.0067   0.0132   0.0107  13.00   11.7
2021/04/11 01:35:19.000    455571.3083   3639410.9552   5200658.7857   1   7   0.0198   0.0425   0.0370   0.0079   0.0176   0.0145  19.00   11.7
2021/04/11 01:35:23.000    455571.3076   3639410.9568   5200658.7776   1   7   0.0233   0.0503   0.0438   0.0088   0.0207   0.0171  23.00   11.7
2021/04/11 01:35:25.000    455571.3049   3639410.9541   5200658.7769   1   7   0.0251   0.0543   0.0473   0.0092   0.0223   0.0184  25.00   11.7
2021/04/11 01:35:26.000    455571.3035   3639410.9575   5200658.7739   1   7   0.0260   0.0563   0.0490   0.0095   0.0231   0.0191  26.00   11.7
2021/04/11 01:35:28.000    455571.3042   3639410.9576   5200658.7764   1   7   0.0278   0.0603   0.0525   0.0099   0.0247   0.0204  28.00   11.7
2021/04/11 01:35:32.000    455571.3149   3639410.9566   5200658.7992   1   7   0.0070   0.0139   0.0138   0.0050   0.0074   0.0049   2.00   11.7
2021/04/11 01:35:34.000    455571.3129   3639410.9619   5200658.7990   1   7   0.0081   0.0162   0.0152   0.0054   0.0080   0.0056   4.00   11.8
2021/04/11 01:35:36.000    455571.3130   3639410.9618   5200658.7931   1   7   0.0094   0.0191   0.0173   0.0056   0.0088   0.0066   6.00   11.9
2021/04/11 01:35:39.000    455571.3101   3639410.9694   5200658.7955   1   7   0.0115   0.0240   0.0211   0.0061   0.0105   0.0083   9.00   12.0
2021/04/11 01:35:42.000    455571.3085   3639410.9752   5200658.7930   1   7   0.0139   0.0293   0.0256   0.0065   0.0124   0.0100  12.00   12.0
2021/04/11 01:35:44.000    455571.3055   3639410.9765   5200658.7938   1   7   0.0155   0.0330   0.0287   0.0068   0.0138   0.0112  14.00   12.1
2021/04/11 01:35:47.000    455571.3034   3639410.9787   5200658.7879   1   7   0.0180   0.0387   0.0336   0.0073   0.0160   0.0131  17.00   12.1
2021/04/11 01:35:49.000    455571.3046   3639410.9750   5200658.7856   1   7   0.0197   0.0425   0.0369   0.0077   0.0175   0.0144  19.00   12.2
2021/04/11 01:35:50.000    455571.3024   3639410.9788   5200658.7857   1   7   0.0206   0.0445   0.0386   0.0079   0.0183   0.0150  20.00   12.2
2021/04/11 01:35:52.000    455571.3034   3639410.9777   5200658.7805   1   7   0.0224   0.0484   0.0420   0.0083   0.0198   0.0163  22.00   12.3
2021/04/11 01:35:55.000    455571.3031   3639410.9765   5200658.7782   1   7   0.0251   0.0544   0.0471   0.0089   0.0222   0.0183  25.00   12.3
2021/04/11 01:35:57.000    455571.3045   3639410.9787   5200658.7768   1   7   0.0269   0.0584   0.0506   0.0094   0.0238   0.0196  27.00   12.3
2021/04/11 01:35:59.000    455571.3033   3639410.9770   5200658.7744   1   7   0.0287   0.0624   0.0540   0.0098   0.0254   0.0209  29.00   12.4
2021/04/11 01:36:01.000    455571.3196   3639410.9587   5200658.8000   1   7   0.0068   0.0133   0.0134   0.0049   0.0071   0.0046   1.00   12.5
2021/04/11 01:36:03.000    455571.3169   3639410.9598   5200658.7939   1   7   0.0075   0.0150   0.0144   0.0052   0.0076   0.0053   3.00   12.5
2021/04/11 01:36:04.000    455571.3196   3639410.9604   5200658.7938   1   7   0.0081   0.0162   0.0152   0.0053   0.0079   0.0057   4.00   12.7
2021/04/11 01:36:06.000    455571.3186   3639410.9592   5200658.7916   1   7   0.0094   0.0191   0.0173   0.0057   0.0088   0.0066   6.00   12.9
2021/04/11 01:36:08.000    455571.3185   3639410.9591   5200658.7910   1   7   0.0108   0.0223   0.0198   0.0059   0.0098   0.0077   8.00   13.1
2021/04/11 01:36:10.000    455571.3176   3639410.9600   5200658.7882   1   7   0.0123   0.0258   0.0225   0.0062   0.0110   0.0088  10.00   13.2
2021/04/11 01:36:12.000    455571.3195   3639410.9608   5200658.7902   1   7   0.0139   0.0294   0.0255   0.0064   0.0124   0.0100  12.00   13.4
2021/04/11 01:36:14.000    455571.3203   3639410.9620   5200658.7861   1   7   0.0155   0.0331   0.0286   0.0067   0.0137   0.0112  14.00   13.5
2021/04/11 01:36:17.000    455571.3208   3639410.9640   5200658.7849   1   7   0.0180   0.0388   0.0335   0.0072   0.0159   0.0130  17.00   13.6
2021/04/11 01:36:18.000    455571.3212   3639410.9645   5200658.7833   1   7   0.0189   0.0407   0.0352   0.0074   0.0167   0.0137  18.00   13.7
2021/04/11 01:36:21.000    455571.3237   3639410.9655   5200658.7852   1   7   0.0215   0.0466   0.0402   0.0079   0.0190   0.0156  21.00   13.9
2021/04/11 01:36:23.000    455571.3231   3639410.9658   5200658.7840   1   7   0.0233   0.0505   0.0436   0.0083   0.0205   0.0169  23.00   13.9
2021/04/11 01:36:25.000    455571.3223   3639410.9671   5200658.7827   1   7   0.0250   0.0545   0.0470   0.0086   0.0221   0.0182  25.00   14.0
2021/04/11 01:36:27.000    455571.3246   3639410.9696   5200658.7789   1   7   0.0268   0.0585   0.0504   0.0090   0.0237   0.0195  27.00   14.2
2021/04/11 01:36:29.000    455571.3268   3639410.9713   5200658.7823   1   7   0.0287   0.0626   0.0539   0.0094   0.0253   0.0208  29.00   14.3
2021/04/11 01:36:31.000    455571.3178   3639410.9601   5200658.8050   1   7   0.0069   0.0133   0.0134   0.0049   0.0071   0.0047   1.00   14.2
2021/04/11 01:36:34.000    455571.3160   3639410.9667   5200658.8012   1   7   0.0081   0.0163   0.0152   0.0054   0.0079   0.0057   4.00   14.2
2021/04/11 01:36:38.000    455571.3150   3639410.9733   5200658.8024   1   7   0.0108   0.0224   0.0198   0.0059   0.0098   0.0077   8.00   14.2
2021/04/11 01:36:40.000    455571.3167   3639410.9801   5200658.8037   1   7   0.0123   0.0258   0.0225   0.0062   0.0110   0.0088  10.00   14.2
2021/04/11 01:36:42.000    455571.3141   3639410.9792   5200658.8020   1   7   0.0139   0.0294   0.0255   0.0064   0.0123   0.0100  12.00   14.2
2021/04/11 01:36:44.000    455571.3139   3639410.9823   5200658.8042   1   7   0.0155   0.0331   0.0286   0.0066   0.0137   0.0112  14.00   14.2
2021/04/11 01:36:46.000    455571.3130   3639410.9852   5200658.8008   1   7   0.0172   0.0369   0.0318   0.0069   0.0151   0.0124  16.00   14.2
2021/04/11 01:36:49.000    455571.3096   3639410.9888   5200658.8007   1   7   0.0197   0.0427   0.0367   0.0074   0.0174   0.0142  19.00   14.2
2021/04/11 01:36:51.000    455571.3090   3639410.9933   5200658.7977   1   7   0.0215   0.0467   0.0401   0.0077   0.0189   0.0155  21.00   14.2
2021/04/11 01:36:55.000    455571.3061   3639410.9964   5200658.7989   1   7   0.0250   0.0546   0.0468   0.0083   0.0220   0.0180  25.00   14.2
2021/04/11 01:36:58.000    455571.3029   3639410.9992   5200658.7964   1   7   0.0277   0.0607   0.0520   0.0088   0.0244   0.0200  28.00   14.3
2021/04/11 01:37:01.000    455571.3193   3639410.9623   5200658.8115   1   7   0.0067   0.0133   0.0135   0.0049   0.0071   0.0047   1.00   14.2
2021/04/11 01:37:03.000    455571.3179   3639410.9603   5200658.8043   1   7   0.0075   0.0150   0.0145   0.0053   0.0075   0.0053   3.00   14.1
2021/04/11 01:37:05.000    455571.3158   3639410.9606   5200658.8064   1   7   0.0087   0.0177   0.0162   0.0055   0.0082   0.0062   5.00   14.0
2021/04/11 01:37:08.000    455571.3092   3639410.9622   5200658.8015   1   7   0.0108   0.0225   0.0197   0.0059   0.0097   0.0077   8.00   14.0
2021/04/11 01:37:11.000    455571.3070   3639410.9653   5200658.8011   1   7   0.0131   0.0277   0.0240   0.0062   0.0116   0.0094  11.00   13.9
2021/04/11 01:37:16.000    455571.3042   3639410.9594   5200658.7939   1   7   0.0172   0.0370   0.0317   0.0068   0.0150   0.0123  16.00   13.9
2021/04/11 01:37:18.000    455571.3029   3639410.9603   5200658.7877   1   7   0.0189   0.0409   0.0350   0.0070   0.0165   0.0135  18.00   13.9
2021/04/11 01:37:21.000    455571.3037   3639410.9674   5200658.7901   1   7   0.0215   0.0468   0.0399   0.0074   0.0188   0.0154  21.00   13.9
2021/04/11 01:37:23.000    455571.3063   3639410.9685   5200658.7907   1   7   0.0232   0.0507   0.0433   0.0077   0.0203   0.0166  23.00   13.9
2021/04/11 01:37:24.000    455571.3059   3639410.9753   5200658.7944   1   7   0.0241   0.0527   0.0450   0.0079   0.0211   0.0173  24.00   13.9
2021/04/11 01:37:26.000    455571.3060   3639410.9711   5200658.7916   1   7   0.0259   0.0567   0.0484   0.0081   0.0227   0.0186  26.00   13.9
2021/04/11 01:37:33.000    455571.3194   3639410.9595   5200658.8066   1   7   0.0075   0.0151   0.0145   0.0052   0.0075   0.0054   3.00   13.9
2021/04/11 01:37:36.000    455571.3181   3639410.9546   5200658.7990   1   7   0.0094   0.0193   0.0173   0.0057   0.0086   0.0067   6.00   13.7
2021/04/11 01:37:39.000    455571.3176   3639410.9522   5200658.7976   1   7   0.0115   0.0242   0.0211   0.0060   0.0102   0.0083   9.00   13.3
2021/04/11 01:37:41.000    455571.3205   3639410.9509   5200658.7981   1   7   0.0131   0.0278   0.0239   0.0062   0.0115   0.0094  11.00   13.1
2021/04/11 01:37:44.000    455571.3167   3639410.9490   5200658.7926   1   7   0.0155   0.0333   0.0285   0.0065   0.0135   0.0111  14.00   12.9
2021/04/11 01:37:46.000    455571.3173   3639410.9475   5200658.7906   1   7   0.0171   0.0371   0.0317   0.0067   0.0150   0.0123  16.00   12.7
2021/04/11 01:37:49.000    455571.3148   3639410.9504   5200658.7897   1   7   0.0197   0.0429   0.0365   0.0070   0.0172   0.0141  19.00   12.5
2021/04/11 01:37:51.000    455571.3135   3639410.9510   5200658.7899   1   7   0.0215   0.0469   0.0398   0.0072   0.0187   0.0153  21.00   12.4
2021/04/11 01:37:54.000    455571.3165   3639410.9505   5200658.7853   1   7   0.0241   0.0528   0.0449   0.0076   0.0210   0.0172  24.00   12.3
2021/04/11 01:37:56.000    455571.3177   3639410.9405   5200658.7800   1   7   0.0259   0.0569   0.0483   0.0078   0.0226   0.0184  26.00   12.3
2021/04/11 01:37:57.000    455571.3159   3639410.9370   5200658.7749   1   7   0.0268   0.0589   0.0500   0.0079   0.0234   0.0191  27.00   12.2
2021/04/11 01:38:02.000    455571.3161   3639410.9522   5200658.7990   1   7   0.0071   0.0140   0.0139   0.0051   0.0072   0.0050   2.00   12.3
2021/04/11 01:38:06.000    455571.3147   3639410.9497   5200658.7947   1   7   0.0094   0.0193   0.0173   0.0057   0.0086   0.0068   6.00   12.2
2021/04/11 01:38:08.000    455571.3154   3639410.9418   5200658.7893   1   7   0.0108   0.0226   0.0198   0.0059   0.0096   0.0077   8.00   12.3
2021/04/11 01:38:10.000    455571.3126   3639410.9383   5200658.7856   1   7   0.0123   0.0260   0.0225   0.0061   0.0108   0.0088  10.00   12.3
2021/04/11 01:38:12.000    455571.3153   3639410.9395   5200658.7838   1   7   0.0139   0.0296   0.0254   0.0063   0.0121   0.0099  12.00   12.3
2021/04/11 01:38:13.000    455571.3155   3639410.9357   5200658.7812   1   7   0.0147   0.0315   0.0269   0.0063   0.0128   0.0105  13.00   12.3
2021/04/11 01:38:15.000    455571.3127   3639410.9307   5200658.7766   1   7   0.0163   0.0353   0.0300   0.0065   0.0142   0.0116  15.00   12.3
2021/04/11 01:38:17.000    455571.3127   3639410.9297   5200658.7718   1   7   0.0180   0.0391   0.0332   0.0066   0.0156   0.0128  17.00   12.3
2021/04/11 01:38:20.000    455571.3105   3639410.9279   5200658.7691   1   7   0.0206   0.0450   0.0381   0.0069   0.0179   0.0146  20.00   12.3
2021/04/11 01:38:22.000    455571.3104   3639410.9282   5200658.7668   1   7   0.0223   0.0489   0.0414   0.0071   0.0194   0.0158  22.00   12.3
2021/04/11 01:38:24.000    455571.3121   3639410.9224   5200658.7646   1   7   0.0241   0.0529   0.0447   0.0072   0.0210   0.0171  24.00   12.3
2021/04/11 01:38:26.000    455571.3100   3639410.9192   5200658.7630   1   7   0.0259   0.0570   0.0481   0.0074   0.0225   0.0183  26.00   12.3
2021/04/11 01:38:36.000    455571.3191   3639410.9611   5200658.8065   1   7   0.0094   0.0194   0.0173   0.0057   0.0085   0.0067   6.00   12.4
2021/04/11 01:38:38.000    455571.3181   3639410.9647   5200658.8019   1   7   0.0108   0.0226   0.0198   0.0059   0.0096   0.0077   8.00   12.4
2021/04/11 01:38:39.000    455571.3173   3639410.9635   5200658.7997   1   7   0.0115   0.0243   0.0211   0.0060   0.0101   0.0083   9.00   12.4
2021/04/11 01:38:41.000    455571.3162   3639410.9655   5200658.7991   1   7   0.0131   0.0279   0.0239   0.0061   0.0114   0.0093  11.00   12.4
2021/04/11 01:38:43.000    455571.3158   3639410.9653   5200658.7961   1   7   0.0147   0.0316   0.0269   0.0063   0.0127   0.0104  13.00   12.3
2021/04/11 01:38:46.000    455571.3158   3639410.9675   5200658.7975   1   7   0.0171   0.0373   0.0315   0.0064   0.0148   0.0122  16.00   12.3
2021/04/11 01:38:52.000    455571.3137   3639410.9710   5200658.7984   1   7   0.0223   0.0490   0.0413   0.0068   0.0193   0.0157  22.00   12.2
2021/04/11 01:38:54.000    455571.3131   3639410.9743   5200658.7972   1   7   0.0241   0.0531   0.0446   0.0069   0.0209   0.0170  24.00   12.2
2021/04/11 01:38:56.000    455571.3099   3639410.9735   5200658.7930   1   7   0.0259   0.0571   0.0480   0.0070   0.0224   0.0182  26.00   12.2
2021/04/11 01:38:59.000    455571.3088   3639410.9762   5200658.7899   1   7   0.0285   0.0632   0.0530   0.0072   0.0248   0.0200  29.00   12.2
2021/04/11 01:39:02.000    455571.3174   3639410.9531   5200658.8064   1   7   0.0071   0.0141   0.0140   0.0051   0.0071   0.0051   2.00   12.2
2021/04/11 01:39:03.000    455571.3183   3639410.9560   5200658.8097   1   7   0.0076   0.0152   0.0146   0.0052   0.0074   0.0054   3.00   12.2
2021/04/11 01:39:05.000    455571.3167   3639410.9541   5200658.8054   1   7   0.0088   0.0179   0.0163   0.0055   0.0081   0.0063   5.00   12.1
2021/04/11 01:39:07.000    455571.3160   3639410.9542   5200658.8044   1   7   0.0101   0.0210   0.0185   0.0058   0.0090   0.0073   7.00   12.0
2021/04/11 01:39:09.000    455571.3118   3639410.9547   5200658.8045   1   7   0.0116   0.0244   0.0211   0.0060   0.0101   0.0083   9.00   11.9
2021/04/11 01:39:13.000    455571.3080   3639410.9601   5200658.7987   1   7   0.0147   0.0316   0.0268   0.0062   0.0127   0.0104  13.00   11.8
2021/04/11 01:39:15.000    455571.3056   3639410.9582   5200658.7978   1   7   0.0163   0.0354   0.0299   0.0063   0.0141   0.0115  15.00   11.8
2021/04/11 01:39:19.000    455571.3022   3639410.9541   5200658.7909   1   7   0.0197   0.0432   0.0363   0.0064   0.0170   0.0139  19.00   11.7
2021/04/11 01:39:25.000    455571.2953   3639410.9450   5200658.7781   1   7   0.0250   0.0552   0.0462   0.0066   0.0216   0.0175  25.00   11.7
2021/04/11 01:39:27.000    455571.2946   3639410.9489   5200658.7785   1   7   0.0267   0.0592   0.0495   0.0066   0.0231   0.0187  27.00   11.6
2021/04/11 01:39:29.000    455571.2931   3639410.9509   5200658.7810   1   7   0.0285   0.0633   0.0529   0.0067   0.0247   0.0199  29.00   11.6
2021/04/11 01:39:31.000    455571.3160   3639410.9565   5200658.7976   1   7   0.0068   0.0134   0.0137   0.0049   0.0070   0.0048   1.00   11.9
2021/04/11 01:39:32.000    455571.3166   3639410.9605   5200658.8005   1   7   0.0070   0.0141   0.0141   0.0050   0.0071   0.0050   2.00   12.2
2021/04/11 01:39:35.000    455571.3160   3639410.9587   5200658.7987   1   7   0.0087   0.0179   0.0163   0.0056   0.0080   0.0063   5.00   12.3
2021/04/11 01:39:39.000    455571.3133   3639410.9607   5200658.7968   1   7   0.0116   0.0245   0.0211   0.0060   0.0100   0.0083   9.00   12.5
2021/04/11 01:39:42.000    455571.3111   3639410.9626   5200658.7978   1   7   0.0139   0.0299   0.0253   0.0061   0.0119   0.0098  12.00   12.6
2021/04/11 01:39:44.000    455571.3077   3639410.9627   5200658.7947   1   7   0.0155   0.0336   0.0283   0.0062   0.0133   0.0109  14.00   12.7
2021/04/11 01:39:48.000    455571.3080   3639410.9700   5200658.7962   1   7   0.0188   0.0413   0.0346   0.0062   0.0162   0.0132  18.00   12.8
2021/04/11 01:39:52.000    455571.3059   3639410.9727   5200658.7930   1   7   0.0223   0.0493   0.0411   0.0062   0.0192   0.0156  22.00   12.9
2021/04/11 01:39:54.000    455571.3038   3639410.9726   5200658.7914   1   7   0.0241   0.0533   0.0444   0.0062   0.0207   0.0167  24.00   13.0
2021/04/11 01:40:03.000    455571.3154   3639410.9561   5200658.7948   1   7   0.0076   0.0152   0.0147   0.0052   0.0073   0.0055   3.00   13.1
2021/04/11 01:40:05.000    455571.3148   3639410.9564   5200658.7936   1   7   0.0088   0.0180   0.0164   0.0055   0.0080   0.0064   5.00   13.2
2021/04/11 01:40:07.000    455571.3147   3639410.9547   5200658.7931   1   7   0.0101   0.0211   0.0186   0.0058   0.0089   0.0073   7.00   13.2
2021/04/11 01:40:08.000    455571.3131   3639410.9537   5200658.7922   1   7   0.0109   0.0228   0.0198   0.0059   0.0094   0.0078   8.00   13.2
2021/04/11 01:40:13.000    455571.3086   3639410.9504   5200658.7874   1   7   0.0147   0.0318   0.0267   0.0061   0.0125   0.0104  13.00   13.3
2021/04/11 01:40:16.000    455571.3063   3639410.9526   5200658.7832   1   7   0.0171   0.0375   0.0313   0.0061   0.0147   0.0120  16.00   13.3
2021/04/11 01:40:18.000    455571.3043   3639410.9522   5200658.7818   1   7   0.0188   0.0414   0.0345   0.0060   0.0161   0.0131  18.00   13.3
2021/04/11 01:40:20.000    455571.3019   3639410.9510   5200658.7827   1   7   0.0205   0.0454   0.0377   0.0060   0.0176   0.0143  20.00   13.3
2021/04/11 01:40:22.000    455571.3018   3639410.9531   5200658.7813   1   7   0.0223   0.0494   0.0410   0.0059   0.0191   0.0155  22.00   13.4
2021/04/11 01:40:25.000    455571.2997   3639410.9530   5200658.7766   1   7   0.0249   0.0554   0.0459   0.0057   0.0214   0.0172  25.00   13.4
2021/04/11 01:40:27.000    455571.3010   3639410.9518   5200658.7758   1   7   0.0267   0.0595   0.0492   0.0056   0.0230   0.0184  27.00   13.4
2021/04/11 01:40:30.000    455571.3182   3639410.9541   5200658.7998   1   7   0.0067   0.0132   0.0136   0.0048   0.0069   0.0047   0.00   13.7
2021/04/11 01:40:31.000    455571.3160   3639410.9548   5200658.7988   1   7   0.0067   0.0134   0.0138   0.0048   0.0069   0.0049   1.00   13.8
2021/04/11 01:40:33.000    455571.3163   3639410.9542   5200658.7991   1   7   0.0076   0.0152   0.0147   0.0052   0.0073   0.0055   3.00   14.1
2021/04/11 01:40:35.000    455571.3132   3639410.9528   5200658.7951   1   7   0.0088   0.0180   0.0164   0.0055   0.0079   0.0064   5.00   14.2
2021/04/11 01:40:37.000    455571.3120   3639410.9518   5200658.7929   1   7   0.0101   0.0212   0.0186   0.0058   0.0089   0.0073   7.00   14.3
2021/04/11 01:40:41.000    455571.3075   3639410.9573   5200658.7879   1   7   0.0131   0.0282   0.0238   0.0060   0.0112   0.0093  11.00   14.4
2021/04/11 01:40:43.000    455571.3067   3639410.9560   5200658.7895   1   7   0.0147   0.0319   0.0267   0.0060   0.0125   0.0103  13.00   14.4
2021/04/11 01:40:45.000    455571.3057   3639410.9587   5200658.7869   1   7   0.0163   0.0357   0.0297   0.0060   0.0139   0.0114  15.00   14.4
2021/04/11 01:40:47.000    455571.3027   3639410.9584   5200658.7887   1   7   0.0180   0.0395   0.0328   0.0059   0.0153   0.0125  17.00   14.4
2021/04/11 01:40:49.000    455571.3014   3639410.9619   5200658.7879   1   7   0.0197   0.0435   0.0360   0.0058   0.0168   0.0137  19.00   14.4
2021/04/11 01:40:53.000    455571.2966   3639410.9574   5200658.7818   1   7   0.0232   0.0515   0.0425   0.0055   0.0198   0.0160  23.00   14.4
2021/04/11 01:40:55.000    455571.2963   3639410.9628   5200658.7813   1   7   0.0249   0.0555   0.0458   0.0053   0.0213   0.0171  25.00   14.4
2021/04/11 01:40:59.000    455571.2936   3639410.9633   5200658.7792   1   7   0.0285   0.0637   0.0524   0.0048   0.0244   0.0195  29.00   14.4
2021/04/11 01:41:11.000    455571.3169   3639410.9702   5200658.8003   1   7   0.0131   0.0282   0.0238   0.0060   0.0111   0.0093  11.00   14.4
2021/04/11 01:41:17.000    455571.3191   3639410.9895   5200658.8057   1   7   0.0180   0.0396   0.0328   0.0058   0.0153   0.0125  17.00   14.4
2021/04/11 01:41:19.000    455571.3048   3639410.9860   5200658.7844   1   6   0.0361   0.0636   0.0503   0.0379   0.0437   0.0354  19.00    6.9
2021/04/11 01:41:29.000    455571.3010   3639411.0037   5200658.7866   1   6   0.0541   0.0949   0.0742   0.0570   0.0656   0.0529  29.00    6.9
2021/04/11 01:41:31.000    455571.3159   3639410.9576   5200658.8048   1   6   0.0085   0.0160   0.0164   0.0082   0.0110   0.0083   1.00    7.0
2021/04/11 01:41:35.000    455571.3160   3639410.9633   5200658.7993   1   6   0.0124   0.0229   0.0205   0.0124   0.0153   0.0122   5.00    7.1
2021/04/11 01:41:45.000    455571.3142   3639410.9769   5200658.8022   1   6   0.0288   0.0512   0.0409   0.0300   0.0349   0.0282  15.00    7.2
2021/04/11 01:41:47.000    455571.3135   3639410.9741   5200658.7995   1   6   0.0324   0.0573   0.0454   0.0338   0.0392   0.0317  17.00    7.2
2021/04/11 01:41:49.000    455571.3160   3639410.9712   5200658.7984   1   6   0.0359   0.0635   0.0501   0.0376   0.0435   0.0351  19.00    7.2
2021/04/11 01:41:53.000    455571.3190   3639410.9630   5200658.7912   1   6   0.0430   0.0759   0.0595   0.0451   0.0521   0.0421  23.00    7.2
2021/04/11 01:41:57.000    455571.3188   3639410.9507   5200658.7823   1   6   0.0502   0.0884   0.0691   0.0527   0.0608   0.0490  27.00    7.3
2021/04/11 01:41:59.000    455571.3206   3639410.9545   5200658.7861   1   6   0.0537   0.0947   0.0739   0.0565   0.0652   0.0525  29.00    7.3
2021/04/11 01:42:01.000    455571.3229   3639410.9643   5200658.8051   1   6   0.0085   0.0159   0.0164   0.0081   0.0109   0.0082   1.00    7.4
2021/04/11 01:42:07.000    455571.3200   3639410.9577   5200658.7926   1   6   0.0153   0.0279   0.0239   0.0155   0.0186   0.0150   7.00    7.4
2021/04/11 01:42:09.000    455571.3216   3639410.9540   5200658.7902   1   6   0.0185   0.0334   0.0278   0.0189   0.0224   0.0181   9.00    7.5
2021/04/11 01:42:11.000    455571.3213   3639410.9533   5200658.7882   1   6   0.0218   0.0391   0.0319   0.0224   0.0264   0.0213  11.00    7.5
2021/04/11 01:42:13.000    455571.3221   3639410.9497   5200658.7893   1   6   0.0252   0.0451   0.0362   0.0261   0.0305   0.0247  13.00    7.5
2021/04/11 01:42:15.000    455571.3234   3639410.9452   5200658.7869   1   6   0.0287   0.0511   0.0407   0.0298   0.0347   0.0280  15.00    7.6
2021/04/11 01:42:17.000    455571.3225   3639410.9433   5200658.7840   1   6   0.0321   0.0572   0.0453   0.0335   0.0389   0.0314  17.00    7.6
2021/04/11 01:42:19.000    455571.3231   3639410.9442   5200658.7846   1   6   0.0357   0.0633   0.0499   0.0372   0.0432   0.0349  19.00    7.6
2021/04/11 01:42:21.000    455571.3222   3639410.9421   5200658.7769   1   6   0.0392   0.0695   0.0546   0.0410   0.0475   0.0383  21.00    7.7
2021/04/11 01:42:27.000    455571.3197   3639410.9384   5200658.7744   1   6   0.0498   0.0882   0.0688   0.0522   0.0605   0.0487  27.00    7.7
2021/04/11 01:42:29.000    455571.3194   3639410.9451   5200658.7740   1   6   0.0534   0.0944   0.0736   0.0560   0.0648   0.0521  29.00    7.7
2021/04/11 01:42:33.000    455571.3220   3639410.9654   5200658.8055   1   6   0.0099   0.0185   0.0179   0.0096   0.0124   0.0097   3.00    7.7
2021/04/11 01:42:35.000    455571.3206   3639410.9633   5200658.8009   1   6   0.0123   0.0228   0.0206   0.0122   0.0151   0.0121   5.00    7.7
2021/04/11 01:42:38.000    455571.3193   3639410.9629   5200658.8017   1   6   0.0168   0.0305   0.0258   0.0170   0.0203   0.0164   8.00    7.7
2021/04/11 01:42:40.000    455571.3208   3639410.9698   5200658.8029   1   6   0.0200   0.0361   0.0297   0.0205   0.0242   0.0196  10.00    7.7
