% program   : rnx2rtkp ver.2.4.3 b33
% inp file  : /home/danisimo/post/R1_193.2020-111.2021/R00110718.21o
% inp file  : /home/danisimo/post/NSK1_193.2020-111.2021/NSK11070.21o
% inp file  : /home/danisimo/post/NSK1_193.2020-111.2021/NSK11070.21N
% obs start : 2021/04/17 01:47:09.5 GPST (week2153 524829.5s)
% obs end   : 2021/04/17 11:53:18.0 GPST (week2153 561198.0s)
% ref pos   :   447670.3040   3638117.3850   5202281.5640
%
% (x/y/z-ecef=WGS84,Q=1:fix,2:float,3:sbas,4:dgps,5:single,6:ppp,ns=# of satellites)
%  GPST                      x-ecef(m)      y-ecef(m)      z-ecef(m)   Q  ns   sdx(m)   sdy(m)   sdz(m)  sdxy(m)  sdyz(m)  sdzx(m) age(s)  ratio
2021/04/17 01:47:09.497    455570.8797   3639409.7676   5200658.6114   2   6   0.6033   1.3381   1.5390   0.3585   0.9688   0.2999   9.50    0.0
2021/04/17 01:47:09.997    455570.9443   3639409.9255   5200658.6883   2   6   0.4288   0.9503   1.0961   0.2540   0.6886   0.2148  10.00    0.0
2021/04/17 01:47:10.497    455570.9558   3639410.0120   5200658.6971   2   6   0.3508   0.7772   0.8973   0.2075   0.5634   0.1761  10.50    0.0
2021/04/17 01:47:10.997    455570.9510   3639410.1296   5200658.7413   2   6   0.3041   0.6738   0.7782   0.1798   0.4885   0.1528  11.00    0.0
2021/04/17 01:47:11.497    455570.9722   3639410.1866   5200658.7488   2   6   0.2722   0.6031   0.6968   0.1609   0.4374   0.1369  11.50    0.0
2021/04/17 01:47:11.997    455570.9947   3639410.2002   5200658.7390   2   6   0.2487   0.5509   0.6366   0.1469   0.3996   0.1250  12.00    0.0
2021/04/17 01:47:12.997    455571.0108   3639410.1852   5200658.7001   2   6   0.2304   0.5105   0.5899   0.1361   0.3703   0.1158  13.00    0.0
2021/04/17 01:47:14.497    455571.0492   3639410.1884   5200658.6833   2   6   0.2157   0.4780   0.5524   0.1273   0.3469   0.1083  14.50    0.0
2021/04/17 01:47:16.997    455571.0791   3639410.2549   5200658.6764   2   6   0.2037   0.4514   0.5217   0.1201   0.3278   0.1021  17.00    0.0
2021/04/17 01:47:19.000    455571.1196   3639410.2773   5200658.6906   2   6   0.1936   0.4291   0.4958   0.1141   0.3117   0.0968  19.00    0.0
2021/04/17 01:47:23.000    455571.1441   3639410.3212   5200658.6793   2   6   0.1852   0.4107   0.4743   0.1091   0.2986   0.0923  23.00    0.0
2021/04/17 01:47:27.000    455571.6858   3639411.2380   5200658.3372   2   6   0.6032   1.3391   1.5419   0.3554   0.9732   0.2969  27.00    1.5
2021/04/17 01:47:35.000    455571.6004   3639411.5273   5200659.4270   2   6   0.4285   0.9505   1.0989   0.2503   0.6929   0.2119   5.00    1.0
2021/04/17 01:47:38.000    455571.6396   3639411.7059   5200659.8886   2   6   0.3503   0.7769   0.8993   0.2040   0.5669   0.1734   8.00    1.1
2021/04/17 01:47:39.000    455571.6518   3639411.8134   5200660.0127   2   6   0.3036   0.6733   0.7797   0.1766   0.4915   0.1504   9.00    1.1
2021/04/17 01:47:42.000    455571.6461   3639411.8756   5200660.1280   2   6   0.2717   0.6027   0.6984   0.1577   0.4403   0.1345  12.00    1.1
2021/04/17 01:47:48.000    455571.6553   3639411.8498   5200659.9900   2   6   0.2485   0.5512   0.6392   0.1437   0.4034   0.1226  18.00    1.0
2021/04/17 01:47:50.000    455571.6681   3639411.8641   5200659.9267   2   6   0.2304   0.5111   0.5925   0.1332   0.3742   0.1135  20.00    1.0
2021/04/17 01:47:59.000    455571.6274   3639411.8659   5200659.8815   2   6   0.2167   0.4811   0.5576   0.1249   0.3530   0.1059  29.00    1.0
2021/04/17 01:48:01.000    455571.5801   3639411.7881   5200659.8205   2   6   0.2024   0.4472   0.5165   0.1148   0.3286   0.0991   1.00    1.2
2021/04/17 01:48:04.000    455571.5476   3639411.7560   5200659.7715   2   6   0.1920   0.4238   0.4892   0.1086   0.3117   0.0937   4.00    1.2
2021/04/17 01:48:07.000    455571.5306   3639411.6815   5200659.6743   2   6   0.1832   0.4042   0.4666   0.1034   0.2975   0.0892   7.00    1.1
2021/04/17 01:48:12.000    455571.5201   3639411.6305   5200659.6094   2   6   0.1756   0.3877   0.4479   0.0989   0.2857   0.0853  12.00    1.1
2021/04/17 01:48:15.000    455571.5160   3639411.5582   5200659.5195   2   6   0.1691   0.3734   0.4312   0.0952   0.2753   0.0819  15.00    1.0
2021/04/17 01:48:18.000    455571.5046   3639411.4804   5200659.4403   2   6   0.1633   0.3609   0.4167   0.0920   0.2662   0.0788  18.00    1.0
2021/04/17 01:48:20.000    455571.4818   3639411.4287   5200659.3745   2   6   0.1581   0.3496   0.4035   0.0891   0.2580   0.0761  20.00    1.1
2021/04/17 01:48:23.000    455571.4890   3639411.4296   5200659.3627   2   6   0.1537   0.3401   0.3922   0.0867   0.2510   0.0736  23.00    1.1
2021/04/17 01:48:26.000    455571.4884   3639411.3995   5200659.3624   2   6   0.1498   0.3319   0.3822   0.0847   0.2450   0.0713  26.00    1.0
2021/04/17 01:48:29.000    455571.4913   3639411.3673   5200659.3479   2   6   0.1465   0.3247   0.3734   0.0830   0.2397   0.0692  29.00    1.0
2021/04/17 01:48:31.000    455571.5197   3639411.3239   5200659.3878   2   6   0.1391   0.3057   0.3508   0.0762   0.2263   0.0666   1.00    1.0
2021/04/17 01:48:34.000    455571.5363   3639411.2712   5200659.3801   2   6   0.1356   0.2973   0.3402   0.0740   0.2203   0.0646   4.00    1.0
2021/04/17 01:48:42.000    455571.5569   3639411.2010   5200659.3740   2   6   0.1329   0.2914   0.3337   0.0723   0.2164   0.0629  12.00    1.1
2021/04/17 01:48:45.000    455571.5651   3639411.1116   5200659.3349   2   6   0.1303   0.2857   0.3270   0.0709   0.2122   0.0613  15.00    1.2
2021/04/17 01:48:46.000    455571.5808   3639411.0386   5200659.3081   2   6   0.1276   0.2800   0.3202   0.0695   0.2079   0.0599  16.00    1.3
2021/04/17 01:48:47.000    455571.6014   3639410.9810   5200659.2892   2   6   0.1251   0.2747   0.3140   0.0683   0.2040   0.0586  17.00    1.4
2021/04/17 01:48:50.000    455571.6333   3639410.9496   5200659.2791   2   6   0.1232   0.2707   0.3092   0.0674   0.2011   0.0574  20.00    1.4
2021/04/17 01:48:53.000    455571.6494   3639410.9268   5200659.2571   2   6   0.1215   0.2674   0.3049   0.0667   0.1986   0.0562  23.00    1.4
2021/04/17 01:48:56.000    455571.6582   3639410.8959   5200659.2310   2   6   0.1201   0.2647   0.3013   0.0661   0.1966   0.0551  26.00    1.4
2021/04/17 01:48:59.000    455571.6733   3639410.8864   5200659.2378   2   6   0.1189   0.2625   0.2982   0.0658   0.1949   0.0541  29.00    1.4
2021/04/17 01:49:04.000    455571.6678   3639410.9399   5200659.3039   2   6   0.1125   0.2455   0.2798   0.0592   0.1831   0.0524   4.00    1.3
2021/04/17 01:49:05.000    455571.6737   3639410.9492   5200659.3353   2   6   0.1107   0.2405   0.2727   0.0579   0.1794   0.0512   5.00    1.3
2021/04/17 01:49:07.000    455571.6809   3639410.9470   5200659.3475   2   6   0.1090   0.2365   0.2674   0.0568   0.1764   0.0502   7.00    1.2
2021/04/17 01:49:10.000    455571.6818   3639410.9522   5200659.3601   2   6   0.1076   0.2333   0.2635   0.0561   0.1741   0.0493  10.00    1.2
2021/04/17 01:49:11.000    455571.6848   3639410.9441   5200659.3658   2   6   0.1061   0.2300   0.2594   0.0553   0.1716   0.0484  11.00    1.2
2021/04/17 01:49:14.000    455571.6837   3639410.9476   5200659.3860   2   6   0.1050   0.2277   0.2566   0.0548   0.1700   0.0476  14.00    1.2
2021/04/17 01:49:16.000    455571.6784   3639410.9433   5200659.3981   2   6   0.1038   0.2255   0.2539   0.0544   0.1683   0.0469  16.00    1.1
2021/04/17 01:49:18.000    455571.6707   3639410.9492   5200659.4063   2   6   0.1028   0.2236   0.2514   0.0540   0.1669   0.0462  18.00    1.1
2021/04/17 01:49:21.000    455571.6661   3639410.9529   5200659.4235   2   6   0.1022   0.2226   0.2499   0.0539   0.1661   0.0455  21.00    1.1
2021/04/17 01:49:24.000    455571.6656   3639410.9532   5200659.4458   2   6   0.1018   0.2221   0.2489   0.0540   0.1657   0.0449  24.00    1.1
2021/04/17 01:49:27.000    455571.6547   3639410.9447   5200659.4660   2   6   0.1015   0.2220   0.2482   0.0543   0.1656   0.0442  27.00    1.0
2021/04/17 01:49:29.000    455571.6528   3639410.9361   5200659.4761   2   6   0.1010   0.2214   0.2470   0.0543   0.1650   0.0436  29.00    1.0
2021/04/17 01:49:31.000    455571.6515   3639410.9465   5200659.4937   2   6   0.0944   0.2029   0.2264   0.0470   0.1520   0.0423   1.00    1.0
2021/04/17 01:49:34.000    455571.6432   3639410.9556   5200659.5215   2   6   0.0933   0.1997   0.2216   0.0461   0.1496   0.0415   4.00    1.0
2021/04/17 01:49:37.000    455571.6335   3639410.9890   5200659.5472   2   6   0.0925   0.1975   0.2188   0.0456   0.1481   0.0408   7.00    1.0
2021/04/17 01:49:39.000    455571.6270   3639411.0228   5200659.5720   2   6   0.0916   0.1956   0.2164   0.0452   0.1467   0.0403   9.00    1.0
2021/04/17 01:49:42.000    455571.6197   3639411.0502   5200659.5812   2   6   0.0911   0.1945   0.2150   0.0450   0.1459   0.0397  12.00    1.0
2021/04/17 01:49:44.000    455571.6146   3639411.0840   5200659.6033   2   6   0.0905   0.1934   0.2135   0.0448   0.1450   0.0393  14.00    1.0
2021/04/17 01:49:47.000    455571.6099   3639411.1173   5200659.6331   2   6   0.0902   0.1932   0.2130   0.0450   0.1448   0.0388  17.00    1.0
2021/04/17 01:49:49.000    455571.6006   3639411.1529   5200659.6733   2   6   0.0898   0.1926   0.2122   0.0450   0.1444   0.0383  19.00    1.0
2021/04/17 01:49:54.000    455571.5936   3639411.1872   5200659.7116   2   6   0.0904   0.1949   0.2139   0.0460   0.1460   0.0378  24.00    1.1
2021/04/17 01:49:56.000    455571.5873   3639411.2145   5200659.7317   2   6   0.0903   0.1951   0.2138   0.0462   0.1461   0.0374  26.00    1.1
2021/04/17 01:49:59.000    455571.5778   3639411.2264   5200659.7339   2   6   0.0906   0.1965   0.2148   0.0469   0.1471   0.0370  29.00    1.1
2021/04/17 01:50:02.000    455571.5898   3639411.1829   5200659.6855   2   6   0.0837   0.1771   0.1941   0.0391   0.1333   0.0360   2.00    1.1
2021/04/17 01:50:07.000    455571.5781   3639411.1859   5200659.6977   2   6   0.0833   0.1757   0.1924   0.0389   0.1324   0.0355   7.00    1.1
2021/04/17 01:50:09.000    455571.5738   3639411.1860   5200659.7083   2   6   0.0827   0.1744   0.1905   0.0386   0.1314   0.0350   9.00    1.1
2021/04/17 01:50:12.000    455571.5680   3639411.1852   5200659.7168   2   6   0.0825   0.1740   0.1898   0.0387   0.1311   0.0346  12.00    1.1
2021/04/17 01:50:14.000    455571.5601   3639411.1771   5200659.7229   2   6   0.0821   0.1735   0.1890   0.0387   0.1307   0.0342  14.00    1.1
2021/04/17 01:50:15.000    455571.5524   3639411.1686   5200659.7269   2   6   0.0817   0.1726   0.1879   0.0386   0.1300   0.0338  15.00    1.1
2021/04/17 01:50:19.000    455571.5451   3639411.1675   5200659.7303   2   6   0.0820   0.1741   0.1891   0.0392   0.1311   0.0334  19.00    1.1
2021/04/17 01:50:22.000    455571.5403   3639411.1641   5200659.7231   2   6   0.0823   0.1753   0.1900   0.0398   0.1319   0.0331  22.00    1.1
2021/04/17 01:50:27.000    455571.5322   3639411.1645   5200659.7370   2   6   0.0836   0.1791   0.1934   0.0413   0.1346   0.0326  27.00    1.1
2021/04/17 01:50:29.000    455571.5307   3639411.1605   5200659.7365   2   6   0.0838   0.1802   0.1942   0.0418   0.1354   0.0323  29.00    1.1
2021/04/17 01:50:31.000    455571.5474   3639411.1133   5200659.6319   2   6   0.0765   0.1591   0.1711   0.0332   0.1201   0.0315   1.00    1.1
2021/04/17 01:50:35.000    455571.5375   3639411.1193   5200659.6112   2   6   0.0761   0.1574   0.1687   0.0329   0.1189   0.0309   5.00    1.0
2021/04/17 01:50:37.000    455571.5290   3639411.1226   5200659.5981   2   6   0.0757   0.1562   0.1669   0.0326   0.1180   0.0305   7.00    1.0
2021/04/17 01:50:39.000    455571.5240   3639411.1311   5200659.5958   2   6   0.0754   0.1554   0.1658   0.0325   0.1174   0.0302   9.00    1.0
2021/04/17 01:50:41.000    455571.5167   3639411.1377   5200659.6011   2   6   0.0752   0.1551   0.1652   0.0326   0.1171   0.0298  11.00    1.0
2021/04/17 01:50:44.000    455571.5149   3639411.1390   5200659.5942   2   6   0.0752   0.1557   0.1656   0.0329   0.1175   0.0295  14.00    1.0
2021/04/17 01:50:47.000    455571.5119   3639411.1385   5200659.5801   2   6   0.0755   0.1568   0.1666   0.0335   0.1183   0.0292  17.00    1.0
2021/04/17 01:50:51.000    455571.5095   3639411.1453   5200659.5912   2   6   0.0762   0.1593   0.1689   0.0345   0.1201   0.0288  21.00    1.0
2021/04/17 01:50:53.000    455571.5080   3639411.1404   5200659.5955   2   6   0.0765   0.1603   0.1699   0.0350   0.1209   0.0286  23.00    1.0
2021/04/17 01:50:55.000    455571.5049   3639411.1349   5200659.5905   2   6   0.0768   0.1616   0.1710   0.0356   0.1218   0.0283  25.00    1.0
2021/04/17 01:50:58.000    455571.5051   3639411.1219   5200659.5788   2   6   0.0776   0.1643   0.1735   0.0367   0.1237   0.0280  28.00    1.0
2021/04/17 01:50:59.000    455571.5070   3639411.1197   5200659.5797   2   6   0.0777   0.1648   0.1739   0.0370   0.1240   0.0277  29.00    1.0
2021/04/17 01:51:01.000    455571.5098   3639411.1070   5200659.5246   2   6   0.0699   0.1422   0.1496   0.0277   0.1075   0.0272   1.00    1.0
2021/04/17 01:51:06.000    455571.5063   3639411.1163   5200659.5143   2   6   0.0698   0.1414   0.1486   0.0277   0.1070   0.0268   6.00    1.1
2021/04/17 01:51:09.000    455571.5040   3639411.1136   5200659.4984   2   6   0.0697   0.1413   0.1483   0.0278   0.1070   0.0265   9.00    1.1
2021/04/17 01:51:11.000    455571.5005   3639411.1151   5200659.4855   2   6   0.0696   0.1412   0.1481   0.0280   0.1069   0.0262  11.00    1.1
2021/04/17 01:51:13.000    455571.4998   3639411.1097   5200659.4719   2   6   0.0697   0.1415   0.1483   0.0282   0.1071   0.0259  13.00    1.1
2021/04/17 01:51:17.000    455571.4999   3639411.1129   5200659.4701   2   6   0.0703   0.1437   0.1504   0.0292   0.1087   0.0256  17.00    1.1
2021/04/17 01:51:20.000    455571.4953   3639411.1053   5200659.4575   2   6   0.0709   0.1458   0.1523   0.0300   0.1102   0.0253  20.00    1.1
2021/04/17 01:51:22.000    455571.4933   3639411.0984   5200659.4436   2   6   0.0713   0.1471   0.1536   0.0306   0.1112   0.0251  22.00    1.1
2021/04/17 01:51:24.000    455571.4883   3639411.0898   5200659.4223   2   6   0.0717   0.1487   0.1552   0.0313   0.1123   0.0248  24.00    1.1
2021/04/17 01:51:28.000    455571.4861   3639411.0897   5200659.4156   2   6   0.0731   0.1531   0.1594   0.0329   0.1155   0.0244  28.00    1.1
2021/04/17 01:51:31.000    455571.4990   3639411.0407   5200659.3532   2   6   0.0655   0.1304   0.1347   0.0234   0.0988   0.0241   1.00    1.1
2021/04/17 01:51:33.000    455571.5005   3639411.0200   5200659.3295   2   6   0.0652   0.1285   0.1317   0.0228   0.0972   0.0235   3.00    1.1
2021/04/17 01:51:36.000    455571.5001   3639410.9993   5200659.3124   2   6   0.0651   0.1279   0.1309   0.0228   0.0968   0.0232   6.00    1.1
2021/04/17 01:51:37.000    455571.5039   3639410.9917   5200659.2980   2   6   0.0648   0.1271   0.1298   0.0226   0.0961   0.0229   7.00    1.1
2021/04/17 01:51:40.000    455571.5061   3639410.9761   5200659.2813   2   6   0.0650   0.1276   0.1304   0.0230   0.0966   0.0227  10.00    1.1
2021/04/17 01:51:43.000    455571.5083   3639410.9604   5200659.2715   2   6   0.0653   0.1289   0.1316   0.0236   0.0975   0.0225  13.00    1.1
2021/04/17 01:51:45.000    455571.5124   3639410.9451   5200659.2571   2   6   0.0655   0.1298   0.1325   0.0241   0.0982   0.0222  15.00    1.1
2021/04/17 01:51:47.000    455571.5129   3639410.9344   5200659.2471   2   6   0.0658   0.1310   0.1337   0.0247   0.0990   0.0220  17.00    1.1
2021/04/17 01:51:50.000    455571.5123   3639410.9204   5200659.2363   2   6   0.0665   0.1334   0.1363   0.0257   0.1009   0.0217  20.00    1.1
2021/04/17 01:51:53.000    455571.5131   3639410.9118   5200659.2311   2   6   0.0674   0.1364   0.1393   0.0269   0.1031   0.0214  23.00    1.1
2021/04/17 01:51:56.000    455571.5137   3639410.9021   5200659.2294   2   6   0.0685   0.1398   0.1427   0.0282   0.1056   0.0211  26.00    1.1
2021/04/17 01:51:58.000    455571.5147   3639410.8937   5200659.2219   2   6   0.0692   0.1421   0.1451   0.0291   0.1073   0.0208  28.00    1.1
2021/04/17 01:52:00.000    455571.5122   3639410.8973   5200659.1914   2   6   0.0612   0.1180   0.1188   0.0187   0.0893   0.0209   0.00    1.1
2021/04/17 01:52:03.000    455571.5110   3639410.8943   5200659.1711   2   6   0.0610   0.1165   0.1167   0.0182   0.0881   0.0204   3.00    1.1
2021/04/17 01:52:06.000    455571.5121   3639410.8891   5200659.1627   2   6   0.0609   0.1162   0.1164   0.0184   0.0879   0.0202   6.00    1.1
2021/04/17 01:52:09.000    455571.5132   3639410.8771   5200659.1508   2   6   0.0611   0.1168   0.1171   0.0188   0.0884   0.0199   9.00    1.1
2021/04/17 01:52:11.000    455571.5153   3639410.8750   5200659.1442   2   6   0.0612   0.1173   0.1177   0.0192   0.0888   0.0197  11.00    1.1
2021/04/17 01:52:13.000    455571.5167   3639410.8686   5200659.1424   2   6   0.0614   0.1182   0.1186   0.0197   0.0895   0.0195  13.00    1.1
2021/04/17 01:52:16.000    455571.5187   3639410.8683   5200659.1468   2   6   0.0620   0.1204   0.1209   0.0207   0.0911   0.0192  16.00    1.1
2021/04/17 01:52:19.000    455571.5218   3639410.8640   5200659.1538   2   6   0.0628   0.1231   0.1238   0.0218   0.0932   0.0189  19.00    1.1
2021/04/17 01:52:22.000    455571.5233   3639410.8556   5200659.1480   2   6   0.0638   0.1263   0.1271   0.0231   0.0956   0.0186  22.00    1.1
2021/04/17 01:52:24.000    455571.5266   3639410.8453   5200659.1393   2   6   0.0645   0.1285   0.1295   0.0241   0.0973   0.0183  24.00    1.1
2021/04/17 01:52:26.000    455571.5289   3639410.8394   5200659.1351   2   6   0.0652   0.1309   0.1320   0.0250   0.0991   0.0180  26.00    1.1
2021/04/17 01:52:29.000    455571.5307   3639410.8389   5200659.1373   2   6   0.0665   0.1351   0.1364   0.0265   0.1022   0.0176  29.00    1.1
2021/04/17 01:52:32.000    455571.5199   3639410.8552   5200659.1226   2   6   0.0577   0.1084   0.1074   0.0149   0.0821   0.0183   2.00    1.1
2021/04/17 01:52:35.000    455571.5133   3639410.8484   5200659.1207   2   6   0.0576   0.1078   0.1069   0.0149   0.0817   0.0180   5.00    1.1
2021/04/17 01:52:37.000    455571.5087   3639410.8448   5200659.1234   2   6   0.0577   0.1077   0.1068   0.0151   0.0816   0.0178   7.00    1.1
2021/04/17 01:52:39.000    455571.5063   3639410.8444   5200659.1223   2   6   0.0577   0.1081   0.1072   0.0154   0.0819   0.0175   9.00    1.1
2021/04/17 01:52:42.000    455571.5014   3639410.8383   5200659.1146   2   6   0.0582   0.1097   0.1089   0.0163   0.0832   0.0173  12.00    1.1
2021/04/17 01:52:45.000    455571.5031   3639410.8557   5200659.1359   2   6   0.0588   0.1119   0.1114   0.0173   0.0849   0.0170  15.00    1.1
2021/04/17 01:52:48.000    455571.4967   3639410.8648   5200659.1425   2   6   0.0597   0.1147   0.1144   0.0186   0.0870   0.0167  18.00    1.1
2021/04/17 01:52:50.000    455571.4932   3639410.8683   5200659.1446   2   6   0.0602   0.1167   0.1166   0.0195   0.0886   0.0164  20.00    1.1
2021/04/17 01:52:52.000    455571.4885   3639410.8724   5200659.1476   2   6   0.0609   0.1190   0.1190   0.0204   0.0903   0.0161  22.00    1.1
2021/04/17 01:52:55.000    455571.4827   3639410.8670   5200659.1477   2   6   0.0621   0.1230   0.1232   0.0220   0.0933   0.0156  25.00    1.1
2021/04/17 01:52:58.000    455571.4799   3639410.8706   5200659.1484   2   6   0.0635   0.1273   0.1279   0.0235   0.0966   0.0151  28.00    1.1
2021/04/17 01:53:01.000    455571.4720   3639410.8591   5200659.0996   2   6   0.0548   0.1005   0.0981   0.0111   0.0761   0.0161   1.00    1.1
2021/04/17 01:53:03.000    455571.4702   3639410.8623   5200659.0936   2   6   0.0547   0.0993   0.0965   0.0105   0.0751   0.0158   3.00    1.1
2021/04/17 01:53:05.000    455571.4676   3639410.8588   5200659.0960   2   6   0.0547   0.0988   0.0960   0.0105   0.0748   0.0155   5.00    1.1
2021/04/17 01:53:08.000    455571.4665   3639410.8607   5200659.1014   2   6   0.0549   0.0996   0.0970   0.0112   0.0754   0.0153   8.00    1.1
2021/04/17 01:53:10.000    455571.4640   3639410.8581   5200659.0989   2   6   0.0551   0.1004   0.0980   0.0118   0.0760   0.0151  10.00    1.1
2021/04/17 01:53:13.000    455571.4649   3639410.8544   5200659.1016   2   6   0.0557   0.1025   0.1003   0.0130   0.0777   0.0148  13.00    1.1
2021/04/17 01:53:15.000    455571.4640   3639410.8516   5200659.1035   2   6   0.0561   0.1041   0.1022   0.0139   0.0789   0.0146  15.00    1.1
2021/04/17 01:53:18.000    455571.4661   3639410.8511   5200659.1040   2   6   0.0570   0.1072   0.1056   0.0154   0.0814   0.0142  18.00    1.1
2021/04/17 01:53:20.000    455571.4656   3639410.8466   5200659.1028   2   6   0.0577   0.1095   0.1082   0.0164   0.0831   0.0138  20.00    1.1
2021/04/17 01:53:23.000    455571.4668   3639410.8409   5200659.1024   2   6   0.0589   0.1134   0.1125   0.0181   0.0862   0.0133  23.00    1.1
2021/04/17 01:53:26.000    455571.4679   3639410.8343   5200659.1047   2   6   0.0603   0.1178   0.1173   0.0198   0.0896   0.0127  26.00    1.1
2021/04/17 01:53:28.000    455571.4658   3639410.8283   5200659.0988   2   6   0.0612   0.1209   0.1207   0.0209   0.0920   0.0122  28.00    1.1
2021/04/17 01:53:30.000    455571.4719   3639410.8272   5200659.0712   2   6   0.0522   0.0926   0.0887   0.0059   0.0700   0.0140   0.00    1.1
2021/04/17 01:53:33.000    455571.4712   3639410.8223   5200659.0506   2   6   0.0521   0.0916   0.0876   0.0053   0.0692   0.0137   3.00    1.1
2021/04/17 01:53:35.000    455571.4697   3639410.8205   5200659.0409   2   6   0.0521   0.0913   0.0874   0.0055   0.0691   0.0135   5.00    1.1
2021/04/17 01:53:39.000    455571.4722   3639410.8147   5200659.0300   2   6   0.0526   0.0930   0.0896   0.0073   0.0705   0.0132   9.00    1.1
2021/04/17 01:53:42.000    455571.4712   3639410.8098   5200659.0212   2   6   0.0532   0.0951   0.0921   0.0089   0.0721   0.0129  12.00    1.1
2021/04/17 01:53:44.000    455571.4693   3639410.8073   5200659.0122   2   6   0.0536   0.0968   0.0940   0.0101   0.0735   0.0126  14.00    1.1
2021/04/17 01:53:46.000    455571.4649   3639410.8068   5200659.0069   2   6   0.0542   0.0987   0.0963   0.0113   0.0750   0.0123  16.00    1.1
2021/04/17 01:53:48.000    455571.4610   3639410.8078   5200659.0059   2   6   0.0548   0.1010   0.0988   0.0125   0.0768   0.0119  18.00    1.1
2021/04/17 01:53:50.000    455571.4597   3639410.8101   5200659.0092   2   6   0.0555   0.1035   0.1016   0.0137   0.0787   0.0115  20.00    1.1
2021/04/17 01:53:52.000    455571.4569   3639410.8133   5200659.0068   2   6   0.0563   0.1062   0.1047   0.0149   0.0809   0.0111  22.00    1.1
2021/04/17 01:53:54.000    455571.4518   3639410.8137   5200659.0072   2   6   0.0571   0.1091   0.1080   0.0162   0.0832   0.0105  24.00    1.1
2021/04/17 01:53:56.000    455571.4456   3639410.8118   5200659.0024   2   6   0.0581   0.1122   0.1115   0.0174   0.0856   0.0100  26.00    1.1
2021/04/17 01:53:59.000    455571.4385   3639410.8158   5200659.0041   2   6   0.0597   0.1173   0.1171   0.0193   0.0896   0.0089  29.00    1.1
2021/04/17 01:54:01.000    455571.4348   3639410.8343   5200659.0074   2   6   0.0498   0.0858   0.0812  -0.0050   0.0648   0.0121   1.00    1.1
2021/04/17 01:54:04.000    455571.4282   3639410.8430   5200659.0099   2   6   0.0498   0.0854   0.0810  -0.0049   0.0646   0.0119   4.00    1.1
2021/04/17 01:54:06.000    455571.4262   3639410.8429   5200659.0155   2   6   0.0499   0.0856   0.0814  -0.0043   0.0648   0.0117   6.00    1.1
2021/04/17 01:54:08.000    455571.4253   3639410.8480   5200659.0213   2   6   0.0501   0.0863   0.0823  -0.0028   0.0653   0.0115   8.00    1.1
2021/04/17 01:54:11.000    455571.4217   3639410.8483   5200659.0263   2   6   0.0506   0.0883   0.0848   0.0038   0.0670   0.0111  11.00    1.1
2021/04/17 01:54:13.000    455571.4176   3639410.8535   5200659.0326   2   6   0.0511   0.0900   0.0868   0.0057   0.0684   0.0108  13.00    1.1
2021/04/17 01:54:16.000    455571.4141   3639410.8578   5200659.0394   2   6   0.0520   0.0932   0.0905   0.0082   0.0709   0.0102  16.00    1.1
2021/04/17 01:54:20.000    455571.4101   3639410.8581   5200659.0385   2   6   0.0536   0.0985   0.0966   0.0111   0.0752   0.0093  20.00    1.1
2021/04/17 01:54:24.000    455571.4081   3639410.8667   5200659.0565   2   6   0.0555   0.1047   0.1036   0.0139   0.0801   0.0080  24.00    1.1
2021/04/17 01:54:27.000    455571.4046   3639410.8722   5200659.0649   2   6   0.0570   0.1097   0.1093   0.0159   0.0841   0.0066  27.00    1.1
2021/04/17 01:54:28.000    455571.4036   3639410.8756   5200659.0671   2   6   0.0575   0.1114   0.1112   0.0166   0.0855   0.0061  28.00    1.1
2021/04/17 01:54:30.000    455571.4083   3639410.8511   5200659.0010   2   6   0.0479   0.0803   0.0751  -0.0087   0.0606   0.0105   0.00    1.2
2021/04/17 01:54:31.000    455571.4056   3639410.8510   5200658.9916   2   6   0.0478   0.0790   0.0734  -0.0094   0.0595   0.0102   1.00    1.2
2021/04/17 01:54:33.000    455571.4051   3639410.8544   5200658.9867   2   6   0.0477   0.0784   0.0729  -0.0094   0.0591   0.0099   3.00    1.2
2021/04/17 01:54:36.000    455571.4042   3639410.8555   5200658.9847   2   6   0.0480   0.0791   0.0740  -0.0088   0.0597   0.0097   6.00    1.2
2021/04/17 01:54:38.000    455571.4026   3639410.8587   5200658.9837   2   6   0.0482   0.0799   0.0752  -0.0082   0.0605   0.0095   8.00    1.2
2021/04/17 01:54:40.000    455571.4016   3639410.8661   5200658.9868   2   6   0.0485   0.0813   0.0769  -0.0073   0.0616   0.0092  10.00    1.2
2021/04/17 01:54:42.000    455571.3980   3639410.8736   5200658.9869   2   6   0.0489   0.0830   0.0790  -0.0060   0.0630   0.0088  12.00    1.2
2021/04/17 01:54:44.000    455571.3951   3639410.8785   5200658.9881   2   6   0.0495   0.0850   0.0815  -0.0041   0.0646   0.0084  14.00    1.3
2021/04/17 01:54:47.000    455571.3975   3639410.8831   5200658.9881   2   6   0.0505   0.0888   0.0859   0.0043   0.0677   0.0075  17.00    1.3
2021/04/17 01:54:49.000    455571.3975   3639410.8859   5200658.9909   2   6   0.0513   0.0915   0.0892   0.0068   0.0699   0.0068  19.00    1.3
2021/04/17 01:54:51.000    455571.3959   3639410.8870   5200658.9875   2   6   0.0521   0.0945   0.0927   0.0087   0.0724   0.0059  21.00    1.3
2021/04/17 01:54:53.000    455571.3946   3639410.8913   5200658.9918   2   6   0.0531   0.0978   0.0964   0.0104   0.0750   0.0048  23.00    1.3
2021/04/17 01:54:58.000    455571.3921   3639410.8939   5200658.9990   2   6   0.0559   0.1068   0.1067   0.0141   0.0822  -0.0036  28.00    1.3
2021/04/17 01:55:00.000    455571.3949   3639410.8900   5200658.9736   2   6   0.0460   0.0741   0.0682  -0.0110   0.0558   0.0087   0.00    1.3
2021/04/17 01:55:02.000    455571.3949   3639410.8925   5200658.9668   2   6   0.0459   0.0732   0.0673  -0.0112   0.0551   0.0084   2.00    1.3
2021/04/17 01:55:05.000    455571.3927   3639410.8938   5200658.9657   2   6   0.0461   0.0737   0.0682  -0.0108   0.0556   0.0082   5.00    1.4
2021/04/17 01:55:06.000    455571.3906   3639410.8946   5200658.9604   2   6   0.0461   0.0737   0.0684  -0.0107   0.0557   0.0080   6.00    1.4
2021/04/17 01:55:08.000    455571.3901   3639410.8939   5200658.9603   2   6   0.0464   0.0748   0.0699  -0.0102   0.0565   0.0077   8.00    1.4
2021/04/17 01:55:10.000    455571.3874   3639410.8945   5200658.9602   2   6   0.0467   0.0762   0.0718  -0.0095   0.0578   0.0073  10.00    1.4
2021/04/17 01:55:12.000    455571.3842   3639410.8969   5200658.9617   2   6   0.0472   0.0781   0.0741  -0.0087   0.0594   0.0068  12.00    1.4
2021/04/17 01:55:15.000    455571.3811   3639410.8915   5200658.9591   2   6   0.0482   0.0817   0.0785  -0.0068   0.0623   0.0059  15.00    1.4
2021/04/17 01:55:17.000    455571.3798   3639410.8971   5200658.9594   2   6   0.0489   0.0844   0.0817  -0.0049   0.0645   0.0050  17.00    1.4
2021/04/17 01:55:19.000    455571.3790   3639410.8890   5200658.9613   2   6   0.0497   0.0873   0.0852   0.0013   0.0669   0.0037  19.00    1.4
2021/04/17 01:55:21.000    455571.3789   3639410.8933   5200658.9653   2   6   0.0506   0.0905   0.0890   0.0054   0.0695   0.0013  21.00    1.4
2021/04/17 01:55:23.000    455571.3790   3639410.8960   5200658.9608   2   6   0.0515   0.0939   0.0929   0.0078   0.0723  -0.0035  23.00    1.4
2021/04/17 01:55:26.000    455571.3770   3639410.8997   5200658.9653   2   6   0.0532   0.0993   0.0993   0.0105   0.0768  -0.0059  26.00    1.4
2021/04/17 01:55:28.000    455571.3746   3639410.9053   5200658.9729   2   6   0.0544   0.1032   0.1037   0.0121   0.0799  -0.0072  28.00    1.4
2021/04/17 01:55:30.000    455571.3628   3639410.9102   5200658.9643   2   6   0.0442   0.0690   0.0629  -0.0121   0.0519   0.0071   0.00    1.4
2021/04/17 01:55:32.000    455571.3609   3639410.9085   5200658.9555   2   6   0.0441   0.0683   0.0622  -0.0123   0.0514   0.0070   2.00    1.4
2021/04/17 01:55:34.000    455571.3571   3639410.9100   5200658.9478   2   6   0.0442   0.0683   0.0626  -0.0121   0.0514   0.0066   4.00    1.4
2021/04/17 01:55:37.000    455571.3548   3639410.9146   5200658.9521   2   6   0.0446   0.0697   0.0646  -0.0116   0.0527   0.0063   7.00    1.4
2021/04/17 01:55:40.000    455571.3529   3639410.9242   5200658.9583   2   6   0.0452   0.0721   0.0678  -0.0109   0.0547   0.0056  10.00    1.4
2021/04/17 01:55:45.000    455571.3482   3639410.9272   5200658.9562   2   6   0.0468   0.0781   0.0752  -0.0088   0.0597   0.0033  15.00    1.5
2021/04/17 01:55:48.000    455571.3480   3639410.9333   5200658.9537   2   6   0.0480   0.0825   0.0805  -0.0068   0.0634  -0.0023  18.00    1.5
2021/04/17 01:55:51.000    455571.3487   3639410.9308   5200658.9573   2   6   0.0494   0.0874   0.0864  -0.0029   0.0675  -0.0050  21.00    1.5
2021/04/17 01:55:52.000    455571.3496   3639410.9318   5200658.9548   2   6   0.0498   0.0891   0.0884   0.0025   0.0689  -0.0057  22.00    1.5
2021/04/17 01:55:54.000    455571.3511   3639410.9327   5200658.9550   2   6   0.0509   0.0927   0.0927   0.0060   0.0719  -0.0069  24.00    1.5
2021/04/17 01:55:57.000    455571.3514   3639410.9325   5200658.9528   2   6   0.0527   0.0985   0.0995   0.0091   0.0767  -0.0086  27.00    1.5
2021/04/17 01:55:59.000    455571.3526   3639410.9360   5200658.9593   2   6   0.0539   0.1025   0.1041   0.0108   0.0800  -0.0096  29.00    1.5
2021/04/17 01:56:00.000    455571.3545   3639410.9293   5200658.9464   2   6   0.0428   0.0650   0.0588  -0.0130   0.0489   0.0059   0.00    1.5
2021/04/17 01:56:02.000    455571.3574   3639410.9274   5200658.9455   2   6   0.0428   0.0644   0.0583  -0.0131   0.0484   0.0055   2.00    1.6
2021/04/17 01:56:04.000    455571.3621   3639410.9279   5200658.9487   2   6   0.0428   0.0645   0.0588  -0.0129   0.0486   0.0052   4.00    1.6
2021/04/17 01:56:07.000    455571.3619   3639410.9268   5200658.9438   2   6   0.0432   0.0660   0.0611  -0.0125   0.0500   0.0047   7.00    1.6
2021/04/17 01:56:09.000    455571.3647   3639410.9254   5200658.9442   2   6   0.0436   0.0676   0.0631  -0.0121   0.0513   0.0041   9.00    1.7
2021/04/17 01:56:11.000    455571.3665   3639410.9261   5200658.9466   2   6   0.0441   0.0695   0.0657  -0.0115   0.0530   0.0030  11.00    1.7
2021/04/17 01:56:13.000    455571.3674   3639410.9268   5200658.9464   2   6   0.0446   0.0719   0.0687  -0.0109   0.0550   0.0007  13.00    1.7
2021/04/17 01:56:15.000    455571.3700   3639410.9283   5200658.9533   2   6   0.0453   0.0746   0.0721  -0.0101   0.0573  -0.0031  15.00    1.7
2021/04/17 01:56:18.000    455571.3707   3639410.9310   5200658.9559   2   6   0.0466   0.0792   0.0777  -0.0085   0.0612  -0.0052  18.00    1.7
2021/04/17 01:56:22.000    455571.3692   3639410.9367   5200658.9629   2   6   0.0486   0.0862   0.0861  -0.0051   0.0671  -0.0075  22.00    1.7
2021/04/17 01:56:24.000    455571.3703   3639410.9411   5200658.9680   2   6   0.0497   0.0900   0.0906   0.0006   0.0702  -0.0086  24.00    1.7
2021/04/17 01:56:26.000    455571.3717   3639410.9435   5200658.9710   2   6   0.0509   0.0939   0.0953   0.0054   0.0735  -0.0096  26.00    1.8
2021/04/17 01:56:29.000    455571.3696   3639410.9477   5200658.9734   2   6   0.0528   0.1001   0.1025   0.0086   0.0786  -0.0111  29.00    1.8
2021/04/17 01:56:30.000    455571.3732   3639410.9332   5200658.9381   2   6   0.0414   0.0612   0.0550  -0.0136   0.0460   0.0042   0.00    1.8
2021/04/17 01:56:32.000    455571.3740   3639410.9331   5200658.9395   2   6   0.0414   0.0606   0.0546  -0.0137   0.0456   0.0040   2.00    1.8
2021/04/17 01:56:34.000    455571.3752   3639410.9317   5200658.9439   2   6   0.0415   0.0609   0.0552  -0.0135   0.0458   0.0037   4.00    1.9
2021/04/17 01:56:36.000    455571.3748   3639410.9337   5200658.9437   2   6   0.0417   0.0617   0.0566  -0.0133   0.0467   0.0031   6.00    1.9
2021/04/17 01:56:39.000    455571.3730   3639410.9298   5200658.9481   2   6   0.0423   0.0641   0.0600  -0.0128   0.0488   0.0011   9.00    1.9
2021/04/17 01:56:41.000    455571.3749   3639410.9359   5200658.9528   2   6   0.0428   0.0662   0.0627  -0.0123   0.0506  -0.0026  11.00    1.9
2021/04/17 01:56:45.000    455571.3755   3639410.9339   5200658.9497   2   6   0.0442   0.0717   0.0696  -0.0111   0.0553  -0.0052  15.00    1.9
2021/04/17 01:56:47.000    455571.3774   3639410.9366   5200658.9519   2   6   0.0450   0.0748   0.0735  -0.0103   0.0580  -0.0063  17.00    1.9
2021/04/17 01:56:50.000    455571.3765   3639410.9295   5200658.9473   2   6   0.0465   0.0800   0.0798  -0.0087   0.0624  -0.0078  20.00    1.9
2021/04/17 01:56:55.000    455571.3779   3639410.9302   5200658.9515   2   6   0.0493   0.0897   0.0914  -0.0044   0.0705  -0.0103  25.00    1.9
2021/04/17 01:56:58.000    455571.3804   3639410.9284   5200658.9535   2   6   0.0512   0.0959   0.0988   0.0045   0.0758  -0.0117  28.00    1.9
2021/04/17 01:57:00.000    455571.3820   3639410.9271   5200658.9370   2   6   0.0404   0.0579   0.0517  -0.0142   0.0435   0.0026   0.00    2.0
2021/04/17 01:57:01.000    455571.3836   3639410.9241   5200658.9342   2   6   0.0403   0.0572   0.0510  -0.0143   0.0429   0.0021   1.00    2.0
2021/04/17 01:57:02.000    455571.3857   3639410.9191   5200658.9286   2   6   0.0402   0.0567   0.0507  -0.0143   0.0426   0.0014   2.00    2.0
2021/04/17 01:57:04.000    455571.3859   3639410.9178   5200658.9278   2   6   0.0404   0.0571   0.0515  -0.0142   0.0430  -0.0006   4.00    2.0
2021/04/17 01:57:06.000    455571.3867   3639410.9196   5200658.9296   2   6   0.0406   0.0581   0.0531  -0.0139   0.0439  -0.0021   6.00    2.0
2021/04/17 01:57:09.000    455571.3857   3639410.9206   5200658.9297   2   6   0.0412   0.0607   0.0567  -0.0135   0.0462  -0.0036   9.00    2.0
2021/04/17 01:57:11.000    455571.3882   3639410.9160   5200658.9273   2   6   0.0417   0.0629   0.0597  -0.0131   0.0482  -0.0046  11.00    2.0
2021/04/17 01:57:16.000    455571.3933   3639410.9036   5200658.9219   2   6   0.0436   0.0703   0.0691  -0.0118   0.0546  -0.0071  16.00    2.0
2021/04/17 01:57:18.000    455571.3948   3639410.8911   5200658.9115   2   6   0.0445   0.0737   0.0734  -0.0110   0.0576  -0.0080  18.00    2.0
2021/04/17 01:57:22.000    455571.3971   3639410.8867   5200658.9051   2   6   0.0466   0.0813   0.0826  -0.0092   0.0640  -0.0099  22.00    2.0
2021/04/17 01:57:23.000    455571.3970   3639410.8820   5200658.9042   2   6   0.0472   0.0832   0.0850  -0.0086   0.0657  -0.0104  23.00    2.0
2021/04/17 01:57:24.000    455571.3976   3639410.8811   5200658.9014   2   6   0.0477   0.0852   0.0874  -0.0079   0.0674  -0.0109  24.00    2.0
2021/04/17 01:57:26.000    455571.4015   3639410.8802   5200658.9100   2   6   0.0490   0.0894   0.0924  -0.0062   0.0709  -0.0118  26.00    2.0
2021/04/17 01:57:28.000    455571.4030   3639410.8726   5200658.9021   2   6   0.0502   0.0937   0.0975  -0.0038   0.0746  -0.0128  28.00    2.1
2021/04/17 01:57:29.000    455571.4036   3639410.8698   5200658.8980   2   6   0.0509   0.0959   0.1001  -0.0011   0.0764  -0.0132  29.00    2.1
2021/04/17 01:57:31.000    455571.3912   3639410.8970   5200658.9047   2   6   0.0391   0.0543   0.0483  -0.0144   0.0407  -0.0020   1.00    2.1
2021/04/17 01:57:33.000    455571.3919   3639410.8920   5200658.8952   2   6   0.0391   0.0543   0.0487  -0.0144   0.0408  -0.0026   3.00    2.1
2021/04/17 01:57:35.000    455571.3937   3639410.8895   5200658.8971   2   6   0.0393   0.0550   0.0500  -0.0142   0.0416  -0.0032   5.00    2.1
2021/04/17 01:57:37.000    455571.3957   3639410.8872   5200658.8938   2   6   0.0396   0.0564   0.0521  -0.0140   0.0429  -0.0039   7.00    2.1
2021/04/17 01:57:38.000    455571.3964   3639410.8828   5200658.8888   2   6   0.0398   0.0572   0.0533  -0.0138   0.0436  -0.0043   8.00    2.1
2021/04/17 01:57:41.000    455571.3989   3639410.8812   5200658.8807   2   6   0.0406   0.0606   0.0579  -0.0134   0.0467  -0.0056  11.00    2.1
2021/04/17 01:57:43.000    455571.4027   3639410.8780   5200658.8807   2   6   0.0413   0.0634   0.0615  -0.0129   0.0491  -0.0065  13.00    2.0
2021/04/17 01:57:45.000    455571.4070   3639410.8757   5200658.8826   2   6   0.0420   0.0665   0.0655  -0.0125   0.0518  -0.0074  15.00    2.0
2021/04/17 01:57:48.000    455571.4112   3639410.8692   5200658.8807   2   6   0.0434   0.0717   0.0721  -0.0116   0.0564  -0.0088  18.00    2.0
2021/04/17 01:57:50.000    455571.4118   3639410.8666   5200658.8741   2   6   0.0444   0.0755   0.0767  -0.0109   0.0596  -0.0097  20.00    2.0
2021/04/17 01:57:56.000    455571.4133   3639410.8648   5200658.8845   2   6   0.0481   0.0879   0.0918  -0.0080   0.0703  -0.0126  26.00    2.0
2021/04/17 01:57:59.000    455571.4135   3639410.8671   5200658.8915   2   6   0.0501   0.0945   0.0997  -0.0057   0.0759  -0.0141  29.00    2.0
2021/04/17 01:58:01.000    455571.4046   3639410.8767   5200658.8899   2   6   0.0381   0.0518   0.0460  -0.0146   0.0389  -0.0034   1.00    2.0
2021/04/17 01:58:02.000    455571.4022   3639410.8747   5200658.8897   2   6   0.0381   0.0515   0.0458  -0.0147   0.0386  -0.0036   2.00    2.1
2021/04/17 01:58:03.000    455571.4002   3639410.8761   5200658.8894   2   6   0.0381   0.0514   0.0459  -0.0146   0.0386  -0.0040   3.00    2.1
2021/04/17 01:58:05.000    455571.3971   3639410.8803   5200658.9014   2   6   0.0383   0.0522   0.0474  -0.0145   0.0395  -0.0043   5.00    2.1
2021/04/17 01:58:08.000    455571.3930   3639410.8828   5200658.9074   2   6   0.0389   0.0547   0.0511  -0.0142   0.0418  -0.0052   8.00    2.1
2021/04/17 01:58:10.000    455571.3883   3639410.8893   5200658.9090   2   6   0.0394   0.0570   0.0542  -0.0139   0.0439  -0.0060  10.00    2.2
2021/04/17 01:58:12.000    455571.3836   3639410.8927   5200658.9168   2   6   0.0400   0.0597   0.0579  -0.0136   0.0463  -0.0068  12.00    2.2
2021/04/17 01:58:14.000    455571.3802   3639410.8966   5200658.9222   2   6   0.0407   0.0628   0.0619  -0.0132   0.0490  -0.0077  14.00    2.2
2021/04/17 01:58:16.000    455571.3771   3639410.8976   5200658.9294   2   6   0.0416   0.0661   0.0662  -0.0127   0.0520  -0.0086  16.00    2.2
2021/04/17 01:58:19.000    455571.3716   3639410.9091   5200658.9433   2   6   0.0431   0.0717   0.0732  -0.0120   0.0569  -0.0100  19.00    2.2
2021/04/17 01:58:21.000    455571.3636   3639410.9140   5200658.9488   2   6   0.0442   0.0757   0.0781  -0.0113   0.0603  -0.0109  21.00    2.2
2021/04/17 01:58:23.000    455571.3608   3639410.9216   5200658.9577   2   6   0.0453   0.0798   0.0832  -0.0106   0.0639  -0.0119  23.00    2.2
2021/04/17 01:58:28.000    455571.3576   3639410.9356   5200658.9795   2   6   0.0487   0.0908   0.0965  -0.0084   0.0734  -0.0143  28.00    2.3
2021/04/17 01:58:31.000    455571.3729   3639410.8949   5200658.8991   2   6   0.0372   0.0491   0.0435  -0.0148   0.0369  -0.0042   1.00    2.3
2021/04/17 01:58:33.000    455571.3724   3639410.8988   5200658.9004   2   6   0.0372   0.0493   0.0441  -0.0148   0.0371  -0.0046   3.00    2.3
2021/04/17 01:58:35.000    455571.3698   3639410.9020   5200658.9073   2   6   0.0374   0.0502   0.0457  -0.0146   0.0380  -0.0049   5.00    2.3
2021/04/17 01:58:36.000    455571.3684   3639410.9022   5200658.9033   2   6   0.0375   0.0508   0.0467  -0.0145   0.0386  -0.0052   6.00    2.3
2021/04/17 01:58:38.000    455571.3674   3639410.9024   5200658.9000   2   6   0.0379   0.0527   0.0494  -0.0143   0.0404  -0.0058   8.00    2.3
2021/04/17 01:58:41.000    455571.3639   3639410.9068   5200658.9003   2   6   0.0388   0.0564   0.0546  -0.0140   0.0438  -0.0069  11.00    2.3
2021/04/17 01:58:43.000    455571.3614   3639410.9094   5200658.9025   2   6   0.0395   0.0594   0.0586  -0.0137   0.0465  -0.0078  13.00    2.3
2021/04/17 01:58:45.000    455571.3594   3639410.9129   5200658.9014   2   6   0.0403   0.0628   0.0629  -0.0134   0.0495  -0.0087  15.00    2.4
2021/04/17 01:58:57.000    455571.3564   3639410.9240   5200658.9198   2   6   0.0475   0.0875   0.0937  -0.0104   0.0712  -0.0145  27.00    2.4
2021/04/17 01:58:58.000    455571.3544   3639410.9238   5200658.9190   2   6   0.0481   0.0898   0.0964  -0.0100   0.0732  -0.0150  28.00    2.4
2021/04/17 01:58:59.000    455571.3526   3639410.9276   5200658.9171   2   6   0.0488   0.0921   0.0992  -0.0096   0.0752  -0.0155  29.00    2.4
2021/04/17 01:59:00.000    455571.3563   3639410.9134   5200658.8958   2   6   0.0364   0.0470   0.0415  -0.0150   0.0353  -0.0048   0.00    2.4
2021/04/17 01:59:01.000    455571.3555   3639410.9154   5200658.8942   2   6   0.0363   0.0466   0.0411  -0.0150   0.0349  -0.0049   1.00    2.4
2021/04/17 01:59:03.000    455571.3541   3639410.9163   5200658.8931   2   6   0.0364   0.0468   0.0419  -0.0149   0.0353  -0.0051   3.00    2.4
2021/04/17 01:59:05.000    455571.3519   3639410.9174   5200658.8948   2   6   0.0366   0.0479   0.0436  -0.0148   0.0363  -0.0054   5.00    2.4
2021/04/17 01:59:08.000    455571.3511   3639410.9195   5200658.8962   2   6   0.0372   0.0507   0.0478  -0.0146   0.0389  -0.0063   8.00    2.5
2021/04/17 01:59:10.000    455571.3473   3639410.9229   5200658.9003   2   6   0.0378   0.0531   0.0513  -0.0144   0.0412  -0.0071  10.00    2.5
2021/04/17 01:59:12.000    455571.3453   3639410.9238   5200658.9044   2   6   0.0384   0.0560   0.0552  -0.0142   0.0439  -0.0079  12.00    2.5
2021/04/17 01:59:14.000    455571.3438   3639410.9261   5200658.9047   2   6   0.0392   0.0593   0.0596  -0.0139   0.0469  -0.0088  14.00    2.5
2021/04/17 01:59:17.000    455571.3417   3639410.9318   5200658.9098   2   6   0.0406   0.0648   0.0667  -0.0135   0.0519  -0.0101  17.00    2.5
2021/04/17 01:59:19.000    455571.3362   3639410.9297   5200658.9071   2   6   0.0417   0.0688   0.0717  -0.0131   0.0554  -0.0111  19.00    2.5
2021/04/17 01:59:21.000    455571.3344   3639410.9327   5200658.9086   2   6   0.0428   0.0730   0.0769  -0.0128   0.0591  -0.0121  21.00    2.5
2021/04/17 01:59:26.000    455571.3296   3639410.9431   5200658.9264   2   6   0.0461   0.0840   0.0906  -0.0117   0.0688  -0.0146  26.00    2.5
2021/04/17 01:59:28.000    455571.3261   3639410.9440   5200658.9209   2   6   0.0475   0.0886   0.0962  -0.0112   0.0729  -0.0157  28.00    2.5
2021/04/17 01:59:30.000    455571.3302   3639410.9238   5200658.8817   2   6   0.0355   0.0448   0.0395  -0.0150   0.0336  -0.0051   0.00    2.6
2021/04/17 01:59:33.000    455571.3296   3639410.9214   5200658.8759   2   6   0.0356   0.0451   0.0404  -0.0150   0.0340  -0.0054   3.00    2.6
2021/04/17 01:59:36.000    455571.3285   3639410.9199   5200658.8743   2   6   0.0361   0.0471   0.0437  -0.0148   0.0360  -0.0060   6.00    2.7
2021/04/17 01:59:38.000    455571.3267   3639410.9162   5200658.8706   2   6   0.0365   0.0492   0.0467  -0.0147   0.0380  -0.0067   8.00    2.7
2021/04/17 01:59:40.000    455571.3254   3639410.9150   5200658.8678   2   6   0.0371   0.0517   0.0503  -0.0145   0.0404  -0.0074  10.00    2.7
2021/04/17 01:59:41.000    455571.3247   3639410.9162   5200658.8734   2   6   0.0374   0.0531   0.0523  -0.0144   0.0417  -0.0078  11.00    2.7
2021/04/17 01:59:43.000    455571.3254   3639410.9127   5200658.8688   2   6   0.0381   0.0563   0.0566  -0.0142   0.0446  -0.0087  13.00    2.7
2021/04/17 01:59:44.000    455571.3240   3639410.9097   5200658.8665   2   6   0.0385   0.0580   0.0589  -0.0141   0.0462  -0.0091  14.00    2.7
2021/04/17 01:59:46.000    455571.3222   3639410.9088   5200658.8651   2   6   0.0394   0.0617   0.0637  -0.0139   0.0495  -0.0101  16.00    2.7
2021/04/17 01:59:48.000    455571.3209   3639410.9046   5200658.8567   2   6   0.0404   0.0657   0.0687  -0.0136   0.0531  -0.0111  18.00    2.8
2021/04/17 01:59:50.000    455571.3173   3639410.9037   5200658.8493   2   6   0.0415   0.0698   0.0740  -0.0134   0.0568  -0.0121  20.00    2.8
2021/04/17 01:59:52.000    455571.3186   3639410.9010   5200658.8533   2   6   0.0427   0.0741   0.0794  -0.0131   0.0607  -0.0131  22.00    2.8
2021/04/17 01:59:54.000    455571.3186   3639410.9036   5200658.8568   2   6   0.0440   0.0786   0.0850  -0.0128   0.0646  -0.0141  24.00    2.8
2021/04/17 01:59:56.000    455571.3181   3639410.9019   5200658.8560   2   6   0.0454   0.0831   0.0906  -0.0124   0.0687  -0.0152  26.00    2.8
2021/04/17 01:59:58.000    455571.3187   3639410.9010   5200658.8539   2   6   0.0468   0.0878   0.0963  -0.0121   0.0728  -0.0163  28.00    2.8
2021/04/17 02:00:00.000    455571.3078   3639410.9219   5200658.8709   2   6   0.0346   0.0430   0.0379  -0.0150   0.0323  -0.0055   0.00    2.8
2021/04/17 02:00:02.000    455571.3102   3639410.9248   5200658.8792   2   6   0.0347   0.0429   0.0382  -0.0150   0.0323  -0.0055   2.00    2.9
2021/04/17 02:00:04.000    455571.3120   3639410.9239   5200658.8788   2   6   0.0348   0.0437   0.0397  -0.0148   0.0331  -0.0059   4.00    2.9
2021/04/17 02:00:06.000    455571.3121   3639410.9215   5200658.8743   2   6   0.0351   0.0452   0.0421  -0.0148   0.0346  -0.0063   6.00    2.9
2021/04/17 02:00:08.000    455571.3137   3639410.9178   5200658.8703   2   6   0.0356   0.0473   0.0453  -0.0147   0.0367  -0.0070   8.00    2.9
2021/04/17 02:00:10.000    455571.3166   3639410.9146   5200658.8682   2   6   0.0362   0.0500   0.0491  -0.0146   0.0392  -0.0077  10.00    2.9
2021/04/17 02:00:12.000    455571.3186   3639410.9134   5200658.8680   2   6   0.0369   0.0531   0.0534  -0.0144   0.0422  -0.0086  12.00    3.0
2021/04/17 02:00:14.000    455571.3197   3639410.9111   5200658.8658   2   6   0.0377   0.0566   0.0581  -0.0143   0.0454  -0.0095  14.00    3.0
2021/04/17 02:00:16.000    455571.3208   3639410.9086   5200658.8658   2   6   0.0386   0.0604   0.0630  -0.0141   0.0489  -0.0105  16.00    3.0
2021/04/17 02:00:18.000    455571.3204   3639410.9086   5200658.8651   2   6   0.0397   0.0644   0.0682  -0.0140   0.0525  -0.0115  18.00    3.0
2021/04/17 02:00:20.000    455571.3230   3639410.9103   5200658.8682   2   6   0.0408   0.0687   0.0736  -0.0138   0.0563  -0.0125  20.00    3.0
2021/04/17 02:00:22.000    455571.3257   3639410.9096   5200658.8713   2   6   0.0420   0.0731   0.0792  -0.0136   0.0603  -0.0136  22.00    3.0
2021/04/17 02:00:24.000    455571.3294   3639410.9059   5200658.8679   2   6   0.0433   0.0776   0.0849  -0.0134   0.0644  -0.0147  24.00    3.0
2021/04/17 02:00:26.000    455571.3308   3639410.9007   5200658.8634   2   6   0.0447   0.0822   0.0906  -0.0132   0.0685  -0.0157  26.00    3.0
2021/04/17 02:00:28.000    455571.3350   3639410.8991   5200658.8610   2   6   0.0462   0.0870   0.0965  -0.0130   0.0727  -0.0169  28.00    3.0
2021/04/17 02:00:30.000    455571.3162   3639410.9547   5200658.7871   1   6   0.0059   0.0136   0.0170   0.0002   0.0118  -0.0008   0.00    3.0
2021/04/17 02:00:32.000    455571.3164   3639410.9532   5200658.7827   1   6   0.0063   0.0147   0.0182   0.0010   0.0127  -0.0015   2.00    3.1
2021/04/17 02:00:34.000    455571.3174   3639410.9534   5200658.7830   1   6   0.0074   0.0175   0.0214   0.0013   0.0151  -0.0024   4.00    3.1
2021/04/17 02:00:36.000    455571.3167   3639410.9522   5200658.7840   1   6   0.0090   0.0213   0.0258   0.0017   0.0184  -0.0036   6.00    3.1
2021/04/17 02:00:38.000    455571.3190   3639410.9463   5200658.7813   1   6   0.0108   0.0258   0.0309   0.0021   0.0222  -0.0047   8.00    3.1
2021/04/17 02:00:40.000    455571.3215   3639410.9423   5200658.7762   1   6   0.0127   0.0306   0.0364   0.0024   0.0263  -0.0058  10.00    3.2
2021/04/17 02:00:42.000    455571.3221   3639410.9384   5200658.7759   1   6   0.0147   0.0356   0.0421   0.0027   0.0306  -0.0070  12.00    3.2
2021/04/17 02:00:44.000    455571.3253   3639410.9360   5200658.7786   1   6   0.0168   0.0407   0.0480   0.0030   0.0350  -0.0082  14.00    3.2
2021/04/17 02:00:46.000    455571.3247   3639410.9354   5200658.7735   1   6   0.0189   0.0459   0.0541   0.0033   0.0395  -0.0094  16.00    3.2
2021/04/17 02:00:50.000    455571.3269   3639410.9358   5200658.7798   1   6   0.0232   0.0564   0.0663   0.0039   0.0487  -0.0118  20.00    3.2
2021/04/17 02:00:52.000    455571.3257   3639410.9372   5200658.7822   1   6   0.0254   0.0617   0.0726   0.0042   0.0533  -0.0129  22.00    3.2
2021/04/17 02:00:54.000    455571.3252   3639410.9396   5200658.7846   1   6   0.0276   0.0671   0.0788   0.0044   0.0579  -0.0142  24.00    3.2
2021/04/17 02:00:56.000    455571.3224   3639410.9346   5200658.7799   1   6   0.0298   0.0724   0.0851   0.0046   0.0626  -0.0154  26.00    3.2
2021/04/17 02:01:01.000    455571.3147   3639410.9593   5200658.8003   1   6   0.0060   0.0139   0.0174   0.0013   0.0121  -0.0015   1.00    3.3
2021/04/17 02:01:03.000    455571.3134   3639410.9586   5200658.7991   1   6   0.0066   0.0159   0.0198   0.0007   0.0138  -0.0021   3.00    3.4
2021/04/17 02:01:05.000    455571.3117   3639410.9623   5200658.8038   1   6   0.0082   0.0193   0.0237   0.0012   0.0168  -0.0031   5.00    3.4
2021/04/17 02:01:07.000    455571.3115   3639410.9631   5200658.8060   1   6   0.0098   0.0236   0.0285   0.0013   0.0204  -0.0043   7.00    3.4
2021/04/17 02:01:11.000    455571.3079   3639410.9664   5200658.8114   1   6   0.0137   0.0331   0.0396   0.0016   0.0287  -0.0067  11.00    3.4
2021/04/17 02:01:13.000    455571.3073   3639410.9714   5200658.8153   1   6   0.0158   0.0382   0.0455   0.0017   0.0331  -0.0079  13.00    3.4
2021/04/17 02:01:15.000    455571.3056   3639410.9757   5200658.8206   1   6   0.0179   0.0433   0.0515   0.0018   0.0376  -0.0091  15.00    3.4
2021/04/17 02:01:17.000    455571.3019   3639410.9743   5200658.8179   1   6   0.0200   0.0486   0.0576   0.0018   0.0422  -0.0103  17.00    3.4
2021/04/17 02:01:19.000    455571.3019   3639410.9770   5200658.8236   1   6   0.0222   0.0538   0.0639   0.0018   0.0468  -0.0115  19.00    3.4
2021/04/17 02:01:28.000    455571.3010   3639410.9744   5200658.8252   1   6   0.0320   0.0779   0.0924  -0.0010   0.0679  -0.0171  28.00    3.4
2021/04/17 02:01:31.000    455571.3177   3639410.9584   5200658.7967   1   6   0.0060   0.0140   0.0175  -0.0008   0.0122  -0.0015   1.00    3.5
2021/04/17 02:01:32.000    455571.3159   3639410.9572   5200658.7948   1   6   0.0063   0.0148   0.0185  -0.0001   0.0129  -0.0018   2.00    3.5
2021/04/17 02:01:33.000    455571.3164   3639410.9556   5200658.7914   1   6   0.0068   0.0160   0.0199   0.0004   0.0139  -0.0023   3.00    3.6
2021/04/17 02:01:35.000    455571.3162   3639410.9561   5200658.7903   1   6   0.0081   0.0194   0.0238   0.0004   0.0169  -0.0033   5.00    3.6
2021/04/17 02:01:38.000    455571.3153   3639410.9587   5200658.7958   1   6   0.0108   0.0259   0.0314  -0.0010   0.0226  -0.0051   8.00    3.6
2021/04/17 02:01:41.000    455571.3140   3639410.9581   5200658.7981   1   6   0.0137   0.0332   0.0399  -0.0013   0.0290  -0.0069  11.00    3.6
2021/04/17 02:01:43.000    455571.3132   3639410.9562   5200658.7967   1   6   0.0158   0.0382   0.0459  -0.0016   0.0334  -0.0082  13.00    3.6
2021/04/17 02:01:45.000    455571.3135   3639410.9585   5200658.7988   1   6   0.0179   0.0434   0.0520  -0.0021   0.0380  -0.0094  15.00    3.6
2021/04/17 02:01:48.000    455571.3129   3639410.9558   5200658.8000   1   6   0.0211   0.0513   0.0613  -0.0026   0.0449  -0.0113  18.00    3.6
2021/04/17 02:01:49.000    455571.3132   3639410.9599   5200658.8102   1   6   0.0222   0.0539   0.0645  -0.0029   0.0473  -0.0119  19.00    3.6
2021/04/17 02:01:51.000    455571.3147   3639410.9599   5200658.8134   1   6   0.0243   0.0593   0.0708  -0.0033   0.0520  -0.0132  21.00    3.6
2021/04/17 02:01:55.000    455571.3161   3639410.9570   5200658.8106   1   6   0.0287   0.0700   0.0836  -0.0042   0.0614  -0.0157  25.00    3.6
2021/04/17 02:01:58.000    455571.3176   3639410.9483   5200658.8044   1   6   0.0320   0.0781   0.0933  -0.0050   0.0686  -0.0177  28.00    3.6
2021/04/17 02:02:03.000    455571.3198   3639410.9584   5200658.7973   1   6   0.0068   0.0160   0.0200   0.0002   0.0141  -0.0026   3.00    3.7
2021/04/17 02:02:12.000    455571.3160   3639410.9584   5200658.8086   1   6   0.0147   0.0357   0.0433  -0.0026   0.0315  -0.0078  12.00    3.7
2021/04/17 02:02:13.000    455571.3155   3639410.9576   5200658.8104   1   6   0.0158   0.0383   0.0463  -0.0029   0.0338  -0.0084  13.00    3.8
2021/04/17 02:02:14.000    455571.3174   3639410.9572   5200658.8136   1   6   0.0168   0.0409   0.0494  -0.0031   0.0360  -0.0091  14.00    3.8
2021/04/17 02:02:15.000    455571.3148   3639410.9581   5200658.8108   1   6   0.0179   0.0435   0.0525  -0.0034   0.0384  -0.0097  15.00    3.8
2021/04/17 02:02:18.000    455571.3155   3639410.9517   5200658.8102   1   6   0.0211   0.0514   0.0619  -0.0041   0.0454  -0.0117  18.00    3.8
2021/04/17 02:02:21.000    455571.3173   3639410.9515   5200658.8172   1   6   0.0243   0.0594   0.0715  -0.0050   0.0525  -0.0136  21.00    3.8
2021/04/17 02:02:23.000    455571.3175   3639410.9510   5200658.8233   1   6   0.0265   0.0647   0.0779  -0.0055   0.0572  -0.0149  23.00    3.8
2021/04/17 02:02:25.000    455571.3172   3639410.9520   5200658.8274   1   6   0.0287   0.0701   0.0844  -0.0061   0.0620  -0.0162  25.00    3.9
2021/04/17 02:02:28.000    455571.3161   3639410.9525   5200658.8342   1   6   0.0320   0.0782   0.0942  -0.0070   0.0692  -0.0182  28.00    3.9
2021/04/17 02:02:31.000    455571.3173   3639410.9619   5200658.8065   1   6   0.0058   0.0140   0.0177  -0.0006   0.0124  -0.0020   1.00    3.9
2021/04/17 02:02:33.000    455571.3190   3639410.9591   5200658.8035   1   6   0.0068   0.0160   0.0201  -0.0010   0.0142  -0.0026   3.00    4.0
2021/04/17 02:02:38.000    455571.3191   3639410.9564   5200658.8100   1   6   0.0108   0.0260   0.0319  -0.0023   0.0230  -0.0055   8.00    3.9
2021/04/17 02:02:40.000    455571.3184   3639410.9604   5200658.8125   1   6   0.0127   0.0308   0.0377  -0.0029   0.0273  -0.0068  10.00    3.9
2021/04/17 02:02:42.000    455571.3183   3639410.9668   5200658.8164   1   6   0.0148   0.0358   0.0437  -0.0034   0.0318  -0.0081  12.00    3.9
2021/04/17 02:02:44.000    455571.3163   3639410.9660   5200658.8158   1   6   0.0168   0.0410   0.0498  -0.0040   0.0364  -0.0094  14.00    3.9
2021/04/17 02:02:45.000    455571.3147   3639410.9652   5200658.8172   1   6   0.0179   0.0436   0.0530  -0.0043   0.0387  -0.0100  15.00    3.9
2021/04/17 02:02:48.000    455571.3126   3639410.9725   5200658.8265   1   6   0.0211   0.0515   0.0625  -0.0052   0.0458  -0.0120  18.00    3.9
2021/04/17 02:02:51.000    455571.3139   3639410.9723   5200658.8401   1   6   0.0244   0.0595   0.0722  -0.0062   0.0530  -0.0140  21.00    3.8
2021/04/17 02:02:53.000    455571.3139   3639410.9735   5200658.8384   1   6   0.0265   0.0649   0.0787  -0.0069   0.0578  -0.0154  23.00    3.8
2021/04/17 02:02:58.000    455571.3154   3639410.9680   5200658.8372   1   6   0.0320   0.0784   0.0951  -0.0086   0.0699  -0.0187  28.00    3.8
2021/04/17 02:03:00.000    455571.3166   3639410.9630   5200658.8072   1   6   0.0058   0.0138   0.0175  -0.0003   0.0123  -0.0021   0.00    3.8
2021/04/17 02:03:03.000    455571.3179   3639410.9624   5200658.8052   1   6   0.0066   0.0161   0.0203  -0.0017   0.0143  -0.0027   3.00    3.9
2021/04/17 02:03:05.000    455571.3169   3639410.9598   5200658.8029   1   6   0.0081   0.0195   0.0244  -0.0018   0.0174  -0.0039   5.00    3.9
2021/04/17 02:03:06.000    455571.3164   3639410.9592   5200658.8033   1   6   0.0089   0.0216   0.0268  -0.0023   0.0192  -0.0045   6.00    4.0
2021/04/17 02:03:08.000    455571.3162   3639410.9596   5200658.8096   1   6   0.0108   0.0260   0.0322  -0.0028   0.0232  -0.0057   8.00    4.0
2021/04/17 02:03:11.000    455571.3167   3639410.9633   5200658.8136   1   6   0.0137   0.0334   0.0410  -0.0037   0.0298  -0.0076  11.00    4.0
2021/04/17 02:03:14.000    455571.3163   3639410.9615   5200658.8109   1   6   0.0168   0.0411   0.0503  -0.0047   0.0367  -0.0097  14.00    4.0
2021/04/17 02:03:16.000    455571.3164   3639410.9589   5200658.8127   1   6   0.0190   0.0463   0.0567  -0.0055   0.0415  -0.0110  16.00    4.0
2021/04/17 02:03:18.000    455571.3163   3639410.9602   5200658.8162   1   6   0.0211   0.0516   0.0631  -0.0062   0.0462  -0.0124  18.00    4.1
2021/04/17 02:03:21.000    455571.3149   3639410.9680   5200658.8263   1   6   0.0244   0.0596   0.0729  -0.0073   0.0535  -0.0144  21.00    4.1
2021/04/17 02:03:23.000    455571.3127   3639410.9679   5200658.8234   1   6   0.0266   0.0650   0.0795  -0.0080   0.0584  -0.0158  23.00    4.1
2021/04/17 02:03:26.000    455571.3146   3639410.9629   5200658.8162   1   6   0.0298   0.0731   0.0894  -0.0091   0.0657  -0.0179  26.00    4.1
2021/04/17 02:03:28.000    455571.3152   3639410.9614   5200658.8137   1   6   0.0321   0.0785   0.0960  -0.0099   0.0706  -0.0193  28.00    4.1
2021/04/17 02:03:31.000    455571.3167   3639410.9606   5200658.8003   1   6   0.0060   0.0141   0.0179  -0.0016   0.0126  -0.0021   1.00    4.2
2021/04/17 02:03:33.000    455571.3172   3639410.9549   5200658.7880   1   6   0.0068   0.0161   0.0204  -0.0019   0.0144  -0.0027   3.00    4.3
2021/04/17 02:03:35.000    455571.3171   3639410.9582   5200658.7930   1   6   0.0081   0.0196   0.0246  -0.0023   0.0175  -0.0040   5.00    4.3
2021/04/17 02:03:38.000    455571.3166   3639410.9588   5200658.7965   1   6   0.0108   0.0261   0.0325  -0.0032   0.0235  -0.0059   8.00    4.3
2021/04/17 02:03:39.000    455571.3183   3639410.9618   5200658.8018   1   6   0.0117   0.0285   0.0354  -0.0035   0.0256  -0.0065   9.00    4.3
2021/04/17 02:03:42.000    455571.3145   3639410.9640   5200658.8012   1   6   0.0148   0.0360   0.0445  -0.0046   0.0324  -0.0086  12.00    4.4
2021/04/17 02:03:44.000    455571.3139   3639410.9678   5200658.8090   1   6   0.0168   0.0411   0.0508  -0.0054   0.0371  -0.0100  14.00    4.4
2021/04/17 02:03:46.000    455571.3135   3639410.9687   5200658.8132   1   6   0.0190   0.0464   0.0572  -0.0062   0.0419  -0.0113  16.00    4.4
2021/04/17 02:03:49.000    455571.3112   3639410.9742   5200658.8171   1   6   0.0222   0.0544   0.0670  -0.0074   0.0491  -0.0135  19.00    4.4
2021/04/17 02:03:51.000    455571.3082   3639410.9736   5200658.8111   1   6   0.0244   0.0598   0.0736  -0.0082   0.0540  -0.0149  21.00    4.4
2021/04/17 02:03:53.000    455571.3072   3639410.9781   5200658.8152   1   6   0.0266   0.0651   0.0802  -0.0090   0.0589  -0.0163  23.00    4.4
2021/04/17 02:03:55.000    455571.3066   3639410.9802   5200658.8208   1   6   0.0288   0.0706   0.0869  -0.0098   0.0639  -0.0177  25.00    4.4
2021/04/17 02:03:57.000    455571.3045   3639410.9833   5200658.8303   1   6   0.0310   0.0760   0.0936  -0.0107   0.0688  -0.0191  27.00    4.5
2021/04/17 02:04:00.000    455571.3172   3639410.9587   5200658.8005   1   6   0.0058   0.0139   0.0177  -0.0018   0.0124  -0.0022   0.00    4.6
2021/04/17 02:04:02.000    455571.3155   3639410.9610   5200658.8032   1   6   0.0063   0.0149   0.0190  -0.0017   0.0134  -0.0026   2.00    4.6
2021/04/17 02:04:04.000    455571.3167   3639410.9611   5200658.8028   1   6   0.0073   0.0177   0.0225  -0.0022   0.0160  -0.0037   4.00    4.7
2021/04/17 02:04:06.000    455571.3143   3639410.9593   5200658.8029   1   6   0.0090   0.0217   0.0273  -0.0028   0.0196  -0.0048   6.00    4.8
